"name","address","url","latitude","longitude","source_file"
"第１庁舎（複合施設）","東京都世田谷区世田谷4-21-27","","35.646581","139.653243","01_131121_public_facility.csv"
"第２庁舎","東京都世田谷区世田谷4-22-35","","35.646152","139.651755","01_131121_public_facility.csv"
"第３庁舎（複合施設）","東京都世田谷区世田谷4-22-33","","35.64647","139.652243","01_131121_public_facility.csv"
"分庁舎ノバビル","東京都世田谷区世田谷4-22-11ノバビル","","35.646729","139.651655","01_131121_public_facility.csv"
"城山分庁舎","東京都世田谷区世田谷4-24-1","","35.648097","139.651096","01_131121_public_facility.csv"
"美松堂ビル","東京都世田谷区若林4-31-7","","35.645767","139.653649","01_131121_public_facility.csv"
"プレハブ会議室","東京都世田谷区世田谷4-19-10","","35.645334","139.652839","01_131121_public_facility.csv"
"世田谷総合支所（複合施設）","東京都世田谷区世田谷4-22-33","","35.64647","139.652243","01_131121_public_facility.csv"
"世田谷保健福祉センター（健康づくり課分室）（複合施設）","東京都世田谷区若林4-22-13","","35.644434","139.65357","01_131121_public_facility.csv"
"北沢総合支所（複合施設）","東京都世田谷区北沢2-8-18","","35.662208","139.66972","01_131121_public_facility.csv"
"玉川総合支所（複合施設）","東京都世田谷区等々力3-4-1","","35.608582","139.648462","01_131121_public_facility.csv"
"砧総合支所（複合施設）","東京都世田谷区成城6-2-1","","35.641265","139.600691","01_131121_public_facility.csv"
"成城二丁目事務所棟","東京都世田谷区成城2-33-15","","35.639226","139.598295","01_131121_public_facility.csv"
"烏山総合支所（複合施設）","東京都世田谷区南烏山6-22-14","","35.669836","139.597976","01_131121_public_facility.csv"
"太子堂出張所（複合施設）","東京都世田谷区太子堂2-17-1","","35.644777","139.671139","01_131121_public_facility.csv"
"経堂出張所（複合施設）","東京都世田谷区宮坂1-44-29","","35.650582","139.641481","01_131121_public_facility.csv"
"用賀出張所（複合施設）","東京都世田谷区用賀2-29-22","","35.62561","139.636452","01_131121_public_facility.csv"
"二子玉川出張所（複合施設）","東京都世田谷区玉川4-4-5","","35.615468","139.626705","01_131121_public_facility.csv"
"烏山出張所（複合施設）","東京都世田谷区南烏山6-2-19","","35.668837","139.600537","01_131121_public_facility.csv"
"池尻まちづくりセンター（複合施設）","東京都世田谷区池尻3-27-21","","35.649821","139.67869","01_131121_public_facility.csv"
"太子堂まちづくりセンター（複合施設）","東京都世田谷区太子堂2-17-1","","35.644777","139.671139","01_131121_public_facility.csv"
"若林まちづくりセンター（複合施設）","東京都世田谷区若林1-34-2","","35.646106","139.66376","01_131121_public_facility.csv"
"上町まちづくりセンター（複合施設）","東京都世田谷区世田谷1-23-5","","35.641906","139.647502","01_131121_public_facility.csv"
"経堂まちづくりセンター（複合施設）","東京都世田谷区宮坂1-44-29","","35.650582","139.641481","01_131121_public_facility.csv"
"下馬まちづくりセンター（複合施設）","東京都世田谷区下馬4-13-4","","35.635975","139.679084","01_131121_public_facility.csv"
"上馬まちづくりセンター（複合施設）","東京都世田谷区上馬4-10-17","","35.635039","139.662542","01_131121_public_facility.csv"
"北沢まちづくりセンター（複合施設）","東京都世田谷区北沢2-8-18","","35.662208","139.66972","01_131121_public_facility.csv"
"梅丘まちづくりセンター（複合施設）","東京都世田谷区梅丘1-61-16","","35.653407","139.652326","01_131121_public_facility.csv"
"代沢まちづくりセンター（複合施設）","東京都世田谷区代沢5-1-15","","35.654901","139.66779","01_131121_public_facility.csv"
"新代田まちづくりセンター（複合施設）","東京都世田谷区羽根木1-6-14","","35.66454","139.660427","01_131121_public_facility.csv"
"松原まちづくりセンター（複合施設）","東京都世田谷区松原5-43-28","","35.66465","139.651171","01_131121_public_facility.csv"
"松沢まちづくりセンター（複合施設）","東京都世田谷区赤堤5-31-5","","35.665384","139.638033","01_131121_public_facility.csv"
"奥沢まちづくりセンター（複合施設）","東京都世田谷区奥沢3-15-7","","35.600773","139.672945","01_131121_public_facility.csv"
"九品仏まちづくりセンター（複合施設）","東京都世田谷区奥沢7-35-4","","35.606917","139.661764","01_131121_public_facility.csv"
"等々力まちづくりセンター（複合施設）","東京都世田谷区等々力3-4-1","","35.608582","139.648462","01_131121_public_facility.csv"
"上野毛まちづくりセンター（複合施設）","東京都世田谷区中町2-33-11","","35.611404","139.641027","01_131121_public_facility.csv"
"用賀まちづくりセンター（複合施設）","東京都世田谷区用賀2-29-22","","35.62561","139.636452","01_131121_public_facility.csv"
"二子玉川まちづくりセンター（複合施設）","東京都世田谷区玉川4-4-5","","35.615468","139.626705","01_131121_public_facility.csv"
"深沢まちづくりセンター（複合施設）","東京都世田谷区駒沢4-33-12","","35.62792","139.652654","01_131121_public_facility.csv"
"祖師谷まちづくりセンター（複合施設）","東京都世田谷区祖師谷4-1-23","","35.646928","139.608218","01_131121_public_facility.csv"
"成城まちづくりセンター（複合施設）","東京都世田谷区成城6-3-10","","35.640809","139.600514","01_131121_public_facility.csv"
"船橋まちづくりセンター（複合施設）","東京都世田谷区船橋4-3-2","","35.655308","139.622534","01_131121_public_facility.csv"
"喜多見まちづくりセンター（複合施設）","東京都世田谷区喜多見5-11-10","","35.628916","139.601209","01_131121_public_facility.csv"
"砧まちづくりセンター（複合施設）","東京都世田谷区砧5-8-18","","35.637791","139.610003","01_131121_public_facility.csv"
"上北沢まちづくりセンター（複合施設）","東京都世田谷区上北沢4-32-9","","35.669968","139.617974","01_131121_public_facility.csv"
"上祖師谷まちづくりセンター（複合施設）","東京都世田谷区上祖師谷2-7-6","","35.6571","139.599674","01_131121_public_facility.csv"
"烏山まちづくりセンター（複合施設）","東京都世田谷区南烏山6-2-19","","35.668837","139.600537","01_131121_public_facility.csv"
"世田谷土木・公園管理事務所（複合施設）","東京都世田谷区若林1-34-2","","35.646106","139.66376","01_131121_public_facility.csv"
"北沢土木・公園管理事務所","東京都世田谷区代田5-19-1","","35.65999","139.664194","01_131121_public_facility.csv"
"玉川土木・公園管理事務所","東京都世田谷区中町4-35-11","","35.61741","139.640744","01_131121_public_facility.csv"
"砧土木・公園管理事務所","東京都世田谷区大蔵4-6-2","","35.631573","139.613042","01_131121_public_facility.csv"
"烏山土木・公園管理事務所","東京都世田谷区粕谷4-9-27","","35.664256","139.605581","01_131121_public_facility.csv"
"世田谷清掃事務所","東京都世田谷区上馬5-21-13","","35.641972","139.656376","01_131121_public_facility.csv"
"世田谷清掃事務所弦巻分室","東京都世田谷区弦巻1-51-12","","35.63769","139.647726","01_131121_public_facility.csv"
"玉川清掃事務所","東京都世田谷区野毛1-3-7","","35.599624","139.644504","01_131121_public_facility.csv"
"砧清掃事務所","東京都世田谷区八幡山2-7-1","","35.659834","139.61637","01_131121_public_facility.csv"
"エムケイアースビル（世田谷保健所試験検査室）","東京都世田谷区世田谷1-11-18エムケイアースビル","","35.641696","139.653326","01_131121_public_facility.csv"
"区史編さん担当事務室（複合施設）","東京都世田谷区弦巻3-16-8","","35.63769","139.644325","01_131121_public_facility.csv"
"グリーンプラザ","東京都世田谷区世田谷4-18-7","","35.645513","139.651821","01_131121_public_facility.csv"
"事務センター","東京都世田谷区弦巻2-23-1","","35.636393","139.653145","01_131121_public_facility.csv"
"消費生活センター（複合施設）","東京都世田谷区太子堂2-16-7三軒茶屋分庁舎3F","","35.64447","139.67114","01_131121_public_facility.csv"
"三軒茶屋分庁舎（複合施設）","東京都世田谷区太子堂2-16-7御幸ビル","","35.64447","139.67114","01_131121_public_facility.csv"
"梅丘分庁舎","東京都世田谷区松原6-3-5","","35.657031","139.653828","01_131121_public_facility.csv"
"世田谷区民会館（複合施設）","東京都世田谷区世田谷4-21-27","","35.646581","139.653243","01_131121_public_facility.csv"
"世田谷区民会館別館（三茶しゃれなあどホール）（複合施設）","東京都世田谷区太子堂2-16-7三軒茶屋分庁舎5F","","35.64447","139.67114","01_131121_public_facility.csv"
"北沢区民会館（北沢タウンホール）（複合施設）","東京都世田谷区北沢2-8-18","","35.662208","139.66972","01_131121_public_facility.csv"
"北沢区民会館別館（梅丘パークホール）（複合施設）","東京都世田谷区松原6-4-1歯科医師会館","","35.656922","139.652813","01_131121_public_facility.csv"
"玉川区民会館（玉川せせらぎホール）（複合施設）","東京都世田谷区等々力3-4-1","","35.608582","139.648462","01_131121_public_facility.csv"
"玉川区民会館別館（上用賀アートホール）（複合施設）","東京都世田谷区上用賀5-14-1-102","","35.630095","139.625844","01_131121_public_facility.csv"
"砧区民会館（成城ホール）（複合施設）","東京都世田谷区成城6-2-1","","35.641265","139.600691","01_131121_public_facility.csv"
"烏山区民会館（複合施設）","東京都世田谷区南烏山6-2-19","","35.668837","139.600537","01_131121_public_facility.csv"
"桜丘区民センター（複合施設）","東京都世田谷区桜丘5-14-1","","35.644782","139.622143","01_131121_public_facility.csv"
"桜丘区民センター（別棟）（複合施設）","東京都世田谷区桜丘2-22-1","","35.645851","139.623679","01_131121_public_facility.csv"
"太子堂区民センター（複合施設）","東京都世田谷区太子堂1-14-20","","35.642897","139.673622","01_131121_public_facility.csv"
"弦巻区民センター（複合施設）","東京都世田谷区弦巻1-26-11","","35.636934","139.651815","01_131121_public_facility.csv"
"宮坂区民センター（複合施設）","東京都世田谷区宮坂1-24-6","","35.647725","139.644755","01_131121_public_facility.csv"
"代田区民センター（複合施設）","東京都世田谷区代田6-34-13","","35.662869","139.660648","01_131121_public_facility.csv"
"奥沢区民センター（複合施設）","東京都世田谷区奥沢3-47-8","","35.603624","139.672397","01_131121_public_facility.csv"
"玉川台区民センター（複合施設）","東京都世田谷区玉川台1-6-15","","35.622935","139.633048","01_131121_public_facility.csv"
"深沢区民センター（複合施設）","東京都世田谷区深沢4-33-11","","35.620194","139.65387","01_131121_public_facility.csv"
"鎌田区民センター（複合施設）","東京都世田谷区鎌田3-35-1","","35.622285","139.613512","01_131121_public_facility.csv"
"粕谷区民センター（複合施設）","東京都世田谷区粕谷4-13-6","","35.663097","139.605159","01_131121_public_facility.csv"
"上北沢区民センター（複合施設）","東京都世田谷区上北沢3-8-9","","35.667566","139.625565","01_131121_public_facility.csv"
"烏山区民センター（複合施設）","東京都世田谷区南烏山6-2-19","","35.668837","139.600537","01_131121_public_facility.csv"
"池尻地区会館（複合施設）","東京都世田谷区池尻2-3-11","","35.646608","139.682525","01_131121_public_facility.csv"
"上馬地区会館（複合施設）","東京都世田谷区上馬4-10-17","","35.635039","139.662542","01_131121_public_facility.csv"
"経堂地区会館","東京都世田谷区経堂3-37-13","","35.651779","139.632161","01_131121_public_facility.csv"
"経堂地区会館別館","東京都世田谷区経堂3-1-15","","35.650341","139.633707","01_131121_public_facility.csv"
"経堂南地区会館","東京都世田谷区経堂5-21-6","","35.647522","139.630279","01_131121_public_facility.csv"
"下馬地区会館（複合施設）","東京都世田谷区下馬4-13-4","","35.635975","139.679084","01_131121_public_facility.csv"
"下馬南地区会館","東京都世田谷区下馬6-41-6","","35.632269","139.679039","01_131121_public_facility.csv"
"世田谷地区会館","東京都世田谷区世田谷2-25-10","","35.640797","139.640487","01_131121_public_facility.csv"
"中里地区会館","東京都世田谷区上馬2-24-17","","35.638831","139.666784","01_131121_public_facility.csv"
"野沢地区会館（複合施設）","東京都世田谷区野沢1-8-14","","35.634692","139.671056","01_131121_public_facility.csv"
"三宿地区会館","東京都世田谷区三宿2-7-10","","35.653153","139.677169","01_131121_public_facility.csv"
"梅丘地区会館（複合施設）","東京都世田谷区梅丘1-61-16","","35.653407","139.652326","01_131121_public_facility.csv"
"北沢地区会館（複合施設）","東京都世田谷区北沢3-3-10","","35.666362","139.672548","01_131121_public_facility.csv"
"桜上水南地区会館","東京都世田谷区桜上水3-4-11","","35.659466","139.633492","01_131121_public_facility.csv"
"代沢地区会館","東京都世田谷区代沢5-8-19","","35.657508","139.66809","01_131121_public_facility.csv"
"代沢東地区会館","東京都世田谷区代沢1-31-8","","35.657881","139.675894","01_131121_public_facility.csv"
"代田地区会館","東京都世田谷区代田4-14-3","","35.662399","139.657763","01_131121_public_facility.csv"
"花見堂地区会館（複合施設）","東京都世田谷区代田1-13-14","","35.651927","139.662697","01_131121_public_facility.csv"
"松原地区会館（複合施設）","東京都世田谷区松原5-17-6","","35.661243","139.648051","01_131121_public_facility.csv"
"守山地区会館（複合施設）","東京都世田谷区代田6-21-5","","35.665439","139.661723","01_131121_public_facility.csv"
"奥沢地区会館（複合施設）","東京都世田谷区奥沢7-35-4","","35.606917","139.661764","01_131121_public_facility.csv"
"奥沢東地区会館","東京都世田谷区奥沢2-9-28","","35.604518","139.672614","01_131121_public_facility.csv"
"尾山台地区会館（複合施設）","東京都世田谷区等々力2-17-14","","35.605757","139.652395","01_131121_public_facility.csv"
"上野毛地区会館（複合施設）","東京都世田谷区中町2-33-11","","35.611404","139.641027","01_131121_public_facility.csv"
"九品仏地区会館","東京都世田谷区奥沢7-34-3","","35.606186","139.661801","01_131121_public_facility.csv"
"駒沢地区会館","東京都世田谷区駒沢3-13-5","","35.631432","139.654233","01_131121_public_facility.csv"
"新町地区会館","東京都世田谷区新町2-21-10","","35.629699","139.648116","01_131121_public_facility.csv"
"瀬田地区会館","東京都世田谷区瀬田4-18-11","","35.621414","139.627327","01_131121_public_facility.csv"
"玉堤地区会館","東京都世田谷区玉堤1-12-18","","35.595649","139.652349","01_131121_public_facility.csv"
"等々力地区会館（複合施設）","東京都世田谷区等々力3-25-16","","35.61137","139.649976","01_131121_public_facility.csv"
"東玉川地区会館（複合施設）","東京都世田谷区東玉川1-19-15","","35.597177","139.678775","01_131121_public_facility.csv"
"深沢地区会館","東京都世田谷区深沢1-14-22","","35.617667","139.661041","01_131121_public_facility.csv"
"二子玉川地区会館（複合施設）","東京都世田谷区玉川4-4-5","","35.615468","139.626705","01_131121_public_facility.csv"
"二子玉川地区会館別館（複合施設）","東京都世田谷区玉川3-27-1","","35.614103","139.624276","01_131121_public_facility.csv"
"用賀地区会館（複合施設）","東京都世田谷区用賀4-38-16","","35.6299","139.629626","01_131121_public_facility.csv"
"宇奈根地区会館","東京都世田谷区宇奈根2-23-20","","35.623412","139.602624","01_131121_public_facility.csv"
"大蔵地区会館","東京都世田谷区砧3-5-6","","35.63493","139.610811","01_131121_public_facility.csv"
"岡本地区会館","東京都世田谷区岡本1-25-4","","35.625048","139.619468","01_131121_public_facility.csv"
"喜多見地区会館","東京都世田谷区喜多見8-23-23","","35.636821","139.589644","01_131121_public_facility.csv"
"喜多見東地区会館（複合施設）","東京都世田谷区喜多見5-11-10","","35.628916","139.601209","01_131121_public_facility.csv"
"砧地区会館","東京都世田谷区砧8-2-21","","35.639088","139.607248","01_131121_public_facility.csv"
"祖師谷地区会館","東京都世田谷区祖師谷3-30-30","","35.643477","139.607668","01_131121_public_facility.csv"
"千歳台地区会館（複合施設）","東京都世田谷区千歳台3-31-9","","35.653626","139.611611","01_131121_public_facility.csv"
"船橋地区会館","東京都世田谷区船橋3-11-8","","35.652452","139.62338","01_131121_public_facility.csv"
"上北沢地区会館","東京都世田谷区上北沢2-1-3","","35.663209","139.62248","01_131121_public_facility.csv"
"上祖師谷地区会館（複合施設）","東京都世田谷区上祖師谷4-5-6","","35.653571","139.596639","01_131121_public_facility.csv"
"北烏山地区会館","東京都世田谷区北烏山9-25-26","","35.674354","139.592345","01_131121_public_facility.csv"
"給田地区会館（複合施設）","東京都世田谷区給田3-14-7","","35.664894","139.590708","01_131121_public_facility.csv"
"池尻区民集会所（複合施設）","東京都世田谷区池尻3-27-21","","35.649821","139.67869","01_131121_public_facility.csv"
"三軒茶屋区民集会所（複合施設）","東京都世田谷区太子堂2-17-1","","35.644777","139.671139","01_131121_public_facility.csv"
"下馬区民集会所（複合施設）","東京都世田谷区下馬3-14-9","","35.635942","139.675404","01_131121_public_facility.csv"
"弦巻区民集会所","東京都世田谷区弦巻5-1-18","","35.63506","139.637811","01_131121_public_facility.csv"
"野沢区民集会所","東京都世田谷区野沢4-24-1","","35.634809","139.664923","01_131121_public_facility.csv"
"丸山区民集会所（複合施設）","東京都世田谷区三軒茶屋2-32-14","","35.64077","139.665786","01_131121_public_facility.csv"
"若林区民集会所（複合施設）","東京都世田谷区若林1-34-2","","35.646106","139.66376","01_131121_public_facility.csv"
"大原区民集会所","東京都世田谷区大原1-16-16シルクロードビル","","35.668677","139.665084","01_131121_public_facility.csv"
"北沢区民集会所（複合施設）","東京都世田谷区北沢4-24-22","","35.668395","139.668156","01_131121_public_facility.csv"
"北沢南区民集会所","東京都世田谷区北沢3-25-8","","35.664334","139.669121","01_131121_public_facility.csv"
"下北沢区民集会所","東京都世田谷区北沢2-26-6B1F、3F","","35.662028","139.665991","01_131121_public_facility.csv"
"新代田区民集会所（複合施設）","東京都世田谷区羽根木1-6-14","","35.66454","139.660427","01_131121_public_facility.csv"
"羽根木区民集会所","東京都世田谷区羽根木2-8-6東松原ハイム1F","","35.666462","139.658596","01_131121_public_facility.csv"
"松沢区民集会所（複合施設）","東京都世田谷区赤堤5-31-5","","35.665384","139.638033","01_131121_public_facility.csv"
"六所橋区民集会所","東京都世田谷区赤堤2-10-13","","35.657735","139.64334","01_131121_public_facility.csv"
"上野毛区民集会所","東京都世田谷区上野毛1-26-14伊東ビル2F","","35.612573","139.63871","01_131121_public_facility.csv"
"桜新町区民集会所（複合施設）","東京都世田谷区桜新町1-30-14","","35.628345","139.644","01_131121_public_facility.csv"
"中町区民集会所（複合施設）","東京都世田谷区中町4-15-6","","35.617961","139.644841","01_131121_public_facility.csv"
"野毛区民集会所（複合施設）","東京都世田谷区野毛2-4-4","","35.600795","139.642655","01_131121_public_facility.csv"
"用賀区民集会所（複合施設）","東京都世田谷区用賀4-10-6コミュニティ・テラス","","35.626906","139.63251","01_131121_public_facility.csv"
"鎌田区民集会所","東京都世田谷区鎌田2-1-24","","35.617031","139.61333","01_131121_public_facility.csv"
"砧総合支所区民集会所（複合施設）","東京都世田谷区成城6-2-1","","35.641265","139.600691","01_131121_public_facility.csv"
"希望丘区民集会所（複合施設）","東京都世田谷区船橋6-25-1","","35.659021","139.620796","01_131121_public_facility.csv"
"祖師谷区民集会所（複合施設）","東京都世田谷区祖師谷4-1-23","","35.646928","139.608218","01_131121_public_facility.csv"
"山野区民集会所","東京都世田谷区砧1-11-3都営砧一丁目アパート1F","","35.6375","139.615301","01_131121_public_facility.csv"
"上祖師谷一丁目区民集会所（複合施設）","東京都世田谷区上祖師谷1-24-2","","35.663569","139.599001","01_131121_public_facility.csv"
"寺町通り区民集会所","東京都世田谷区北烏山5-1-4","","35.676611","139.597381","01_131121_public_facility.csv"
"八幡山区民集会所（複合施設）","東京都世田谷区八幡山3-32-26","","35.668277","139.616839","01_131121_public_facility.csv"
"南烏山区民集会所","東京都世田谷区南烏山3-23-7芦花パークヒルⅢ2F","","35.671759","139.60707","01_131121_public_facility.csv"
"みどり会館","東京都世田谷区北烏山5-1-5","","35.676417","139.597001","01_131121_public_facility.csv"
"おなが広域用防災倉庫","東京都世田谷区世田谷4-14","","35.644532","139.652402","01_131121_public_facility.csv"
"下馬広域用防災倉庫","東京都世田谷区下馬2-26","","35.642006","139.679042","01_131121_public_facility.csv"
"小田急上部（代田富士３５６広場）広域用防災倉庫","東京都世田谷区代田3-56","","35.657253","139.658137","01_131121_public_facility.csv"
"桜上水広域用防災倉庫","東京都世田谷区桜上水3-17-6","","35.659982","139.632459","01_131121_public_facility.csv"
"羽根木広域用防災倉庫（複合施設）","東京都世田谷区代田4-38-52","","35.658004","139.653219","01_131121_public_facility.csv"
"玉川広域用防災倉庫","東京都世田谷区玉川1-14-1","","35.610476","139.630099","01_131121_public_facility.csv"
"中町・玉川広域用防災倉庫（複合施設）","東京都世田谷区中町4-21-1","","35.616941","139.643537","01_131121_public_facility.csv"
"野毛広域用防災倉庫（複合施設）","東京都世田谷区野毛1-25","","35.605489","139.642466","01_131121_public_facility.csv"
"二子玉川公園広域用防災倉庫","東京都世田谷区玉川1-16；上野毛2-28","","35.608265","139.632528","01_131121_public_facility.csv"
"大蔵広域用防災倉庫（複合施設）","東京都世田谷区大蔵4-6-2","","35.631573","139.613042","01_131121_public_facility.csv"
"きたみふれあい広場防災倉庫","東京都世田谷区喜多見9-25","","35.640789","139.589299","01_131121_public_facility.csv"
"希望丘広域用防災倉庫（複合施設）","東京都世田谷区船橋4-20-1","","35.655799","139.618876","01_131121_public_facility.csv"
"成城広域用防災倉庫","東京都世田谷区成城1-4-19","","35.633388","139.604357","01_131121_public_facility.csv"
"粕谷広域用防災倉庫","東京都世田谷区粕谷3-1-1","","35.658956","139.608529","01_131121_public_facility.csv"
"烏山広域用防災倉庫","東京都世田谷区北烏山2-3","","35.679917","139.601184","01_131121_public_facility.csv"
"中央自動車道高架下広域用防災倉庫","東京都世田谷区北烏山4-2先","","35.676887","139.598237","01_131121_public_facility.csv"
"世田谷水防倉庫（複合施設）","東京都世田谷区世田谷1-48-4","","35.64085","139.643101","01_131121_public_facility.csv"
"赤堤水防倉庫","東京都世田谷区赤堤3-34-17","","35.657849","139.635151","01_131121_public_facility.csv"
"多摩川専用土のう倉庫","東京都世田谷区玉川1-7先","","35.610367","139.627945","01_131121_public_facility.csv"
"中町水防倉庫（複合施設）","東京都世田谷区中町2-21-12","","35.613821","139.644713","01_131121_public_facility.csv"
"砧水防倉庫","東京都世田谷区祖師谷3-13-4","","35.641309","139.602097","01_131121_public_facility.csv"
"池尻防災施設","東京都世田谷区池尻2-3","","35.646613","139.682852","01_131121_public_facility.csv"
"北沢三丁目防災倉庫","東京都世田谷区北沢3-9","","35.664169","139.671014","01_131121_public_facility.csv"
"豪徳寺防災施設","東京都世田谷区豪徳寺1-40","","35.65444","139.648926","01_131121_public_facility.csv"
"祖師谷三丁目高架下防災倉庫","東京都世田谷区祖師谷3-11","","35.642092","139.603014","01_131121_public_facility.csv"
"烏山総合支所防災資材倉庫","東京都世田谷区北烏山8-8","","35.67493","139.589988","01_131121_public_facility.csv"
"世田谷区民健康村なかのビレジ","群馬県利根郡川場村大字中野626","","36.700034","139.128474","01_131121_public_facility.csv"
"世田谷区民健康村ふじやまビレジ","群馬県利根郡川場村大字谷地1320","","36.722748","139.102173","01_131121_public_facility.csv"
"中央図書館（複合施設）","東京都世田谷区弦巻3-16-8","","35.63769","139.644325","01_131121_public_facility.csv"
"梅丘図書館","東京都世田谷区代田4-38-10","","35.657452","139.654708","01_131121_public_facility.csv"
"世田谷図書館（複合施設）","東京都世田谷区若林4-22-13","","35.644434","139.65357","01_131121_public_facility.csv"
"砧図書館","東京都世田谷区祖師谷3-10-4","","35.642226","139.604067","01_131121_public_facility.csv"
"奥沢図書館（複合施設）","東京都世田谷区奥沢3-47-8","","35.603624","139.672397","01_131121_public_facility.csv"
"玉川台図書館（複合施設）","東京都世田谷区玉川台1-6-15","","35.622935","139.633048","01_131121_public_facility.csv"
"代田図書館（複合施設）","東京都世田谷区代田6-34-13","","35.662869","139.660648","01_131121_public_facility.csv"
"烏山図書館（複合施設）","東京都世田谷区南烏山6-2-19","","35.668837","139.600537","01_131121_public_facility.csv"
"下馬図書館","東京都世田谷区下馬2-32-1","","35.641494","139.676265","01_131121_public_facility.csv"
"深沢図書館（複合施設）","東京都世田谷区深沢4-33-11","","35.620194","139.65387","01_131121_public_facility.csv"
"桜丘図書館（複合施設）","東京都世田谷区桜丘5-14-1","","35.644782","139.622143","01_131121_public_facility.csv"
"尾山台図書館（複合施設）","東京都世田谷区等々力2-17-14","","35.605757","139.652395","01_131121_public_facility.csv"
"上北沢図書館（複合施設）","東京都世田谷区上北沢3-8-9","","35.667566","139.625565","01_131121_public_facility.csv"
"粕谷図書館（複合施設）","東京都世田谷区粕谷4-13-6","","35.663097","139.605159","01_131121_public_facility.csv"
"鎌田図書館（複合施設）","東京都世田谷区鎌田3-35-1","","35.622285","139.613512","01_131121_public_facility.csv"
"経堂図書館","東京都世田谷区宮坂3-1-30","","35.651514","139.637763","01_131121_public_facility.csv"
"池尻図書室（複合施設）","東京都世田谷区池尻3-27-21","","35.649821","139.67869","01_131121_public_facility.csv"
"希望丘図書室","東京都世田谷区船橋7-8-4","","35.659141","139.618725","01_131121_public_facility.csv"
"野毛図書室","東京都世田谷区野毛2-15-19","","35.603223","139.641631","01_131121_public_facility.csv"
"松沢図書室（複合施設）","東京都世田谷区赤堤5-31-5","","35.665384","139.638033","01_131121_public_facility.csv"
"喜多見図書室（複合施設）","東京都世田谷区喜多見5-11-10","","35.628916","139.601209","01_131121_public_facility.csv"
"図書館カウンター二子玉川","東京都世田谷区玉川1-14-1二子玉川ライズショッピングセンターテラスマーケット2階","","35.610476","139.630099","01_131121_public_facility.csv"
"図書館カウンター三軒茶屋（複合施設）","東京都世田谷区太子堂4-3-1STKハイツ","","35.64337","139.668554","01_131121_public_facility.csv"
"図書館カウンター下北沢","東京都世田谷区北沢2-6-4ミカン下北E-102","","35.661297","139.669171","01_131121_public_facility.csv"
"向井潤吉アトリエ館","東京都世田谷区弦巻2-5-1","","35.63562","139.65548","01_131121_public_facility.csv"
"宮本三郎記念美術館","東京都世田谷区奥沢5-38-13","","35.604428","139.666367","01_131121_public_facility.csv"
"清川泰次記念ギャラリー","東京都世田谷区成城2-22-17","","35.638517","139.600784","01_131121_public_facility.csv"
"世田谷美術館","東京都世田谷区砧公園1-2","","35.631618","139.621689","01_131121_public_facility.csv"
"世田谷文学館","東京都世田谷区南烏山1-10-10","","35.667056","139.608844","01_131121_public_facility.csv"
"郷土資料館","東京都世田谷区世田谷1-29-18","","35.640998","139.647189","01_131121_public_facility.csv"
"平和資料館（せたがや未来の平和館）（複合施設）","東京都世田谷区池尻1-5-27","","35.644306","139.680704","01_131121_public_facility.csv"
"宇奈根考古資料室","東京都世田谷区宇奈根1-8-21","","35.620219","139.603833","01_131121_public_facility.csv"
"宇奈根考古資料室分室","東京都世田谷区宇奈根1-9-3","","35.620361","139.604087","01_131121_public_facility.csv"
"池之上青少年交流センター","東京都世田谷区代沢2-37-18","","35.659367","139.673365","01_131121_public_facility.csv"
"野毛青少年交流センター","東京都世田谷区野毛2-15-19","","35.603223","139.641631","01_131121_public_facility.csv"
"希望丘青少年交流センター「アップス」（複合施設）","東京都世田谷区船橋6-25-1","","35.659021","139.620796","01_131121_public_facility.csv"
"市民大学・生涯大学（複合施設）","東京都世田谷区池尻2-3-11","","35.646608","139.682525","01_131121_public_facility.csv"
"男女共同参画センター“らぷらす”","東京都世田谷区太子堂1-12-40グレート王寿ビル","","35.645246","139.674986","01_131121_public_facility.csv"
"世田谷文化生活情報センター（複合施設）","東京都世田谷区太子堂4-1-1","","35.643681","139.669084","01_131121_public_facility.csv"
"中央図書館プラネタリウム（複合施設）","東京都世田谷区弦巻3-16-8","","35.63769","139.644325","01_131121_public_facility.csv"
"教育総合センター（複合施設）","東京都世田谷区若林5-38-1","","35.65049","139.658976","01_131121_public_facility.csv"
"岡本公園民家園","東京都世田谷区岡本2-19-1","","35.622377","139.617802","01_131121_public_facility.csv"
"次大夫堀公園民家園","東京都世田谷区喜多見5-27-14","","35.63015","139.599145","01_131121_public_facility.csv"
"池尻小学校第２体育館（複合施設）","東京都世田谷区池尻2-4-10","","35.646017","139.679688","01_131121_public_facility.csv"
"こどものひろば公園野球場","東京都世田谷区下馬2-31-4","","35.64259","139.678656","01_131121_public_facility.csv"
"世田谷公園水泳場（複合施設）","東京都世田谷区池尻1-5-27","","35.644306","139.680704","01_131121_public_facility.csv"
"世田谷公園スポーツ施設（複合施設）","東京都世田谷区池尻1-5-27","","35.644306","139.680704","01_131121_public_facility.csv"
"太子堂中学校温水プール（複合施設）","東京都世田谷区太子堂3-27-17","","35.650179","139.668966","01_131121_public_facility.csv"
"弦巻中学校トレーニングルーム（複合施設）","東京都世田谷区弦巻1-42-22","","35.637328","139.649398","01_131121_public_facility.csv"
"梅丘中学校温水プール（複合施設）","東京都世田谷区松原6-5-11","","35.658793","139.652254","01_131121_public_facility.csv"
"羽根木公園スポーツ施設（複合施設）","東京都世田谷区代田4-38-52","","35.658004","139.653219","01_131121_public_facility.csv"
"尾山台地域体育館（複合施設）","東京都世田谷区尾山台3-19-3","","35.604984","139.65415","01_131121_public_facility.csv"
"多摩川玉堤広場スポーツ施設","東京都世田谷区玉堤1-5-1","","35.59336","139.655232","01_131121_public_facility.csv"
"玉川中学校温水プール（複合施設）","東京都世田谷区中町4-21-1","","35.616941","139.643537","01_131121_public_facility.csv"
"玉川野毛町公園水泳場（複合施設）","東京都世田谷区野毛1-25-1","","35.605678","139.643336","01_131121_public_facility.csv"
"玉川野毛町公園スポーツ施設（複合施設）","東京都世田谷区野毛1-25-1","","35.605678","139.643336","01_131121_public_facility.csv"
"大蔵運動場（総合運動場）（複合施設）","東京都世田谷区大蔵4-6-1","","35.628904","139.612002","01_131121_public_facility.csv"
"大蔵運動場温水プール（総合運動場温水プール）","東京都世田谷区大蔵4-6-1","","35.628904","139.612002","01_131121_public_facility.csv"
"大蔵第二運動場（複合施設）","東京都世田谷区大蔵4-7-1","","35.631475","139.614734","01_131121_public_facility.csv"
"大蔵第二運動場屋外プール（複合施設）","東京都世田谷区大蔵4-7-1","","35.631475","139.614734","01_131121_public_facility.csv"
"希望丘地域体育館（複合施設）","東京都世田谷区船橋6-25-1","","35.659021","139.620796","01_131121_public_facility.csv"
"千歳温水プール","東京都世田谷区船橋7-9-1","","35.65915","139.61651","01_131121_public_facility.csv"
"二子玉川緑地運動場","東京都世田谷区鎌田1-3-5","","35.616674","139.619097","01_131121_public_facility.csv"
"烏山中学校温水プール（複合施設）","東京都世田谷区南烏山4-26-1","","35.672001","139.600926","01_131121_public_facility.csv"
"烏山中学校クライミングウォール（複合施設）","東京都世田谷区南烏山4-26-1","","35.672001","139.600926","01_131121_public_facility.csv"
"北烏山地区体育室","東京都世田谷区北烏山8-1-6","","35.674802","139.591804","01_131121_public_facility.csv"
"八幡山小学校地域体育館（複合施設）","東京都世田谷区八幡山1-14-1","","35.662083","139.621705","01_131121_public_facility.csv"
"エコプラザ用賀・用賀粗大ごみ中継所","東京都世田谷区用賀4-7-1","","35.626894","139.630535","01_131121_public_facility.csv"
"喜多見資源化センター","東京都世田谷区喜多見1-2-20先","","35.621313","139.598148","01_131121_public_facility.csv"
"希望丘中継所（複合施設）","東京都世田谷区船橋7-21-15","","35.65896","139.615678","01_131121_public_facility.csv"
"資源循環センター（リセタ）","東京都世田谷区大蔵1-1-12","","35.632436","139.622381","01_131121_public_facility.csv"
"船橋粗大ごみ中継所（複合施設）","東京都世田谷区船橋7-21-15","","35.65896","139.615678","01_131121_public_facility.csv"
"リサイクル千歳台","東京都世田谷区千歳台1-1-5","","35.645611","139.617019","01_131121_public_facility.csv"
"特別養護老人ホームきたざわ苑（複合施設）","東京都世田谷区北沢5-24-18","","35.669971","139.671303","01_131121_public_facility.csv"
"特別養護老人ホーム上北沢ホーム（複合施設）","東京都世田谷区上北沢1-28-17","","35.663528","139.626286","01_131121_public_facility.csv"
"特別養護老人ホーム芦花ホーム（複合施設）","東京都世田谷区粕谷2-23-1","","35.665862","139.609843","01_131121_public_facility.csv"
"池尻あんしんすこやかセンター（複合施設）","東京都世田谷区池尻3-27-21","","35.649821","139.67869","01_131121_public_facility.csv"
"上馬あんしんすこやかセンター（複合施設）","東京都世田谷区上馬4-10-17","","35.635039","139.662542","01_131121_public_facility.csv"
"上町あんしんすこやかセンター（複合施設）","東京都世田谷区世田谷1-23-5","","35.641906","139.647502","01_131121_public_facility.csv"
"経堂あんしんすこやかセンター（複合施設）","東京都世田谷区宮坂1-44-29","","35.650582","139.641481","01_131121_public_facility.csv"
"下馬あんしんすこやかセンター（複合施設）","東京都世田谷区下馬4-13-4","","35.635975","139.679084","01_131121_public_facility.csv"
"太子堂あんしんすこやかセンター（複合施設）","東京都世田谷区太子堂2-17-1","","35.644777","139.671139","01_131121_public_facility.csv"
"若林あんしんすこやかセンター（複合施設）","東京都世田谷区若林1-34-2","","35.646106","139.66376","01_131121_public_facility.csv"
"梅丘あんしんすこやかセンター（複合施設）","東京都世田谷区梅丘1-61-16","","35.653407","139.652326","01_131121_public_facility.csv"
"北沢あんしんすこやかセンター（複合施設）","東京都世田谷区北沢2-8-18","","35.662208","139.66972","01_131121_public_facility.csv"
"新代田あんしんすこやかセンター（複合施設）","東京都世田谷区羽根木1-6-14","","35.66454","139.660427","01_131121_public_facility.csv"
"代沢あんしんすこやかセンター（複合施設）","東京都世田谷区代沢5-1-15","","35.654901","139.66779","01_131121_public_facility.csv"
"松沢あんしんすこやかセンター（複合施設）","東京都世田谷区赤堤5-31-5","","35.665384","139.638033","01_131121_public_facility.csv"
"松原あんしんすこやかセンター（複合施設）","東京都世田谷区松原5-43-28","","35.66465","139.651171","01_131121_public_facility.csv"
"奥沢あんしんすこやかセンター（複合施設）","東京都世田谷区奥沢3-15-7","","35.600773","139.672945","01_131121_public_facility.csv"
"上野毛あんしんすこやかセンター（複合施設）","東京都世田谷区中町2-33-11","","35.611404","139.641027","01_131121_public_facility.csv"
"九品仏あんしんすこやかセンター（複合施設）","東京都世田谷区奥沢7-35-4","","35.606917","139.661764","01_131121_public_facility.csv"
"等々力あんしんすこやかセンター（複合施設）","東京都世田谷区等々力3-4-1","","35.608582","139.648462","01_131121_public_facility.csv"
"深沢あんしんすこやかセンター（複合施設）","東京都世田谷区駒沢4-33-12","","35.62792","139.652654","01_131121_public_facility.csv"
"二子玉川あんしんすこやかセンター（複合施設）","東京都世田谷区玉川4-4-5","","35.615468","139.626705","01_131121_public_facility.csv"
"用賀あんしんすこやかセンター（複合施設）","東京都世田谷区用賀2-29-22","","35.62561","139.636452","01_131121_public_facility.csv"
"喜多見あんしんすこやかセンター（複合施設）","東京都世田谷区喜多見5-11-10","","35.628916","139.601209","01_131121_public_facility.csv"
"砧あんしんすこやかセンター（複合施設）","東京都世田谷区砧5-8-18","","35.637791","139.610003","01_131121_public_facility.csv"
"成城あんしんすこやかセンター（複合施設）","東京都世田谷区成城6-3-10","","35.640809","139.600514","01_131121_public_facility.csv"
"祖師谷あんしんすこやかセンター（複合施設）","東京都世田谷区祖師谷4-1-23","","35.646928","139.608218","01_131121_public_facility.csv"
"船橋あんしんすこやかセンター（複合施設）","東京都世田谷区船橋4-3-2","","35.655308","139.622534","01_131121_public_facility.csv"
"上北沢あんしんすこやかセンター（複合施設）","東京都世田谷区上北沢4-32-9","","35.669968","139.617974","01_131121_public_facility.csv"
"上祖師谷あんしんすこやかセンター（複合施設）","東京都世田谷区上祖師谷2-7-6","","35.6571","139.599674","01_131121_public_facility.csv"
"烏山あんしんすこやかセンター（複合施設）","東京都世田谷区南烏山6-2-19","","35.668837","139.600537","01_131121_public_facility.csv"
"上馬高齢者集会所（複合施設）","東京都世田谷区上馬4-36-9","","35.638515","139.659944","01_131121_public_facility.csv"
"健康増進・交流施設（せたがや（複合施設）","東京都世田谷区池尻2-3-11","","35.646608","139.682525","01_131121_public_facility.csv"
"桜高齢者集会所","東京都世田谷区桜1-2-19","","35.645766","139.646199","01_131121_public_facility.csv"
"シルバー人材センター（複合施設）","東京都世田谷区宮坂1-24-6","","35.647725","139.644755","01_131121_public_facility.csv"
"ひだまり友遊会館（複合施設）","東京都世田谷区若林4-37-8","","35.647815","139.656649","01_131121_public_facility.csv"
"優っくり看護小規模多機能介護三軒茶屋（複合施設）","東京都世田谷区三軒茶屋2-32-14","","35.64077","139.665786","01_131121_public_facility.csv"
"梅丘一丁目高齢者就業施設（自転車等駐車場管理センター）","東京都世田谷区梅丘1-43-42","","35.655654","139.65216","01_131121_public_facility.csv"
"梅丘高齢者在宅サービスセンター（複合施設）","東京都世田谷区松原6-5-11","","35.658793","139.652254","01_131121_public_facility.csv"
"土と農の交流園","東京都世田谷区桜上水2-11-1","","35.658943","139.627882","01_131121_public_facility.csv"
"認知症在宅生活サポートセンター（複合施設）","東京都世田谷区松原6-37-10","","35.657543","139.649921","01_131121_public_facility.csv"
"シルバー人材センター用賀ワークプラザ","東京都世田谷区玉川台1-12-1","","35.623599","139.632499","01_131121_public_facility.csv"
"小規模多機能型居宅介護（複合施設）","東京都世田谷区梅丘1-2-18","","35.652715","139.652822","01_131121_public_facility.csv"
"訪問看護ステーションさぎそう（複合施設）","東京都世田谷区中町2-25-17","","35.613234","139.643972","01_131121_public_facility.csv"
"烏山グループホームくつろぎ（複合施設）","東京都世田谷区南烏山4-28-3","","35.67216","139.602724","01_131121_public_facility.csv"
"北烏山東敬老会館","東京都世田谷区北烏山2-2-6","","35.679759","139.602243","01_131121_public_facility.csv"
"高齢者一時生活援助施設ほのぼの（複合施設）","東京都世田谷区南烏山4-28-3","","35.67216","139.602724","01_131121_public_facility.csv"
"シルバー人材センター烏山支部","東京都世田谷区粕谷1-7-34","","35.660692","139.611746","01_131121_public_facility.csv"
"夢のみずうみ村新樹苑","東京都世田谷区八幡山3-18-27","","35.664557","139.615704","01_131121_public_facility.csv"
"デイ・ホーム池尻（複合施設）","東京都世田谷区池尻2-4-26","","35.646224","139.67956","01_131121_public_facility.csv"
"デイ・ホーム上馬（複合施設）","東京都世田谷区上馬4-36-9","","35.638515","139.659944","01_131121_public_facility.csv"
"デイ・ホーム桜丘（複合施設）","東京都世田谷区桜丘1-19-22","","35.64526","139.630161","01_131121_public_facility.csv"
"デイ・ホーム世田谷（複合施設）","東京都世田谷区世田谷4-15-3","","35.644448","139.650941","01_131121_public_facility.csv"
"デイ・ホーム太子堂（複合施設）","東京都世田谷区太子堂5-24-20","","35.648475","139.664952","01_131121_public_facility.csv"
"デイ・ホーム弦巻（複合施設）","東京都世田谷区弦巻5-13-19","","35.638364","139.641173","01_131121_public_facility.csv"
"デイ・ホーム中丸","東京都世田谷区野沢3-25-10","","35.632399","139.67486","01_131121_public_facility.csv"
"デイサービスセンターきたざわ苑（複合施設）","東京都世田谷区北沢5-24-18","","35.669971","139.671303","01_131121_public_facility.csv"
"デイ・ホーム赤堤（複合施設）","東京都世田谷区赤堤1-37-11","","35.655294","139.638326","01_131121_public_facility.csv"
"デイ・ホーム松原（複合施設）","東京都世田谷区松原5-17-6","","35.661243","139.648051","01_131121_public_facility.csv"
"デイ・ホーム上用賀（複合施設）","東京都世田谷区上用賀5-14-1-101","","35.630095","139.625844","01_131121_public_facility.csv"
"デイ・ホームたまがわ（複合施設）","東京都世田谷区野毛2-4-4","","35.600795","139.642655","01_131121_public_facility.csv"
"デイ・ホーム玉川田園調布","東京都世田谷区玉川田園調布2-16-12","","35.60288","139.665424","01_131121_public_facility.csv"
"デイ・ホーム等々力","東京都世田谷区等々力5-19-11","","35.610149","139.654494","01_131121_public_facility.csv"
"デイ・ホーム中町（複合施設）","東京都世田谷区中町4-15-6、21","","35.617961","139.644841","01_131121_public_facility.csv"
"デイ・ホーム深沢（複合施設）","東京都世田谷区深沢4-17-1","","35.618482","139.653469","01_131121_public_facility.csv"
"鎌田ケアセンター（複合施設）","東京都世田谷区鎌田3-35-1","","35.622285","139.613512","01_131121_public_facility.csv"
"食事サービスサポートセンター「だんらん」","東京都世田谷区鎌田3-13-1","","35.620653","139.613687","01_131121_public_facility.csv"
"祖師谷ケアセンター（複合施設）","東京都世田谷区祖師谷4-28-6-101","","35.649694","139.606289","01_131121_public_facility.csv"
"デイ・ホーム上北沢（複合施設）","東京都世田谷区上北沢1-28-17","","35.663528","139.626286","01_131121_public_facility.csv"
"デイ・ホーム芦花（複合施設）","東京都世田谷区粕谷2-23-1","","35.665862","139.609843","01_131121_public_facility.csv"
"池尻小学校ふれあいルーム（複合施設）","東京都世田谷区池尻2-4-5","","35.646258","139.680683","01_131121_public_facility.csv"
"上馬塩田ふれあいの家","東京都世田谷区上馬2-17-13","","35.638117","139.664922","01_131121_public_facility.csv"
"駒沢中学校支えあいルーム（複合施設）","東京都世田谷区駒沢2-39-25駒沢中学校舎内","","35.636447","139.655929","01_131121_public_facility.csv"
"下馬ふれあいルーム（複合施設）","東京都世田谷区下馬3-14-9","","35.635942","139.675404","01_131121_public_facility.csv"
"野沢ふれあいの家","東京都世田谷区野沢4-19-19","","35.632796","139.666457","01_131121_public_facility.csv"
"若林ふれあいルーム（複合施設）","東京都世田谷区若林4-37-8","","35.647815","139.656649","01_131121_public_facility.csv"
"松原西ふれあいの家","東京都世田谷区松原3-22-10","","35.665906","139.64488","01_131121_public_facility.csv"
"松原ふれあいルーム（複合施設）","東京都世田谷区松原5-43-28","","35.66465","139.651171","01_131121_public_facility.csv"
"桜新町ふれあいルーム（複合施設）","東京都世田谷区桜新町1-30-14桜新町区民集会所1階","","35.628345","139.644","01_131121_public_facility.csv"
"等々力ふれあいルーム（複合施設）","東京都世田谷区等々力2-33-14","","35.607716","139.647964","01_131121_public_facility.csv"
"中町ふれあいの家","東京都世田谷区中町5-19-2","","35.620008","139.642549","01_131121_public_facility.csv"
"東玉川ふれあいルーム（複合施設）","東京都世田谷区東玉川1-19-15","","35.597177","139.678775","01_131121_public_facility.csv"
"用賀ふれあいルーム（複合施設）","東京都世田谷区用賀4-38-16","","35.6299","139.629626","01_131121_public_facility.csv"
"宇奈根ふれあいの家","東京都世田谷区宇奈根1-38-2","","35.622626","139.605413","01_131121_public_facility.csv"
"砧くちなしふれあいの家","東京都世田谷区砧8-26-33","","35.639774","139.604271","01_131121_public_facility.csv"
"成城ふれあいの家","東京都世田谷区成城3-13-25","","35.636072","139.596595","01_131121_public_facility.csv"
"祖師谷支えあいルーム（複合施設）","東京都世田谷区祖師谷3-21-1","","35.642829","139.604687","01_131121_public_facility.csv"
"千歳ふれあいルーム（複合施設）","東京都世田谷区千歳台6-16-12","","35.657829","139.607023","01_131121_public_facility.csv"
"八幡山ふれあいの家","東京都世田谷区八幡山1-11-10","","35.660612","139.621093","01_131121_public_facility.csv"
"南烏山ふれあいの家","東京都世田谷区南烏山2-22-7","","35.668188","139.605916","01_131121_public_facility.csv"
"ぽーとせたがや","東京都世田谷区下馬3-22-13サザン三軒茶屋2F","","35.634303","139.673185","01_131121_public_facility.csv"
"基幹相談支援センター","東京都世田谷区松原6-37-1","","35.657158","139.650729","01_131121_public_facility.csv"
"ぽーときたざわ","東京都世田谷区松原3-40-7パインフィールド201","","35.667366","139.642548","01_131121_public_facility.csv"
"みつけばハウス","","","","","01_131121_public_facility.csv"
"ぽーとたまがわ（複合施設）","東京都世田谷区中町2-17-21","","35.611089","139.644774","01_131121_public_facility.csv"
"医療的ケア相談支援センター（複合施設）","東京都世田谷区大蔵2-10-18","","35.634651","139.61299","01_131121_public_facility.csv"
"発達障害相談・療育センター「げんき」（複合施設）","東京都世田谷区大蔵2-10-18","","35.634651","139.61299","01_131121_public_facility.csv"
"ぽーときぬた（複合施設）","東京都世田谷区祖師谷3-21-1","","35.642829","139.604687","01_131121_public_facility.csv"
"ぽーとからすやま","東京都世田谷区南烏山1-13-16","","35.670033","139.609706","01_131121_public_facility.csv"
"ケアセンターふらっと（複合施設）","東京都世田谷区下馬2-20-14","","35.640638","139.675404","01_131121_public_facility.csv"
"駒沢生活実習所","東京都世田谷区弦巻2-1-5","","35.63453","139.65587","01_131121_public_facility.csv"
"下馬福祉工房（複合施設）","東京都世田谷区下馬2-20-14","","35.640638","139.675404","01_131121_public_facility.csv"
"障害児保育園ヘレン経堂（複合施設）","東京都世田谷区宮坂3-15-15","","35.653946","139.637335","01_131121_public_facility.csv"
"世田谷福祉作業所","東京都世田谷区下馬2-31-6","","35.64268","139.6781","01_131121_public_facility.csv"
"にこにこみやさか","東京都世田谷区宮坂2-26-17ソーワ豪徳寺マンション1F","","35.653634","139.644717","01_131121_public_facility.csv"
"ほほえみ経堂","東京都世田谷区経堂3-6-24","","35.649829","139.631956","01_131121_public_facility.csv"
"三宿つくしんぼホーム","東京都世田谷区三宿2-30-7","","35.650843","139.672684","01_131121_public_facility.csv"
"わんぱくクラブ三軒茶屋（複合施設）","東京都世田谷区太子堂2-17-1","","35.644777","139.671139","01_131121_public_facility.csv"
"梅丘ウッドペッカーの森（複合施設）","東京都世田谷区松原6-4-1歯科医師会館地下1階","","35.656922","139.652813","01_131121_public_facility.csv"
"桜上水福祉園","東京都世田谷区桜上水2-13-16","","35.658447","139.628685","01_131121_public_facility.csv"
"白梅福祉作業所（複合施設）","東京都世田谷区松原6-43-17ソーワ福祉ビル","","35.656226","139.649323","01_131121_public_facility.csv"
"すまいる梅丘","東京都世田谷区梅丘1-36-2-101","","35.656205","139.651093","01_131121_public_facility.csv"
"東北沢つどいの家（複合施設）","東京都世田谷区北沢4-24-22","","35.668395","139.668156","01_131121_public_facility.csv"
"まもりやま工房（複合施設）","東京都世田谷区代田6-21-5","","35.665439","139.661723","01_131121_public_facility.csv"
"岡本福祉作業ホーム玉堤分場（複合施設）","東京都世田谷区玉堤2-3-1ボヌール玉堤地下1F","","35.598446","139.648802","01_131121_public_facility.csv"
"奥沢福祉園","東京都世田谷区奥沢6-29-2","","35.605269","139.66505","01_131121_public_facility.csv"
"九品仏生活実習所","東京都世田谷区奥沢7-39-13","","35.608","139.658751","01_131121_public_facility.csv"
"九品仏生活実習所中町分場（複合施設）","東京都世田谷区中町2-25-17","","35.613234","139.643972","01_131121_public_facility.csv"
"玉川福祉作業所","東京都世田谷区玉川1-7-2","","35.610118","139.628006","01_131121_public_facility.csv"
"玉川福祉作業所等々力分場","東京都世田谷区等々力2-13-4","","35.605929","139.64994","01_131121_public_facility.csv"
"玉堤つどいの家（複合施設）","東京都世田谷区玉堤2-3-1ボヌール玉堤","","35.598446","139.648802","01_131121_public_facility.csv"
"用賀福祉作業所","東京都世田谷区用賀4-7-1","","35.626894","139.630535","01_131121_public_facility.csv"
"わんぱくクラブ駒沢","東京都世田谷区新町1-3-32","","35.626538","139.652439","01_131121_public_facility.csv"
"岡本福祉作業ホーム","東京都世田谷区岡本2-33-24","","35.623588","139.617193","01_131121_public_facility.csv"
"喜多見夢工房","東京都世田谷区喜多見9-1-35","","35.63721","139.58919","01_131121_public_facility.csv"
"砧工房","東京都世田谷区砧4-32-14","","35.643493","139.614533","01_131121_public_facility.csv"
"砧工房分場キタミ・クリーンファーム","東京都世田谷区喜多見7-3-1","","35.629722","139.596448","01_131121_public_facility.csv"
"障害者就労支援センターすきっぷ","東京都世田谷区船橋5-33-1","","35.657398","139.625446","01_131121_public_facility.csv"
"千歳台福祉園（複合施設）","東京都世田谷区千歳台3-31-9","","35.653626","139.611611","01_131121_public_facility.csv"
"プレイ＆リズム希望丘","東京都世田谷区船橋7-8-3","","35.658384","139.619796","01_131121_public_facility.csv"
"わくわく祖師谷（複合施設）","東京都世田谷区祖師谷3-21-1","","35.642829","139.604687","01_131121_public_facility.csv"
"烏山福祉作業所","東京都世田谷区北烏山1-29-15","","35.675521","139.608388","01_131121_public_facility.csv"
"給田福祉園","東京都世田谷区給田5-2-7","","35.672311","139.588087","01_131121_public_facility.csv"
"デイサービスにじのこ給田（複合施設）","東京都世田谷区給田3-14-7","","35.664894","139.590708","01_131121_public_facility.csv"
"松原けやき寮（複合施設）","東京都世田谷区松原6-43-17ソーワ福祉ビル3F","","35.656226","139.649323","01_131121_public_facility.csv"
"身体障害者自立体験ホーム（複合施設）","東京都世田谷区中町2-17-21","","35.611089","139.644774","01_131121_public_facility.csv"
"障害者就労支援センターしごとねっと（複合施設）","東京都世田谷区太子堂2-15-1野村三軒茶屋ビル8階","","35.644029","139.671573","01_131121_public_facility.csv"
"障害者就労支援センターすきっぷ分室クローバー（複合施設）","東京都世田谷区太子堂2-15-1野村三軒茶屋ビル8階","","35.644029","139.671573","01_131121_public_facility.csv"
"水中活動室（複合施設）","東京都世田谷区松原6-41-7","","35.656388","139.649778","01_131121_public_facility.csv"
"団体活動支援スペース（複合施設）","東京都世田谷区松原6-41-7","","35.656388","139.649778","01_131121_public_facility.csv"
"幼児グループわんぱく","東京都世田谷区松原2-21-18","","","","01_131121_public_facility.csv"
"障害者休養ホーム（複合施設）","東京都世田谷区上用賀5-24-18","","35.632585","139.625478","01_131121_public_facility.csv"
"障害者就労支援センターゆに（ＵＮＩ）（複合施設）","東京都世田谷区上用賀5-14-1","","35.630095","139.625844","01_131121_public_facility.csv"
"かふぇいろどり（複合施設）","東京都世田谷区鎌田3-35-1","","35.622285","139.613512","01_131121_public_facility.csv"
"就労支援施設ゆに（ＵＮＩ）分場フェリーチェ","東京都世田谷区喜多見9-2-33","","35.636799","139.58787","01_131121_public_facility.csv"
"障害者就労支援センターすきっぷ分室そしがや（複合施設）","東京都世田谷区祖師谷3-1-3","","35.642875","139.608325","01_131121_public_facility.csv"
"松原けやき相談支援センター（複合施設）","東京都世田谷区祖師谷3-1-3","","35.642875","139.608325","01_131121_public_facility.csv"
"喫茶ぴあ粕谷店（複合施設）","東京都世田谷区粕谷4-13-6","","35.663097","139.605159","01_131121_public_facility.csv"
"世田谷区福祉移動支援センターそとでる","東京都世田谷区八幡山1-7-6","","35.660434","139.622336","01_131121_public_facility.csv"
"池尻保育園（複合施設）","東京都世田谷区池尻2-3-11","","35.646608","139.682525","01_131121_public_facility.csv"
"上馬保育園","東京都世田谷区上馬5-29-13","","35.640733","139.657812","01_131121_public_facility.csv"
"駒沢保育園","東京都世田谷区野沢4-22-2","","35.633652","139.66532","01_131121_public_facility.csv"
"桜保育園","東京都世田谷区桜2-18-3","","35.642952","139.635467","01_131121_public_facility.csv"
"三軒茶屋保育園","東京都世田谷区三軒茶屋1-23-4","","35.640619","139.669707","01_131121_public_facility.csv"
"下馬保育園","東京都世田谷区下馬5-32-11","","35.636911","139.682718","01_131121_public_facility.csv"
"世田谷保育園（複合施設）","東京都世田谷区若林5-27-18","","35.649356","139.657306","01_131121_public_facility.csv"
"太子堂保育園","東京都世田谷区太子堂5-24-27","","35.648865","139.665977","01_131121_public_facility.csv"
"弦巻保育園","東京都世田谷区弦巻3-15-5","","35.636855","139.645015","01_131121_public_facility.csv"
"西弦巻保育園","東京都世田谷区弦巻5-13-5","","35.638225","139.640345","01_131121_public_facility.csv"
"東弦巻保育園","東京都世田谷区弦巻2-29-17","","35.635684","139.65152","01_131121_public_facility.csv"
"三宿保育園","東京都世田谷区三宿2-37-3","","35.652791","139.67288","01_131121_public_facility.csv"
"南桜丘保育園","東京都世田谷区桜丘3-10-18","","35.642451","139.627791","01_131121_public_facility.csv"
"わかくさ保育園","東京都世田谷区経堂1-25-11","","35.649186","139.635515","01_131121_public_facility.csv"
"赤堤保育園","東京都世田谷区赤堤4-1-10","","35.66033","139.641422","01_131121_public_facility.csv"
"豪徳寺保育園（複合施設）","東京都世田谷区豪徳寺1-34-2区営豪徳寺アパート2棟1・2階","","35.655405","139.649385","01_131121_public_facility.csv"
"松原北保育園","東京都世田谷区松原1-11-4","","35.66657","139.653738","01_131121_public_facility.csv"
"守山保育園（複合施設）","東京都世田谷区代田6-21-5","","35.665439","139.661723","01_131121_public_facility.csv"
"若竹保育園","東京都世田谷区北沢5-18-4","","35.669538","139.669671","01_131121_public_facility.csv"
"奥沢保育園","東京都世田谷区奥沢2-3-11","","35.605241","139.675669","01_131121_public_facility.csv"
"上用賀保育園","東京都世田谷区上用賀4-2-10","","35.634875","139.630441","01_131121_public_facility.csv"
"新町保育園","東京都世田谷区駒沢4-3-1","","35.626812","139.653598","01_131121_public_facility.csv"
"玉川保育園（複合施設）","東京都世田谷区玉川4-16-6","","35.617712","139.624076","01_131121_public_facility.csv"
"中町保育園","東京都世田谷区中町3-27-2","","35.615214","139.642693","01_131121_public_facility.csv"
"ふじみ保育園","東京都世田谷区上用賀5-19-6","","35.631765","139.62785","01_131121_public_facility.csv"
"南奥沢保育園","東京都世田谷区奥沢1-2-13","","35.599454","139.680127","01_131121_public_facility.csv"
"用賀保育園（複合施設）","東京都世田谷区用賀2-29-22","","35.62561","139.636452","01_131121_public_facility.csv"
"用賀保育園分園（わくわく保育園）","東京都世田谷区用賀2-28-20","","35.62465","139.637256","01_131121_public_facility.csv"
"大蔵保育園","東京都世田谷区砧4-5-12","","35.640845","139.612297","01_131121_public_facility.csv"
"喜多見保育園","東京都世田谷区成城3-18-20","","35.634335","139.597268","01_131121_public_facility.csv"
"希望丘保育園（複合施設）","東京都世田谷区船橋6-25-1","","35.659021","139.620796","01_131121_public_facility.csv"
"小梅保育園","東京都世田谷区喜多見2-10-41-101","","35.624099","139.594943","01_131121_public_facility.csv"
"船橋東保育園","東京都世田谷区船橋5-14-19","","35.654813","139.627614","01_131121_public_facility.csv"
"南大蔵保育園","東京都世田谷区大蔵1-7-11","","35.633759","139.619043","01_131121_public_facility.csv"
"上北沢保育園（複合施設）","東京都世田谷区上北沢4-25-3","","35.669729","139.620073","01_131121_public_facility.csv"
"上祖師谷保育園","東京都世田谷区上祖師谷1-16-17","","35.663279","139.601233","01_131121_public_facility.csv"
"上祖師谷南保育園","東京都世田谷区上祖師谷4-6-7","","35.653731","139.596731","01_131121_public_facility.csv"
"烏山北保育園","東京都世田谷区北烏山3-13-35","","35.67744","139.601927","01_131121_public_facility.csv"
"給田保育園","東京都世田谷区給田2-13-6","","35.665007","139.593342","01_131121_public_facility.csv"
"西之谷保育園","東京都世田谷区北烏山6-12-21","","35.672545","139.596678","01_131121_public_facility.csv"
"八幡山保育園（複合施設）","東京都世田谷区粕谷2-22-3","","35.665593","139.611716","01_131121_public_facility.csv"
"松沢保育園","東京都世田谷区上北沢1-32-3","","35.663902","139.624171","01_131121_public_facility.csv"
"南八幡山保育園","東京都世田谷区八幡山3-9-20-101","","35.664768","139.617064","01_131121_public_facility.csv"
"芦花保育園","東京都世田谷区南烏山2-30-17-101","","35.669403","139.606409","01_131121_public_facility.csv"
"池尻かもめ保育園","東京都世田谷区池尻2-5-8","","35.646564","139.680443","01_131121_public_facility.csv"
"おともだち保育園分園こまどめ（複合施設）","東京都世田谷区下馬4-18-1","","35.637549","139.678511","01_131121_public_facility.csv"
"経堂保育園（複合施設）","東京都世田谷区経堂4-13-10","","35.648337","139.628372","01_131121_public_facility.csv"
"下馬鳩ぽっぽ保育園（複合施設）","東京都世田谷区下馬3-14-9","","35.635942","139.675404","01_131121_public_facility.csv"
"子育てステーション梅丘（複合施設）","東京都世田谷区松原6-41-7","","35.656388","139.649778","01_131121_public_facility.csv"
"上用賀青い空保育園分園森の家（複合施設）","東京都世田谷区上用賀5-15-1","","35.630155","139.626791","01_131121_public_facility.csv"
"グリーンヒル奥沢保育園分園グリーンバレー等々力保育園（複合施設）","東京都世田谷区等々力2-33-14","","35.607716","139.647964","01_131121_public_facility.csv"
"身延山保育園分園さくら青空保育園","東京都世田谷区瀬田2-17-1","","35.61837","139.633478","01_131121_public_facility.csv"
"用賀なのはな保育園","東京都世田谷区用賀1-2-2","","35.62331","139.642713","01_131121_public_facility.csv"
"用賀なのはな保育園深沢分園","東京都世田谷区新町1-3-31","","35.626721","139.652746","01_131121_public_facility.csv"
"砧保育園","東京都世田谷区祖師谷4-3-17","","35.647206","139.607756","01_131121_public_facility.csv"
"ひなたの森保育園分園","東京都世田谷区砧2-14-12","","35.643488","139.617525","01_131121_public_facility.csv"
"成育しせい保育園（複合施設）","東京都世田谷区大蔵2-10-18","","35.634651","139.61299","01_131121_public_facility.csv"
"千歳保育園（複合施設）","東京都世田谷区千歳台6-16-12","","35.657829","139.607023","01_131121_public_facility.csv"
"日本女子体育大学附属保育園","東京都世田谷区船橋7-20-16","","35.658424","139.61546","01_131121_public_facility.csv"
"YMCA保育園ねがい","東京都世田谷区船橋6-26-5-101","","35.657998","139.62086","01_131121_public_facility.csv"
"烏山保育園（複合施設）","東京都世田谷区南烏山6-22-14","","35.669836","139.597976","01_131121_public_facility.csv"
"子育てステーション烏山（複合施設）","東京都世田谷区南烏山5-17-5","","35.666928","139.6013","01_131121_public_facility.csv"
"青葉学園野沢こども園","東京都世田谷区野沢1-3-19","","35.634532","139.669722","01_131121_public_facility.csv"
"いなみ小児科病児保育室ハグルーム","東京都世田谷区下馬3-10-7","","35.634724","139.674191","01_131121_public_facility.csv"
"かるがもクリニック病児保育室（複合施設）","東京都世田谷区桜丘5-20-14シンエイ第3ビル2階","","35.646319","139.621801","01_131121_public_facility.csv"
"きらりこどもクリニック病児保育室アップル","東京都世田谷区太子堂3-1C-24","","35.649052","139.671655","01_131121_public_facility.csv"
"病児保育室ソレイユ","東京都世田谷区世田谷4-6-13グランデュオ世田谷Ⅴ1階","","35.643326","139.652938","01_131121_public_facility.csv"
"病児・病後児保育室下北沢ひよこ園","東京都世田谷区北沢2-26-25","","35.661959","139.666623","01_131121_public_facility.csv"
"ナオミ保育園病後児保育室バンビ","東京都世田谷区等々力4-13-10","","35.609087","139.653215","01_131121_public_facility.csv"
"ニコこどもクリニック病児保育室ニコのおうち","東京都世田谷区玉川1-15-6-101","","35.609892","139.632102","01_131121_public_facility.csv"
"山口小児科内科病児保育室シェモア","東京都世田谷区中町4-35-6","","35.616791","139.640644","01_131121_public_facility.csv"
"病児・病後児保育室かんがるーむ（複合施設）","東京都世田谷区大蔵2-10-18","","35.634651","139.61299","01_131121_public_facility.csv"
"子育てステーション烏山（複合施設）","東京都世田谷区南烏山5-17-5","","35.666928","139.6013","01_131121_public_facility.csv"
"病児・病後児保育室「ポピンズルーム千歳烏山」","東京都世田谷区南烏山6-12-12コーシャハイム千歳烏山12棟2階","","35.668372","139.597927","01_131121_public_facility.csv"
"つくし保育園","東京都世田谷区太子堂2-6-12","","35.64608","139.673874","01_131121_public_facility.csv"
"砧南らる保育園（複合施設）","東京都世田谷区鎌田3-13-20","","35.621237","139.613158","01_131121_public_facility.csv"
"キッズルームてぃんかぁべる三茶（複合施設）","東京都世田谷区太子堂4-1-1","","35.643681","139.669084","01_131121_public_facility.csv"
"もみの木Ｍｏｍ太子堂（複合施設）","東京都世田谷区太子堂1-14-20","","35.642897","139.673622","01_131121_public_facility.csv"
"池尻児童館（複合施設）","東京都世田谷区池尻2-3-11","","35.646608","139.682525","01_131121_public_facility.csv"
"上町児童館","東京都世田谷区世田谷2-30-16","","35.643059","139.642907","01_131121_public_facility.csv"
"桜丘児童館（複合施設）","東京都世田谷区桜丘5-14-1","","35.644782","139.622143","01_131121_public_facility.csv"
"弦巻児童館（複合施設）","東京都世田谷区弦巻1-26-11","","35.636934","139.651815","01_131121_public_facility.csv"
"野沢児童館（複合施設）","東京都世田谷区野沢1-8-14","","35.634692","139.671056","01_131121_public_facility.csv"
"若林児童館","東京都世田谷区若林5-18-13","","35.648622","139.656989","01_131121_public_facility.csv"
"代田児童館（複合施設）","東京都世田谷区代田6-34-13","","35.662869","139.660648","01_131121_public_facility.csv"
"代田児童館分室（複合施設）","東京都世田谷区北沢3-3-10","","35.666362","139.672548","01_131121_public_facility.csv"
"代田南児童館（複合施設）","東京都世田谷区代田1-13-14","","35.651927","139.662697","01_131121_public_facility.csv"
"松沢児童館","東京都世田谷区赤堤4-37-14","","35.664427","139.641793","01_131121_public_facility.csv"
"奥沢子育て児童ひろば（複合施設）","東京都世田谷区奥沢3-47-8","","35.603624","139.672397","01_131121_public_facility.csv"
"上用賀児童館（複合施設）","東京都世田谷区上用賀4-14-3-101","","35.635876","139.630057","01_131121_public_facility.csv"
"新町児童館","東京都世田谷区新町2-23-4-101都営住宅内","","35.630841","139.647721","01_131121_public_facility.csv"
"玉川台児童館（複合施設）","東京都世田谷区玉川台1-6-15","","35.622935","139.633048","01_131121_public_facility.csv"
"等々力児童館（複合施設）","東京都世田谷区等々力3-25-16","","35.61137","139.649976","01_131121_public_facility.csv"
"深沢児童館（複合施設）","東京都世田谷区深沢4-33-11","","35.620194","139.65387","01_131121_public_facility.csv"
"森の児童館","東京都世田谷区上野毛4-29-18","","35.616894","139.638761","01_131121_public_facility.csv"
"鎌田児童館（複合施設）","東京都世田谷区鎌田3-35-1","","35.622285","139.613512","01_131121_public_facility.csv"
"喜多見児童館","東京都世田谷区喜多見2-10-40","","35.624742","139.594752","01_131121_public_facility.csv"
"成城さくら児童館","東京都世田谷区成城3-18-23","","35.634108","139.597634","01_131121_public_facility.csv"
"祖師谷児童館（複合施設）","東京都世田谷区祖師谷4-28-6-101","","35.649694","139.606289","01_131121_public_facility.csv"
"船橋児童館","東京都世田谷区船橋5-17-28","","35.654824","139.625419","01_131121_public_facility.csv"
"山野児童館","東京都世田谷区砧4-1-7","","35.638008","139.614695","01_131121_public_facility.csv"
"粕谷児童館（複合施設）","東京都世田谷区粕谷4-13-6","","35.663097","139.605159","01_131121_public_facility.csv"
"上北沢児童館（複合施設）","東京都世田谷区上北沢3-8-9","","35.667566","139.625565","01_131121_public_facility.csv"
"上祖師谷ぱる児童館（複合施設）","東京都世田谷区上祖師谷4-5-6","","35.653571","139.596639","01_131121_public_facility.csv"
"烏山児童館（複合施設）","東京都世田谷区南烏山4-26-3","","35.67171","139.601544","01_131121_public_facility.csv"
"子育てステーション世田谷","東京都世田谷区太子堂1-4-22昭和インターナショナルハウス1F","","35.645614","139.676065","01_131121_public_facility.csv"
"子ども・子育て総合センター（複合施設）","東京都世田谷区宮坂3-15-15","","35.653946","139.637335","01_131121_public_facility.csv"
"子育てステーション梅丘（児相内）（複合施設）","東京都世田谷区松原6-41-7","","35.656388","139.649778","01_131121_public_facility.csv"
"児童相談所（複合施設）","東京都世田谷区松原6-41-7","","35.656388","139.649778","01_131121_public_facility.csv"
"子育てステーション桜新町","東京都世田谷区桜新町2-8-1","","35.631965","139.6451","01_131121_public_facility.csv"
"産後ケアセンター","東京都世田谷区桜新町2-29-6","","35.632279","139.638937","01_131121_public_facility.csv"
"子育てステーション成城","東京都世田谷区成城6-5-34","","35.640117","139.599098","01_131121_public_facility.csv"
"ファミリーサポートセンター（複合施設）","東京都世田谷区成城6-3-10","","35.640809","139.600514","01_131121_public_facility.csv"
"子育てステーション烏山（複合施設）","東京都世田谷区南烏山5-17-5","","35.666928","139.6013","01_131121_public_facility.csv"
"区立母子生活支援施設（複合施設）","東京都世田谷区ー","","35.646574","139.65325","01_131121_public_facility.csv"
"一時保護所","","","","","01_131121_public_facility.csv"
"ぷらっとホーム世田谷（複合施設）","東京都世田谷区太子堂4-3-1STKハイツ","","35.64337","139.668554","01_131121_public_facility.csv"
"ぷらっとホーム世田谷分室","東京都世田谷区太子堂4-3-2DS三軒茶屋ビル2F","","35.643319","139.668301","01_131121_public_facility.csv"
"世田谷ボランティアセンター（複合施設）","東京都世田谷区下馬2-20-14","","35.640638","139.675404","01_131121_public_facility.csv"
"北沢ボランティアビューロー","東京都世田谷区梅丘1-8-9","","35.654044","139.654231","01_131121_public_facility.csv"
"玉川ボランティアビューロー（複合施設）","東京都世田谷区玉川2-1-15","","35.611427","139.631304","01_131121_public_facility.csv"
"砧ボランティアビューロー準備室（複合施設）","東京都世田谷区成城6-3-10","","35.640809","139.600514","01_131121_public_facility.csv"
"上用賀四丁目福祉代替施設","東京都世田谷区上用賀4-16-12","","35.63593","139.630632","01_131121_public_facility.csv"
"福祉人材育成・研修センター（複合施設）","東京都世田谷区松原6-37-10","","35.657543","139.649921","01_131121_public_facility.csv"
"成年後見センター（複合施設）","東京都世田谷区成城6-3-10","","35.640809","139.600514","01_131121_public_facility.csv"
"世田谷区社会福祉協議会（複合施設）","東京都世田谷区成城6-3-10","","35.640809","139.600514","01_131121_public_facility.csv"
"経堂駅前レンタサイクルポート","東京都世田谷区経堂2-1-38先","","35.65145","139.637284","01_131121_public_facility.csv"
"三軒茶屋北レンタサイクルポート（複合施設）","東京都世田谷区太子堂2-16-1","","35.644232","139.671484","01_131121_public_facility.csv"
"三軒茶屋中央レンタサイクルポート（複合施設）","東京都世田谷区三軒茶屋2-11先","","35.641665","139.669267","01_131121_public_facility.csv"
"桜上水南レンタサイクルポート（複合施設）","東京都世田谷区桜上水4-18-13","","35.666753","139.632196","01_131121_public_facility.csv"
"桜新町レンタサイクルポート（複合施設）","東京都世田谷区桜新町2-7-15","","35.632286","139.644329","01_131121_public_facility.csv"
"等々力レンタサイクルポート（複合施設）","東京都世田谷区等々力3-2-2","","35.60844","139.649168","01_131121_public_facility.csv"
"成城北第二レンタサイクルポート（複合施設）","東京都世田谷区成城6-14-10","","35.641541","139.598895","01_131121_public_facility.csv"
"池尻大橋自転車等駐車場","東京都世田谷区池尻3-2先","","35.650417","139.683845","01_131121_public_facility.csv"
"上町自転車等駐車場","東京都世田谷区世田谷1-25先外","","35.642191","139.645973","01_131121_public_facility.csv"
"経堂南自転車等駐車場","東京都世田谷区経堂1-12-11","","35.650222","139.637141","01_131121_public_facility.csv"
"駒沢自転車等駐車場","東京都世田谷区駒沢2-6-17","","35.632993","139.660299","01_131121_public_facility.csv"
"駒沢第二自転車等駐車場","東京都世田谷区上馬4-3-20","","35.634137","139.661816","01_131121_public_facility.csv"
"三軒茶屋北自転車等駐車場（複合施設）","東京都世田谷区太子堂2-16-1","","35.644232","139.671484","01_131121_public_facility.csv"
"三軒茶屋北第二自転車等駐車場","東京都世田谷区太子堂2-20-4","","35.645114","139.671682","01_131121_public_facility.csv"
"三軒茶屋北第三自転車等駐車場","東京都世田谷区太子堂2-16-11","","35.644619","139.671145","01_131121_public_facility.csv"
"三軒茶屋中央自転車等駐車場（複合施設）","東京都世田谷区三軒茶屋2-11先","","35.641665","139.669267","01_131121_public_facility.csv"
"三軒茶屋西自転車等駐車場","東京都世田谷区太子堂4-20-8","","35.64428","139.668571","01_131121_public_facility.csv"
"三軒茶屋二丁目自転車等駐車場","東京都世田谷区三軒茶屋2-14-9","","35.643209","139.669183","01_131121_public_facility.csv"
"世田谷駅南自転車等駐車場","東京都世田谷区世田谷4-7-16","","35.643063","139.651623","01_131121_public_facility.csv"
"千歳船橋西自転車等駐車場","東京都世田谷区桜丘5-21","","35.646379","139.620859","01_131121_public_facility.csv"
"千歳船橋南自転車等駐車場（複合施設）","東京都世田谷区桜丘2-22-1","","35.645851","139.623679","01_131121_public_facility.csv"
"池ノ上自転車等駐車場","東京都世田谷区代沢2-42-18","","35.659844","139.673487","01_131121_public_facility.csv"
"桜上水南自転車等駐車場（複合施設）","東京都世田谷区桜上水4-18-13","","35.666753","139.632196","01_131121_public_facility.csv"
"下北沢北自転車置場","東京都世田谷区北沢2-25先","","35.662171","139.667148","01_131121_public_facility.csv"
"下北沢自転車等駐車場","東京都世田谷区北沢2-2-13","","35.65971","139.668223","01_131121_public_facility.csv"
"下北沢第二自転車等駐車場","東京都世田谷区北沢1-38-10","","35.660814","139.669968","01_131121_public_facility.csv"
"下北沢第三自転車等駐車場","東京都世田谷区北沢1-40-11","","35.662185","139.670331","01_131121_public_facility.csv"
"下北沢東自転車等駐車場","東京都世田谷区北沢1-46先","","35.662892","139.670031","01_131121_public_facility.csv"
"下高井戸駅前自転車等駐車場","東京都世田谷区赤堤4-40-11","","35.665813","139.641686","01_131121_public_facility.csv"
"下高井戸北自転車等駐車場","東京都世田谷区松原3-31-1","","35.666605","139.64292","01_131121_public_facility.csv"
"下高井戸南第二自転車等駐車場","東京都世田谷区松原3-15-11","","35.664477","139.643094","01_131121_public_facility.csv"
"新代田自転車等駐車場（複合施設）","東京都世田谷区代田6-34-13","","35.662869","139.660648","01_131121_public_facility.csv"
"代田橋自転車等駐車場","東京都世田谷区大原2-21先","","35.671035","139.660846","01_131121_public_facility.csv"
"東松原自転車等駐車場","東京都世田谷区松原5-2-12","","35.662628","139.655445","01_131121_public_facility.csv"
"松原自転車等駐車場","東京都世田谷区赤堤4-1-1先","","35.659903","139.641751","01_131121_public_facility.csv"
"明大前高架下自転車等置場","東京都世田谷区松原1-45先","","35.670316","139.652392","01_131121_public_facility.csv"
"明大前南自転車等駐車場","東京都世田谷区松原2-22-6","","35.666775","139.650899","01_131121_public_facility.csv"
"尾山台自転車等駐車場","東京都世田谷区尾山台3-34-14","","35.606772","139.654034","01_131121_public_facility.csv"
"上野毛北自転車等駐車場","東京都世田谷区上野毛1-27-13","","35.612697","139.63866","01_131121_public_facility.csv"
"九品仏南自転車等駐車場","東京都世田谷区奥沢6-25-9","","35.604945","139.661951","01_131121_public_facility.csv"
"桜新町自転車等駐車場（複合施設）","東京都世田谷区桜新町2-7-15","","35.632286","139.644329","01_131121_public_facility.csv"
"自由が丘駅第一自転車等駐車場","東京都世田谷区奥沢5-42-14","","35.606344","139.667079","01_131121_public_facility.csv"
"等々力自転車等駐車場（複合施設）","東京都世田谷区等々力3-2-2","","35.60844","139.649168","01_131121_public_facility.csv"
"二子玉川西自転車等駐車場","東京都世田谷区玉川3-15-3","","35.614086","139.625394","01_131121_public_facility.csv"
"二子玉川西多摩堤自転車等駐車場","東京都世田谷区玉川1-12-7先","","35.610704","139.628162","01_131121_public_facility.csv"
"用賀自転車等駐車場","東京都世田谷区用賀4-5-5先","","35.625878","139.632692","01_131121_public_facility.csv"
"用賀西自転車等駐車場","東京都世田谷区用賀4-9-8","","35.627373","139.632194","01_131121_public_facility.csv"
"用賀西第二自転車等駐車場","東京都世田谷区用賀4-10先","","35.626906","139.63251","01_131121_public_facility.csv"
"成城北第二自転車等駐車場（複合施設）","東京都世田谷区成城6-14-10","","35.641541","139.598895","01_131121_public_facility.csv"
"千歳船橋北自転車等駐車場","東京都世田谷区船橋1-13-2","","35.648128","139.622753","01_131121_public_facility.csv"
"烏山駅前自転車等駐車場","東京都世田谷区南烏山5-13-1","","35.66767","139.60207","01_131121_public_facility.csv"
"烏山北自転車等駐車場","東京都世田谷区南烏山6-6先","","35.66789","139.599372","01_131121_public_facility.csv"
"烏山北第二自転車等駐車場","東京都世田谷区南烏山6-30先","","35.670281","139.599195","01_131121_public_facility.csv"
"烏山北第三自転車等駐車場","東京都世田谷区南烏山4-10-4","","35.669116","139.601753","01_131121_public_facility.csv"
"烏山地下自転車等駐車場","東京都世田谷区南烏山6-2-21","","35.668646","139.600683","01_131121_public_facility.csv"
"烏山中央自転車等駐車場","東京都世田谷区南烏山5-17-23","","35.667166","139.60142","01_131121_public_facility.csv"
"烏山東自転車等駐車場","東京都世田谷区南烏山2-25-10","","35.668829","139.604615","01_131121_public_facility.csv"
"烏山南第二自転車等駐車場","東京都世田谷区南烏山5-10-11","","35.66826","139.602348","01_131121_public_facility.csv"
"烏山南第三自転車等駐車場","東京都世田谷区南烏山5-18-19","","35.66666","139.601816","01_131121_public_facility.csv"
"烏山南第四自転車等駐車場","東京都世田谷区南烏山5-20-1","","35.666567","139.602604","01_131121_public_facility.csv"
"新烏山南自転車等駐車場","東京都世田谷区上祖師谷1-37-10","","35.666523","139.599173","01_131121_public_facility.csv"
"八幡山北自転車等駐車場","東京都世田谷区上北沢4-35-12","","35.670901","139.616541","01_131121_public_facility.csv"
"芦花公園北自転車等駐車場","東京都世田谷区南烏山3-2-1","","35.671136","139.608733","01_131121_public_facility.csv"
"弦巻五丁目放置自転車等保管所","東京都世田谷区弦巻5-36-18","","35.635819","139.638297","01_131121_public_facility.csv"
"梅丘高架下放置自転車等保管所","東京都世田谷区梅丘1-43","","35.655342","139.651149","01_131121_public_facility.csv"
"上用賀放置自転車等保管所","東京都世田谷区上用賀5-24-8","","35.632134","139.625149","01_131121_public_facility.csv"
"桜新町放置自転車等保管所","東京都世田谷区桜新町2-6-6","","35.632742","139.643928","01_131121_public_facility.csv"
"上祖師谷放置自転車等保管所","東京都世田谷区上祖師谷4-4-11","","35.655556","139.597429","01_131121_public_facility.csv"
"北烏山放置自転車等保管所","東京都世田谷区北烏山4-1","","35.677466","139.599183","01_131121_public_facility.csv"
"給田放置自転車等保管所","東京都世田谷区給田4-11-26","","35.668235","139.591914","01_131121_public_facility.csv"
"アザレア経堂","東京都世田谷区経堂1-6-16","","35.648765","139.637313","01_131121_public_facility.csv"
"上馬四丁目アパート（複合施設）","東京都世田谷区上馬4-37-1、2","","35.638276","139.659266","01_131121_public_facility.csv"
"桜丘二丁目アパート","東京都世田谷区桜丘2-13-1","","35.645279","139.626713","01_131121_public_facility.csv"
"桜丘五丁目第二アパート（複合施設）","東京都世田谷区桜丘5-45-1、2","","35.64709","139.619414","01_131121_public_facility.csv"
"世田谷二丁目アパート","東京都世田谷区世田谷2-27-15、16","","35.641914","139.64072","01_131121_public_facility.csv"
"弦巻二丁目アパート","東京都世田谷区弦巻2-15-1","","35.63417","139.653346","01_131121_public_facility.csv"
"弦巻三丁目第二アパート","東京都世田谷区弦巻3-15-7、8","","35.63686","139.644619","01_131121_public_facility.csv"
"弦巻四丁目アパート","東京都世田谷区弦巻4-32-1","","35.638172","139.642024","01_131121_public_facility.csv"
"弦巻四丁目第二アパート","東京都世田谷区弦巻4-4-1","","35.634176","139.643951","01_131121_public_facility.csv"
"弦巻四丁目第三アパート","東京都世田谷区弦巻4-5-5","","35.633809","139.642413","01_131121_public_facility.csv"
"パークサイド野沢","東京都世田谷区野沢3-3-12","","35.628568","139.67578","01_131121_public_facility.csv"
"ユアーズ若林","東京都世田谷区若林3-4-10","","35.644056","139.660062","01_131121_public_facility.csv"
"赤堤一丁目アパート（複合施設）","東京都世田谷区赤堤1-37-11","","35.655294","139.638326","01_131121_public_facility.csv"
"大原一丁目アパート","東京都世田谷区大原1-12-2","","35.667626","139.664564","01_131121_public_facility.csv"
"豪徳寺アパート（複合施設）","東京都世田谷区豪徳寺1-34-1、2","","35.655668","139.649326","01_131121_public_facility.csv"
"桜上水三丁目アパート","東京都世田谷区桜上水3-10-10","","35.661329","139.634156","01_131121_public_facility.csv"
"上野毛福寿荘","東京都世田谷区上野毛4-14-7","","35.617658","139.639973","01_131121_public_facility.csv"
"上用賀四丁目アパート（複合施設）","東京都世田谷区上用賀4-14-1、2、3","","35.635374","139.630415","01_131121_public_facility.csv"
"上用賀五丁目アパート（複合施設）","東京都世田谷区上用賀5-14-1、2","","35.630095","139.625844","01_131121_public_facility.csv"
"桜新町一丁目アパート","東京都世田谷区桜新町1-4-1","","35.628468","139.644688","01_131121_public_facility.csv"
"桜新町二丁目アパート","東京都世田谷区桜新町2-13-15","","35.633668","139.642774","01_131121_public_facility.csv"
"新町一丁目アパート","東京都世田谷区新町1-6-16、18、20","","35.629065","139.65155","01_131121_public_facility.csv"
"玉川三丁目アパート（複合施設）","東京都世田谷区玉川3-27-1","","35.614103","139.624276","01_131121_public_facility.csv"
"玉川四丁目アパート（複合施設）","東京都世田谷区玉川4-16-7","","35.617617","139.62401","01_131121_public_facility.csv"
"中町四丁目アパート（複合施設）","東京都世田谷区中町4-15-6","","35.617961","139.644841","01_131121_public_facility.csv"
"深沢四丁目アパート（複合施設）","東京都世田谷区深沢4-17-1、2、4、5","","35.618482","139.653469","01_131121_public_facility.csv"
"ブラン深沢","東京都世田谷区深沢1-9-17","","35.61511","139.66093","01_131121_public_facility.csv"
"用賀二丁目アパート","東京都世田谷区用賀2-22-1、2","","35.626238","139.638718","01_131121_public_facility.csv"
"用賀二丁目第二アパート","東京都世田谷区用賀2-23-17、22及び24-19、21","","35.626074","139.639293","01_131121_public_facility.csv"
"宇奈根一丁目アパート","東京都世田谷区宇奈根1-19-1、2","","35.620577","139.607492","01_131121_public_facility.csv"
"鎌田二丁目アパート","東京都世田谷区鎌田2-21-10","","35.619735","139.608942","01_131121_public_facility.csv"
"砧七丁目アパート","東京都世田谷区砧7-14-1","","35.638299","139.606299","01_131121_public_facility.csv"
"千歳台一丁目第二アパート","東京都世田谷区千歳台1-35-1及び36-2","","35.649014","139.615519","01_131121_public_facility.csv"
"ホープ大蔵","東京都世田谷区大蔵1-3-28","","35.635186","139.620887","01_131121_public_facility.csv"
"リラ祖師谷","東京都世田谷区祖師谷5-2-16","","35.650425","139.606931","01_131121_public_facility.csv"
"アーク上北沢","東京都世田谷区上北沢1-25-14","","35.663091","139.624869","01_131121_public_facility.csv"
"粕谷四丁目アパート","東京都世田谷区粕谷4-11-8","","35.663169","139.605642","01_131121_public_facility.csv"
"上北沢一丁目アパート","東京都世田谷区上北沢1-25-1","","35.662563","139.624936","01_131121_public_facility.csv"
"上北沢五丁目アパート","東京都世田谷区上北沢5-32-14","","35.673989","139.616913","01_131121_public_facility.csv"
"上北沢五丁目第二アパート","東京都世田谷区上北沢5-15-2、3、4、6、7","","35.673796","139.617762","01_131121_public_facility.csv"
"上祖師谷一丁目第二アパート（複合施設）","東京都世田谷区上祖師谷1-24-1、2","","35.663546","139.599287","01_131121_public_facility.csv"
"北烏山一丁目第二アパート","東京都世田谷区北烏山1-5-1、2","","35.67402","139.607692","01_131121_public_facility.csv"
"北烏山八丁目アパート","東京都世田谷区北烏山8-9-1、2、3","","35.675361","139.58913","01_131121_public_facility.csv"
"コスモ北烏山","東京都世田谷区北烏山7-10-5","","35.677785","139.592769","01_131121_public_facility.csv"
"シティコート世田谷給田","東京都世田谷区給田5-8-5E棟","","35.671663","139.586744","01_131121_public_facility.csv"
"八幡山一丁目アパート","東京都世田谷区八幡山1-13-1","","35.661702","139.621323","01_131121_public_facility.csv"
"八幡山三丁目第二アパート（複合施設）","東京都世田谷区八幡山3-32-26","","35.668277","139.616839","01_131121_public_facility.csv"
"八幡山慶明館","東京都世田谷区八幡山3-18-19","","35.664831","139.615071","01_131121_public_facility.csv"
"フローラ千歳台","東京都世田谷区千歳台3-18-11","","35.652904","139.615128","01_131121_public_facility.csv"
"フローレル北烏山","東京都世田谷区北烏山8-4-12","","35.675769","139.591192","01_131121_public_facility.csv"
"上馬四丁目特定公共賃貸住宅（複合施設）","東京都世田谷区上馬4-37-1、2","","35.638276","139.659266","01_131121_public_facility.csv"
"経堂四丁目ファミリー住宅（複合施設）","東京都世田谷区経堂4-13-10","","35.648337","139.628372","01_131121_public_facility.csv"
"桜丘五丁目第二ファミリー住宅（複合施設）","東京都世田谷区桜丘5-45-2","","35.647236","139.618413","01_131121_public_facility.csv"
"弦巻五丁目ファミリー住宅（複合施設）","東京都世田谷区弦巻5-13-19","","35.638364","139.641173","01_131121_public_facility.csv"
"赤堤一丁目ファミリー住宅（複合施設）","東京都世田谷区赤堤1-37-11","","35.655294","139.638326","01_131121_public_facility.csv"
"上用賀五丁目特定公共賃貸住宅（複合施設）","東京都世田谷区上用賀5-14-1、2","","35.630095","139.625844","01_131121_public_facility.csv"
"玉川三丁目特定公共賃貸住宅（複合施設）","東京都世田谷区玉川3-27-1","","35.614103","139.624276","01_131121_public_facility.csv"
"中町四丁目ファミリー住宅（複合施設）","東京都世田谷区中町4-15-6、21","","35.617961","139.644841","01_131121_public_facility.csv"
"深沢四丁目ファミリー住宅（複合施設）","東京都世田谷区深沢4-17-3","","35.618247","139.654156","01_131121_public_facility.csv"
"世田谷高齢者借上げ集合住宅（複合施設）","東京都世田谷区世田谷4-15-3","","35.644448","139.650941","01_131121_public_facility.csv"
"太子堂高齢者借上げ集合住宅（複合施設）","東京都世田谷区太子堂5-24-20","","35.648475","139.664952","01_131121_public_facility.csv"
"玉堤高齢者借上げ集合住宅（複合施設）","東京都世田谷区玉堤2-3-1ボヌール玉堤","","35.598446","139.648802","01_131121_public_facility.csv"
"旭小学校（複合施設）","東京都世田谷区野沢1-4-3","","35.635347","139.670295","01_131121_public_facility.csv"
"池尻小学校（複合施設）","東京都世田谷区池尻2-4-10","","35.646017","139.679688","01_131121_public_facility.csv"
"駒沢小学校（複合施設）","東京都世田谷区駒沢2-10-6","","35.632995","139.657882","01_131121_public_facility.csv"
"駒繋小学校（複合施設）","東京都世田谷区下馬1-42-12","","35.640334","139.680573","01_131121_public_facility.csv"
"桜丘小学校","東京都世田谷区桜丘1-19-17","","35.644661","139.631207","01_131121_public_facility.csv"
"桜小学校（複合施設）","東京都世田谷区世田谷2-4-15","","35.642947","139.645326","01_131121_public_facility.csv"
"笹原小学校（複合施設）","東京都世田谷区桜丘5-19-1","","35.645241","139.621223","01_131121_public_facility.csv"
"三軒茶屋小学校（複合施設）","東京都世田谷区三軒茶屋2-42-1","","35.64045","139.66318","01_131121_public_facility.csv"
"世田谷小学校（複合施設）","東京都世田谷区宮坂1-38-4","","35.649871","139.644801","01_131121_public_facility.csv"
"太子堂小学校（複合施設）","東京都世田谷区太子堂5-7-4","","35.646497","139.666771","01_131121_public_facility.csv"
"多聞小学校（複合施設）","東京都世田谷区三宿2-26-11","","35.652607","139.673884","01_131121_public_facility.csv"
"弦巻小学校（複合施設）","東京都世田谷区弦巻1-9-18","","35.639706","139.652773","01_131121_public_facility.csv"
"中里小学校（複合施設）","東京都世田谷区三軒茶屋1-4-1","","35.63971","139.673641","01_131121_public_facility.csv"
"中丸小学校（複合施設）","東京都世田谷区野沢3-34-16","","35.632306","139.673238","01_131121_public_facility.csv"
"松丘小学校（複合施設）","東京都世田谷区弦巻3-23-12","","35.638849","139.64428","01_131121_public_facility.csv"
"三宿小学校（複合施設）","東京都世田谷区三宿1-12-6","","35.648145","139.676469","01_131121_public_facility.csv"
"若林小学校（複合施設）","東京都世田谷区若林5-27-18","","35.649356","139.657306","01_131121_public_facility.csv"
"赤堤小学校（複合施設）","東京都世田谷区赤堤1-41-24","","35.654995","139.637639","01_131121_public_facility.csv"
"（旧）北沢小学校（池之上小学校仮設校舎）","東京都世田谷区北沢4-32-20","","35.668104","139.672217","01_131121_public_facility.csv"
"経堂小学校（複合施設）","東京都世田谷区桜上水1-23-3","","35.65626","139.631009","01_131121_public_facility.csv"
"下北沢小学校（複合施設）","東京都世田谷区大原1-4-6","","35.666752","139.664574","01_131121_public_facility.csv"
"城山小学校（複合施設）","東京都世田谷区梅丘2-1-11","","35.648666","139.650584","01_131121_public_facility.csv"
"代沢小学校（複合施設）","東京都世田谷区代沢5-1-10","","35.655009","139.667836","01_131121_public_facility.csv"
"代田小学校（複合施設）","東京都世田谷区代田4-2-3","","35.658484","139.658523","01_131121_public_facility.csv"
"松沢小学校（複合施設）","東京都世田谷区赤堤4-44-22","","35.665525","139.639417","01_131121_public_facility.csv"
"松原小学校（複合施設）","東京都世田谷区松原5-43-26","","35.663943","139.651085","01_131121_public_facility.csv"
"山崎小学校（複合施設）","東京都世田谷区梅丘3-9-1","","35.65141","139.655256","01_131121_public_facility.csv"
"奥沢小学校（複合施設）","東京都世田谷区奥沢3-1-1","","35.599811","139.674963","01_131121_public_facility.csv"
"尾山台小学校（複合施設）","東京都世田谷区尾山台3-11-1","","35.604594","139.654348","01_131121_public_facility.csv"
"京西小学校（複合施設）","東京都世田谷区用賀4-27-4","","35.628925","139.631336","01_131121_public_facility.csv"
"九品仏小学校（複合施設）","東京都世田谷区奥沢8-12-1","","35.603254","139.660136","01_131121_public_facility.csv"
"桜町小学校（複合施設）","東京都世田谷区用賀1-5-1","","35.624541","139.642272","01_131121_public_facility.csv"
"瀬田小学校（複合施設）","東京都世田谷区瀬田2-15-1","","35.618205","139.631281","01_131121_public_facility.csv"
"玉川小学校（複合施設）","東京都世田谷区中町2-29-1","","35.610527","139.643315","01_131121_public_facility.csv"
"玉堤小学校（複合施設）","東京都世田谷区玉堤2-11-1","","35.599886","139.64761","01_131121_public_facility.csv"
"等々力小学校（複合施設）","東京都世田谷区等々力7-26-1","","35.616488","139.653677","01_131121_public_facility.csv"
"中町小学校（複合施設）","東京都世田谷区中町4-23-1","","35.617215","139.642866","01_131121_public_facility.csv"
"東玉川小学校（複合施設）","東京都世田谷区奥沢1-1-1","","35.59855","139.680451","01_131121_public_facility.csv"
"東深沢小学校（複合施設）","東京都世田谷区深沢3-7-1","","35.618192","139.658588","01_131121_public_facility.csv"
"深沢小学校（複合施設）","東京都世田谷区新町1-4-24","","35.627316","139.651579","01_131121_public_facility.csv"
"二子玉川小学校（複合施設）","東京都世田谷区玉川4-6-1","","35.616405","139.626179","01_131121_public_facility.csv"
"八幡小学校（複合施設）","東京都世田谷区玉川田園調布2-17-15","","35.602786","139.666951","01_131121_public_facility.csv"
"用賀小学校（複合施設）","東京都世田谷区上用賀6-14-1","","35.636217","139.626389","01_131121_public_facility.csv"
"喜多見小学校（複合施設）","東京都世田谷区喜多見3-11-1","","35.62602","139.601465","01_131121_public_facility.csv"
"砧小学校（複合施設）","東京都世田谷区喜多見6-9-1","","35.631758","139.605322","01_131121_public_facility.csv"
"砧南小学校（複合施設）","東京都世田谷区鎌田4-3-1","","35.622533","139.612398","01_131121_public_facility.csv"
"希望丘小学校（複合施設）","東京都世田谷区船橋4-9-1","","35.656542","139.621645","01_131121_public_facility.csv"
"祖師谷小学校（複合施設）","東京都世田谷区祖師谷3-49-1","","35.645016","139.604366","01_131121_public_facility.csv"
"千歳小学校（複合施設）","東京都世田谷区成城9-6-1","","35.651459","139.597566","01_131121_public_facility.csv"
"千歳台小学校（複合施設）","東京都世田谷区千歳台4-24-1","","35.658596","139.613207","01_131121_public_facility.csv"
"塚戸小学校（複合施設）","東京都世田谷区千歳台6-7-1","","35.656894","139.607379","01_131121_public_facility.csv"
"船橋小学校（複合施設）","東京都世田谷区船橋4-41-1","","35.653263","139.617017","01_131121_public_facility.csv"
"明正小学校（複合施設）","東京都世田谷区成城3-3-1","","35.635478","139.599086","01_131121_public_facility.csv"
"山野小学校（複合施設）","東京都世田谷区砧6-7-1","","35.643421","139.613257","01_131121_public_facility.csv"
"上北沢小学校（複合施設）","東京都世田谷区上北沢4-22-29","","35.669986","139.621265","01_131121_public_facility.csv"
"烏山北小学校（複合施設）","東京都世田谷区北烏山6-3-1","","35.673875","139.599607","01_131121_public_facility.csv"
"烏山小学校（複合施設）","東京都世田谷区給田1-2-1","","35.663523","139.592796","01_131121_public_facility.csv"
"給田小学校（複合施設）","東京都世田谷区給田4-24-1","","35.671169","139.59236","01_131121_public_facility.csv"
"八幡山小学校（複合施設）","東京都世田谷区八幡山1-14-1","","35.662083","139.621705","01_131121_public_facility.csv"
"武蔵丘小学校（複合施設）","東京都世田谷区北烏山1-47-11","","35.677167","139.605509","01_131121_public_facility.csv"
"芦花小学校（複合施設）","東京都世田谷区粕谷2-22-1","","35.666136","139.611634","01_131121_public_facility.csv"
"駒沢中学校（複合施設）","東京都世田谷区駒沢2-39-25","","35.636447","139.655929","01_131121_public_facility.csv"
"駒留中学校（複合施設）","東京都世田谷区下馬4-18-1","","35.637549","139.678511","01_131121_public_facility.csv"
"桜丘中学校","東京都世田谷区桜丘2-1-39","","35.643142","139.629918","01_131121_public_facility.csv"
"桜木中学校","東京都世田谷区桜1-48-15","","35.645696","139.642373","01_131121_public_facility.csv"
"太子堂中学校（複合施設）","東京都世田谷区太子堂3-27-17","","35.650179","139.668966","01_131121_public_facility.csv"
"弦巻中学校（複合施設）","東京都世田谷区弦巻1-42-22","","35.637328","139.649398","01_131121_public_facility.csv"
"三宿中学校","東京都世田谷区太子堂1-3-43","","35.645556","139.677865","01_131121_public_facility.csv"
"梅丘中学校（複合施設）","東京都世田谷区松原6-5-11","","35.658793","139.652254","01_131121_public_facility.csv"
"北沢中学校","東京都世田谷区北沢5-12-3","","35.66936","139.667145","01_131121_public_facility.csv"
"世田谷中学校","東京都世田谷区梅丘3-8-1","","35.650469","139.654937","01_131121_public_facility.csv"
"富士中学校","東京都世田谷区代沢1-23-17","","35.657022","139.6776","01_131121_public_facility.csv"
"松沢中学校","東京都世田谷区桜上水4-5-2","","35.665844","139.634627","01_131121_public_facility.csv"
"緑丘中学校","東京都世田谷区桜上水3-19-12","","35.661482","139.63134","01_131121_public_facility.csv"
"奥沢中学校","東京都世田谷区奥沢1-42-1","","35.60278","139.679523","01_131121_public_facility.csv"
"尾山台中学校","東京都世田谷区尾山台3-27-23","","35.60585","139.656019","01_131121_public_facility.csv"
"瀬田中学校","東京都世田谷区瀬田2-17-1","","35.61837","139.633478","01_131121_public_facility.csv"
"玉川中学校（複合施設）","東京都世田谷区中町4-21-1","","35.616941","139.643537","01_131121_public_facility.csv"
"東深沢中学校","東京都世田谷区深沢4-18-28","","35.618849","139.65376","01_131121_public_facility.csv"
"深沢中学校","東京都世田谷区新町1-26-29","","35.626629","139.648346","01_131121_public_facility.csv"
"八幡中学校","東京都世田谷区等々力6-4-1","","35.610716","139.661687","01_131121_public_facility.csv"
"用賀中学校（複合施設）","東京都世田谷区上用賀5-15-1","","35.630155","139.626791","01_131121_public_facility.csv"
"喜多見中学校","東京都世田谷区喜多見4-20-1","","35.625843","139.594061","01_131121_public_facility.csv"
"砧中学校","東京都世田谷区成城1-10-1","","35.633591","139.601278","01_131121_public_facility.csv"
"砧南中学校（複合施設）","東京都世田谷区鎌田3-13-20","","35.621237","139.613158","01_131121_public_facility.csv"
"千歳中学校","東京都世田谷区千歳台6-15-1","","35.658435","139.60616","01_131121_public_facility.csv"
"船橋希望中学校（複合施設）","東京都世田谷区船橋4-20-1","","35.655799","139.618876","01_131121_public_facility.csv"
"上祖師谷中学校","東京都世田谷区上祖師谷7-10-1","","35.66019","139.59319","01_131121_public_facility.csv"
"烏山中学校（複合施設）","東京都世田谷区南烏山4-26-1","","35.672001","139.600926","01_131121_public_facility.csv"
"芦花中学校（複合施設）","東京都世田谷区粕谷2-22-2","","35.666579","139.610567","01_131121_public_facility.csv"
"桜丘幼稚園","東京都世田谷区桜丘5-2-19","","35.643225","139.624987","01_131121_public_facility.csv"
"多聞幼稚園","東京都世田谷区三宿2-25-9","","35.652944","139.673227","01_131121_public_facility.csv"
"松丘幼稚園","東京都世田谷区弦巻5-21-10","","35.637913","139.638685","01_131121_public_facility.csv"
"中町幼稚園","東京都世田谷区中町4-38-21","","35.616359","139.63927","01_131121_public_facility.csv"
"三島幼稚園","東京都世田谷区深沢5-11-5","","35.620149","139.651141","01_131121_public_facility.csv"
"砧幼稚園","東京都世田谷区喜多見6-9-11","","35.631384","139.604392","01_131121_public_facility.csv"
"給田幼稚園","東京都世田谷区給田4-7-11","","35.670202","139.592019","01_131121_public_facility.csv"
"八幡山幼稚園","東京都世田谷区八幡山1-27-25","","35.663203","139.61903","01_131121_public_facility.csv"
"河口湖林間学園","山梨県南都留郡富士河口湖町大石字湖中2585","","35.519226","138.741746","01_131121_public_facility.csv"
"ほっとスクール「城山」（複合施設）","東京都世田谷区若林5-38-1","","35.65049","139.658976","01_131121_public_facility.csv"
"ほっとスクール「尾山台」（複合施設）","東京都世田谷区尾山台3-19-3","","35.604984","139.65415","01_131121_public_facility.csv"
"ほっとスクール「希望丘」（複合施設）","東京都世田谷区船橋6-25-1","","35.659021","139.620796","01_131121_public_facility.csv"
"総合教育相談（複合施設）","東京都世田谷区若林5-38-1","","35.65049","139.658976","01_131121_public_facility.csv"
"教育相談室玉川分室（複合施設）","東京都世田谷区玉川2-1-15","","35.611427","139.631304","01_131121_public_facility.csv"
"教育相談室砧分室（複合施設）","東京都世田谷区成城6-3-10","","35.640809","139.600514","01_131121_public_facility.csv"
"教育相談室烏山分室（複合施設）","東京都世田谷区南烏山4-26-2","","35.671622","139.600986","01_131121_public_facility.csv"
"不登校特例校分教室（複合施設）","東京都世田谷区弦巻3-16-8","","35.63769","139.644325","01_131121_public_facility.csv"
"学校給食太子堂調理場","東京都世田谷区太子堂1-3-46","","35.645374","139.678405","01_131121_public_facility.csv"
"世田谷区口腔衛生センター（複合施設）","東京都世田谷区松原6-4-1歯科医師会館","","35.656922","139.652813","01_131121_public_facility.csv"
"世田谷区医師会初期救急診療所（複合施設）","東京都世田谷区松原6-37-10","","35.657543","139.649921","01_131121_public_facility.csv"
"世田谷区休日夜間薬局（複合施設）","東京都世田谷区松原6-37-10","","35.657543","139.649921","01_131121_public_facility.csv"
"保健センター（複合施設）","東京都世田谷区松原6-37-10","","35.657543","139.649921","01_131121_public_facility.csv"
"玉川医師会診療所（複合施設）","東京都世田谷区中町2-25-17","","35.613234","139.643972","01_131121_public_facility.csv"
"玉川歯科医師会会立歯科診療所","東京都世田谷区玉川3-21-2","","35.615771","139.62516","01_131121_public_facility.csv"
"玉川薬局","東京都世田谷区中町2-25-15","","35.613221","139.643769","01_131121_public_facility.csv"
"世田谷区医師会付属烏山診療所（複合施設）","東京都世田谷区南烏山6-22-14","","35.669836","139.597976","01_131121_public_facility.csv"
"エルセレッソ","東京都世田谷区桜1-26-9","","35.64507","139.643024","01_131121_public_facility.csv"
"下馬職員住宅（複合施設）","東京都世田谷区下馬2-20-14","","35.640638","139.675404","01_131121_public_facility.csv"
"若林職員住宅","東京都世田谷区若林5-17-9","","35.648561","139.657193","01_131121_public_facility.csv"
"グリーンハウス","東京都世田谷区赤堤5-3-13","","35.660407","139.637091","01_131121_public_facility.csv"
"コーラルハイツ","東京都世田谷区桜上水2-25-23","","35.661269","139.628231","01_131121_public_facility.csv"
"ステラ","東京都世田谷区北沢3-10-17","","35.664664","139.671603","01_131121_public_facility.csv"
"グリーンヒル世田谷","東京都世田谷区等々力6-25-16","","35.611718","139.66337","01_131121_public_facility.csv"
"ボヌール尾山台Ｂ","東京都世田谷区等々力5-26-4","","35.610275","139.65512","01_131121_public_facility.csv"
"エクセレント","東京都世田谷区祖師谷5-28-15","","35.653138","139.608076","01_131121_public_facility.csv"
"上祖師谷寮（複合施設）","東京都世田谷区上祖師谷2-7-6","","35.6571","139.599674","01_131121_public_facility.csv"
"シェモア上北沢","東京都世田谷区上北沢1-15-29","","35.662958","139.627509","01_131121_public_facility.csv"
"シャルム上北沢（複合施設）","東京都世田谷区上北沢4-32-9","","35.669968","139.617974","01_131121_public_facility.csv"
"トーシンハイツ","東京都世田谷区上祖師谷2-17-11","","35.660019","139.599521","01_131121_public_facility.csv"
"パティオ芦花Ａ","東京都世田谷区粕谷2-6-13","","35.663101","139.607609","01_131121_public_facility.csv"
"パティオ芦花Ｂ","東京都世田谷区粕谷2-6-13","","35.663101","139.607609","01_131121_public_facility.csv"
"ファミール清華Ⅱ","東京都世田谷区上祖師谷2-15-21","","35.660954","139.600068","01_131121_public_facility.csv"
"メゾン・ド・ジュネス","東京都世田谷区粕谷4-24-9","","35.664436","139.602038","01_131121_public_facility.csv"
"レジデンス南原","東京都世田谷区南烏山1-17-12","","35.668782","139.612905","01_131121_public_facility.csv"
"三軒茶屋駅前公衆トイレ","東京都世田谷区太子堂4-22-2","","35.643897","139.670165","01_131121_public_facility.csv"
"三軒茶屋公衆トイレ","東京都世田谷区太子堂2-16-3","","35.644389","139.671175","01_131121_public_facility.csv"
"世田谷公衆トイレ（複合施設）","東京都世田谷区世田谷1-48-4","","35.64085","139.643101","01_131121_public_facility.csv"
"梅丘公衆トイレ","東京都世田谷区梅丘1-43-11","","35.655691","139.652233","01_131121_public_facility.csv"
"下北沢駅南口公衆トイレ","東京都世田谷区北沢2-20先","","35.66099","139.66716","01_131121_public_facility.csv"
"下高井戸公衆トイレ","東京都世田谷区松原3-29-17","","35.666151","139.64136","01_131121_public_facility.csv"
"代田公衆トイレ","東京都世田谷区代田2-18-1","","35.657134","139.660132","01_131121_public_facility.csv"
"用賀公衆トイレ（複合施設）","東京都世田谷区用賀4-10-6","","35.626906","139.63251","01_131121_public_facility.csv"
"南烏山公衆トイレ","東京都世田谷区南烏山2-23-18","","35.668186","139.605696","01_131121_public_facility.csv"
"船橋公文書庫","東京都世田谷区船橋7-20-8","","35.658366","139.615278","01_131121_public_facility.csv"
"青葉橋材料試験室","東京都世田谷区世田谷3-9-11","","35.645238","139.648575","01_131121_public_facility.csv"
"スカイキャロット展望ロビー（複合施設）","東京都世田谷区太子堂4-1-1","","35.643681","139.669084","01_131121_public_facility.csv"
"世田谷ものづくり学校","東京都世田谷区池尻2-4-5","","35.646258","139.680683","01_131121_public_facility.csv"
"せたがや若者サポートステーション（複合施設）","東京都世田谷区太子堂4-3-1STKハイツ","","35.64337","139.668554","01_131121_public_facility.csv"
"世田谷４－２２事務所","東京都世田谷区世田谷4-22-10","","35.646627","139.651322","01_131121_public_facility.csv"
"三宿まちづくりハウス","東京都世田谷区三宿1-22-2","","35.647891","139.674455","01_131121_public_facility.csv"
"メルクマールせたがや（複合施設）","東京都世田谷区太子堂4-3-1STKハイツ","","35.64337","139.668554","01_131121_public_facility.csv"
"保健医療福祉総合プラザ（複合施設）","東京都世田谷区松原6-37-10","","35.657543","139.649921","01_131121_public_facility.csv"
"中町２丁目施設（複合施設）","東京都世田谷区中町2-21-12","","35.613821","139.644713","01_131121_public_facility.csv"
"学習・生活支援の拠点（上北沢）","東京都世田谷区上北沢5-32-22","","35.673046","139.616715","01_131121_public_facility.csv"
"世田谷区経堂駅指定喫煙場所","東京都世田谷区経堂2-1先","","35.651252","139.636217","01_131121_public_facility.csv"
"世田谷区喜多見駅北口指定喫煙場所","東京都世田谷区喜多見9-2先","","35.636862","139.587288","01_131121_public_facility.csv"
"世田谷区八幡山駅・都立松沢病院西側指定喫煙場所","東京都世田谷区上北沢2-1先","","35.666252","139.619862","01_131121_public_facility.csv"
"（旧）池尻地区会館","東京都世田谷区池尻2-34-3","","35.64833","139.681807","01_131121_public_facility.csv"
"（旧）下馬地区会館","東京都世田谷区下馬4-27-14","","35.637895","139.679307","01_131121_public_facility.csv"
"（旧）若林まちづくりセンター","東京都世田谷区若林3-34-1","","35.644989","139.660456","01_131121_public_facility.csv"
"（旧）子ども初期救急診療所・夜間薬局","東京都世田谷区松原6-41-8","","35.656757","139.649532","01_131121_public_facility.csv"
"（旧）奥沢まちづくりセンター","東京都世田谷区奥沢3-5-7","","35.599967","139.673127","01_131121_public_facility.csv"
"（旧）船橋まちづくりセンター","東京都世田谷区船橋4-1-12","","35.654228","139.621584","01_131121_public_facility.csv"
"羽根木プレーパークリーダーハウス","東京都世田谷区代田4-38-52","","35.658004","139.653219","01_131121_public_facility.csv"
"等々力中央保育園","東京都世田谷区等々力4-19-18","","35.610583","139.652443","01_131121_public_facility.csv"
"烏山総合支所マイナンバーカード特設窓口","東京都世田谷区南烏山6-28-6","","35.66965","139.59864","01_131121_public_facility.csv"
"横溝ビルディング","東京都世田谷区上馬2-14-1","","35.63631","139.665181","01_131121_public_facility.csv"
"北沢総合支所（地下１階店舗③区画）","東京都世田谷区北沢2-8-18","","35.662208","139.66972","01_131121_public_facility.csv"
"生涯学習部事務室","東京都世田谷区弦巻3-16-8","","35.641696","139.653326","01_131121_public_facility.csv"
"世田谷福祉作業所分場","東京都世田谷区下馬2-31-15","","35.643112","139.679199","01_131121_public_facility.csv"
"ほわわ花見堂（障害児通所施設）","東京都世田谷区代田1-13-14","","35.652031","139.662735","01_131121_public_facility.csv"
"深沢わこう学童クラブ","東京都世田谷区深沢5-16-17","","35.620506","139.650742","01_131121_public_facility.csv"
"学習・生活支援の拠点（上北沢）","","","","","01_131121_public_facility.csv"
"せたエール","東京都世田谷区北沢2-10-15","","35.66177","139.66861","01_131121_public_facility.csv"
"ちよだパークサイドプラザ","東京都千代田区神田和泉町1","","","","131016_01public_facility (1).csv"
"ちよだパークサイドプラザ（倉庫）","東京都千代田区神田和泉町1","","","","131016_01public_facility (1).csv"
"番町小学校（校舎）","東京都千代田区六番町8","","","","131016_01public_facility (1).csv"
"番町小学校（講堂）","東京都千代田区六番町8","","","","131016_01public_facility (1).csv"
"番町小学校（備蓄所）","東京都千代田区六番町8","","","","131016_01public_facility (1).csv"
"麹町小学校","東京都千代田区麹町二丁目8","","","","131016_01public_facility (1).csv"
"富士見小学校","東京都千代田区富士見一丁目10-3","","","","131016_01public_facility (1).csv"
"九段小学校","東京都千代田区三番町16-1","","","","131016_01public_facility (1).csv"
"千代田小学校","東京都千代田区神田司町二丁目16","","","","131016_01public_facility (1).csv"
"昌平小学校","東京都千代田区外神田三丁目4-7","","","","131016_01public_facility (1).csv"
"和泉小学校","東京都千代田区神田和泉町1","","","","131016_01public_facility (1).csv"
"お茶の水小学校","東京都千代田区神田猿楽町一丁目1-1","","","","131016_01public_facility (1).csv"
"お茶の水小学校（屋外器具庫）","東京都千代田区神田猿楽町一丁目1-1","","","","131016_01public_facility (1).csv"
"旧九段中学校","東京都千代田区富士見一丁目1-6","","","","131016_01public_facility (1).csv"
"旧九段中学校（体育館）","東京都千代田区富士見一丁目1-6","","","","131016_01public_facility (1).csv"
"旧九段中学校（変電室）","東京都千代田区富士見一丁目1-6","","","","131016_01public_facility (1).csv"
"旧九段中学校（ポンプ室）","東京都千代田区富士見一丁目1-6","","","","131016_01public_facility (1).csv"
"麹町中学校","東京都千代田区平河町二丁目5-1","","","","131016_01public_facility (1).csv"
"神田一橋中学校","東京都千代田区一ツ橋二丁目6-14","","","","131016_01public_facility (1).csv"
"神田一橋中学校（体育館）","東京都千代田区一ツ橋二丁目6-14","","","","131016_01public_facility (1).csv"
"神田一橋中学校（倉庫）","東京都千代田区一ツ橋二丁目6-14","","","","131016_01public_facility (1).csv"
"九段中等教育学校（富士見校舎）","東京都千代田区富士見一丁目10-14","","","","131016_01public_facility (1).csv"
"九段中等教育学校（九段校舎）","東京都千代田区九段北二丁目2-1","","","","131016_01public_facility (1).csv"
"九段中等教育学校体育館（九段校舎）","東京都千代田区九段北二丁目2-1","","","","131016_01public_facility (1).csv"
"九段中等教育学校物置（九段校舎）","東京都千代田区九段北二丁目2-1","","","","131016_01public_facility (1).csv"
"九段中等教育学校物置（九段校舎）","東京都千代田区九段北二丁目2-1","","","","131016_01public_facility (1).csv"
"番町幼稚園","東京都千代田区六番町8","","","","131016_01public_facility (1).csv"
"番町幼稚園（会議室）","東京都千代田区六番町8","","","","131016_01public_facility (1).csv"
"千代田幼稚園","東京都千代田区神田司町二丁目16","","","","131016_01public_facility (1).csv"
"昌平幼稚園","東京都千代田区外神田三丁目4-7","","","","131016_01public_facility (1).csv"
"麹町幼稚園","東京都千代田区麹町二丁目8","","","","131016_01public_facility (1).csv"
"九段幼稚園","東京都千代田区三番町16-1","","","","131016_01public_facility (1).csv"
"お茶の水幼稚園","東京都千代田区神田猿楽町一丁目1-1","","","","131016_01public_facility (1).csv"
"千代田図書館","東京都千代田区九段南一丁目2-1","","","","131016_01public_facility (1).csv"
"内神田収蔵庫","東京都千代田区内神田二丁目1-12","","","","131016_01public_facility (1).csv"
"四番町図書館","東京都千代田区四番町1","","","","131016_01public_facility (1).csv"
"軽井沢少年自然の家","長野県北佐久郡軽井沢町大字長倉字横吹1240","","","","131016_01public_facility (1).csv"
"メレーズ軽井沢（管理棟）","長野県北佐久郡軽井沢町大字長倉字横吹2141","","","","131016_01public_facility (1).csv"
"メレーズ軽井沢(コテージそよかぜ）","長野県北佐久郡軽井沢町大字長倉字横吹2141","","","","131016_01public_facility (1).csv"
"メレーズ軽井沢(コテージせせらぎ）","長野県北佐久郡軽井沢町大字長倉字横吹2141","","","","131016_01public_facility (1).csv"
"メレーズ軽井沢(コテージこもれび）","長野県北佐久郡軽井沢町大字長倉字横吹2141","","","","131016_01public_facility (1).csv"
"メレーズ軽井沢(コテージあおぞら）","長野県北佐久郡軽井沢町大字長倉字横吹2141","","","","131016_01public_facility (1).csv"
"日比谷図書文化館","東京都千代田区日比谷公園1-4","","","","131016_01public_facility (1).csv"
"教育研究所","東京都千代田区神田司町二丁目16","","","","131016_01public_facility (1).csv"
"いずみこども園","東京都千代田区神田和泉町1","","","","131016_01public_facility (1).csv"
"麹町保育園","東京都千代田区一番町4","","","","131016_01public_facility (1).csv"
"四番町保育園・児童館","東京都千代田区四番町11-1･2･9","","","","131016_01public_facility (1).csv"
"西神田保育園(西神田コスモス館）","東京都千代田区西神田二丁目6-2","","","","131016_01public_facility (1).csv"
"ふじみこども園","東京都千代田区富士見一丁目10-3","","","","131016_01public_facility (1).csv"
"神田保育園","東京都千代田区神田淡路町二丁目109","","","","131016_01public_facility (1).csv"
"児童・家庭支援センター（いずみこどもプラザ）","東京都千代田区神田和泉町1","","","","131016_01public_facility (1).csv"
"一番町児童館","東京都千代田区一番町10","","","","131016_01public_facility (1).csv"
"神田児童館","東京都千代田区外神田三丁目4-7","","","","131016_01public_facility (1).csv"
"児童・家庭支援センター（西神田分館）","東京都千代田区西神田二丁目6-2","","","","131016_01public_facility (1).csv"
"富士見わんぱくひろば","東京都千代田区富士見一丁目10-3","","","","131016_01public_facility (1).csv"
"児童・家庭支援センター","東京都千代田区神田司町二丁目16","","","","131016_01public_facility (1).csv"
"旧永田町小学校","東京都千代田区永田町二丁目19-1","","","","131016_01public_facility (1).csv"
"旧麹町保育園仮園舎（三番町分室跡地）","東京都千代田区三番町7","","","","131016_01public_facility (1).csv"
"旧神田保育園仮園舎","東京都千代田区神田淡路町二丁目12-2","","","","131016_01public_facility (1).csv"
"旧今川中学校（校舎・体育館）","東京都千代田区鍛冶町二丁目4-2","","","","131016_01public_facility (1).csv"
"旧今川中学校（便所）","東京都千代田区鍛冶町二丁目4-2","","","","131016_01public_facility (1).csv"
"地域交流室","東京都千代田区富士見一丁目10-3","","","","131016_01public_facility (1).csv"
"万世橋出張所・区民館４階事務室","東京都千代田区外神田一丁目1-13","","","","131016_01public_facility (1).csv"
"ジョブ・サポート・プラザ　ちよだ","東京都千代田区九段南一丁目2-1","","","","131016_01public_facility (1).csv"
"いきいきプラザ一番町","東京都千代田区一番町12-2","","","","131016_01public_facility (1).csv"
"岩本町ほほえみプラザ","東京都千代田区岩本町二丁目15-3","","","","131016_01public_facility (1).csv"
"千代田区立障害者福祉センター","東京都千代田区神田駿河台二丁目5","","","","131016_01public_facility (1).csv"
"高齢者総合サポートセンター","東京都千代田区九段南一丁目6-10","","","","131016_01public_facility (1).csv"
"千代田保健所","東京都千代田区九段北一丁目2-14","","","","131016_01public_facility (1).csv"
"万世橋出張所・区民館６階事務室","東京都千代田区外神田一丁目1-13","","","","131016_01public_facility (1).csv"
"淡路にこにこフォーユープラザ","東京都千代田区神田淡路町二丁目109","","","","131016_01public_facility (1).csv"
"特別養護老人ホームかんだ連雀旧駐車場・倉庫","東京都千代田区神田須田町一丁目17-36","","","","131016_01public_facility (1).csv"
"特別養護老人ホームかんだ連雀旧駐車場・倉庫","東京都千代田区神田須田町一丁目17-1","","","","131016_01public_facility (1).csv"
"番町さくら館（職務住宅）","東京都千代田区一番町12","","","","131016_01public_facility (1).csv"
"千代田区立淡路町施設","東京都千代田区神田淡路町二丁目9","","","","131016_01public_facility (1).csv"
"旧千代田保健所","東京都千代田区神田錦町三丁目10","","","","131016_01public_facility (1).csv"
"千代田区男女共同参画センター","東京都千代田区九段南一丁目2-1","","","","131016_01public_facility (1).csv"
"麹町出張所・区民館","東京都千代田区麹町二丁目8","","","","131016_01public_facility (1).csv"
"富士見出張所・区民館","東京都千代田区富士見一丁目6-7","","","","131016_01public_facility (1).csv"
"神保町出張所・区民館","東京都千代田区神田神保町二丁目40","","","","131016_01public_facility (1).csv"
"神田公園出張所・区民館","東京都千代田区神田司町二丁目2","","","","131016_01public_facility (1).csv"
"万世橋出張所・区民館","東京都千代田区外神田一丁目1-13","","","","131016_01public_facility (1).csv"
"和泉橋出張所・区民館","東京都千代田区神田佐久間町一丁目11-7","","","","131016_01public_facility (1).csv"
"千代田万世会館","東京都千代田区外神田一丁目1-7","","","","131016_01public_facility (1).csv"
"四番町集会室","東京都千代田区四番町11","","","","131016_01public_facility (1).csv"
"一番町集会室","東京都千代田区一番町10","","","","131016_01public_facility (1).csv"
"九段上集会室","東京都千代田区九段南二丁目9-6","","","","131016_01public_facility (1).csv"
"内神田集会室","東京都千代田区内神田一丁目1-3","","","","131016_01public_facility (1).csv"
"千代田区ふれあい会館","東京都千代田区神田須田町二丁目17-6","","","","131016_01public_facility (1).csv"
"千代田区立内幸町ホール","東京都千代田区内幸町一丁目5-1","","","","131016_01public_facility (1).csv"
"スポーツセンター","東京都千代田区内神田二丁目1-8","","","","131016_01public_facility (1).csv"
"九段生涯学習館","東京都千代田区九段南一丁目5-10","","","","131016_01public_facility (1).csv"
"花小金井運動施設（園舎）","東京都小平市花小金井南町三丁目2-7","","","","131016_01public_facility (1).csv"
"花小金井運動施設（管理人住宅）","東京都小平市花小金井南町三丁目2-7","","","","131016_01public_facility (1).csv"
"花小金井運動施設（農具庫）","東京都小平市花小金井南町三丁目2-7","","","","131016_01public_facility (1).csv"
"花小金井運動施設（便所）","東京都小平市花小金井南町三丁目2-7","","","","131016_01public_facility (1).csv"
"千鳥ヶ淵ボート場","東京都千代田区三番町2先","","","","131016_01public_facility (1).csv"
"旧練成中学校（校舎）","東京都千代田区外神田六丁目11-14","","","","131016_01public_facility (1).csv"
"旧練成中学校（倉庫）","東京都千代田区外神田六丁目11-14","","","","131016_01public_facility (1).csv"
"万世橋出張所・区民館５階事務室","東京都千代田区外神田一丁目1-13","","","","131016_01public_facility (1).csv"
"旧万世橋出張所","東京都千代田区外神田一丁目1-11","","","","131016_01public_facility (1).csv"
"ちよだプラットフォームスクウェア","東京都千代田区神田錦町三丁目21","","","","131016_01public_facility (1).csv"
"西神田併設庁舎","東京都千代田区西神田一丁目3-4","","","","131016_01public_facility (1).csv"
"旧千代田区公会堂１階事務室","東京都千代田区九段南一丁目6-17","","","","131016_01public_facility (1).csv"
"水防倉庫","東京都千代田区飯田橋三丁目13-3","","","","131016_01public_facility (1).csv"
"外濠公園（倉庫）","東京都千代田区五番町先","","","","131016_01public_facility (1).csv"
"外濠公園（更衣室）","東京都千代田区五番町先","","","","131016_01public_facility (1).csv"
"偕香苑","東京都千代田区紀尾井町2-1","","","","131016_01public_facility (1).csv"
"旧区立外神田住宅","東京都千代田区外神田三丁目4-1","","","","131016_01public_facility (1).csv"
"区営九段住宅","東京都千代田区九段南一丁目5-12","","","","131016_01public_facility (1).csv"
"区営一番町住宅","東京都千代田区一番町10-22","","","","131016_01public_facility (1).csv"
"区営内神田住宅","東京都千代田区内神田一丁目1-3","","","","131016_01public_facility (1).csv"
"神保町仮住宅","東京都千代田区西神田二丁目3-15","","","","131016_01public_facility (1).csv"
"西神田区民住宅区営西神田住宅(西神田コスモス館）","東京都千代田区西神田二丁目6-1","","","","131016_01public_facility (1).csv"
"区営淡路町住宅淡路町高齢者住宅","東京都千代田区神田淡路町二丁目9","","","","131016_01public_facility (1).csv"
"富士見あんず館","東京都千代田区富士見一丁目11-8","","","","131016_01public_facility (1).csv"
"区営四番町アパート","東京都千代田区四番町1","","","","131016_01public_facility (1).csv"
"区営四番町アパート自転車置場","東京都千代田区四番町1","","","","131016_01public_facility (1).csv"
"九段さくら館","東京都千代田区九段南二丁目9-8","","","","131016_01public_facility (1).csv"
"番町さくら館（区民住宅）","東京都千代田区一番町12","","","","131016_01public_facility (1).csv"
"区営神保町住宅","東京都千代田区神田神保町二丁目10-3","","","","131016_01public_facility (1).csv"
"区営水道橋住宅","東京都千代田区神田三崎町二丁目22-12","","","","131016_01public_facility (1).csv"
"区営神保町第二住宅神保町高齢者住宅","東京都千代田区神田神保町二丁目40","","","","131016_01public_facility (1).csv"
"区営四番町住宅","東京都千代田区四番町11","","","","131016_01public_facility (1).csv"
"いきいきプラザ一番町高齢者住宅","東京都千代田区一番町12-2","","","","131016_01public_facility (1).csv"
"区営東松下町住宅","東京都千代田区神田東松下町22-1","","","","131016_01public_facility (1).csv"
"区営東松下町住宅付属棟","東京都千代田区神田東松下町22-1","","","","131016_01public_facility (1).csv"
"麹町仮住宅","東京都千代田区平河町二丁目7-4","","","","131016_01public_facility (1).csv"
"資材倉庫(三崎町）","東京都千代田区神田三崎町三丁目9","","","","131016_01public_facility (1).csv"
"真田濠資材置場","東京都千代田区紀尾井町5-1","","","","131016_01public_facility (1).csv"
"土木事務所","東京都千代田区一ツ橋二丁目1-1","","","","131016_01public_facility (1).csv"
"土木事務所(倉庫）","東京都千代田区一ツ橋二丁目1-1","","","","131016_01public_facility (1).csv"
"詰所（富士見児童公園内）","東京都千代田区富士見一丁目23-8","","","","131016_01public_facility (1).csv"
"詰所（清水谷公園内）","東京都千代田区紀尾井町2-1","","","","131016_01public_facility (1).csv"
"土木事務所（神田橋分室）","東京都千代田区内神田一丁目1-4","","","","131016_01public_facility (1).csv"
"猿楽町自転車保管場所管理事務所","東京都千代田区神田猿楽町一丁目6-9","","","","131016_01public_facility (1).csv"
"公園資材置場（神田児童公園内）","東京都千代田区神田司町二丁目2","","","","131016_01public_facility (1).csv"
"猿楽町資材置場","東京都千代田区神田猿楽町二丁目3-5","","","","131016_01public_facility (1).csv"
"資材保管場所管理事務所","東京都千代田区飯田橋三丁目22-16先","","","","131016_01public_facility (1).csv"
"自転車駐輪場（ちよだパークサイドプラザ脇）","東京都千代田区神田和泉町1","","","","131016_01public_facility (1).csv"
"公園便所（神田児童公園内）","東京都千代田区神田司町二丁目2","","","","131016_01public_facility (1).csv"
"公園便所（東郷元帥記念公園下段部）","東京都千代田区三番町18","","","","131016_01public_facility (1).csv"
"公園資材置場（東郷元帥記念公園内）","東京都千代田区三番町18","","","","131016_01public_facility (1).csv"
"公園便所（宮本公園内）","東京都千代田区外神田二丁目16-9","","","","131016_01public_facility (1).csv"
"公園便所（練成公園内）","東京都千代田区外神田六丁目11-19","","","","131016_01public_facility (1).csv"
"公園便所（小川広場内）","東京都千代田区神田小川町三丁目6-11","","","","131016_01public_facility (1).csv"
"公園便所（龍閑児童公園内）","東京都千代田区岩本町一丁目14-1","","","","131016_01public_facility (1).csv"
"公園便所（淡路公園内）","東京都千代田区神田淡路町二丁目27","","","","131016_01public_facility (1).csv"
"公園便所（富士見児童公園内）","東京都千代田区富士見一丁目1-16","","","","131016_01public_facility (1).csv"
"公園便所（神保町愛全公園内）","東京都千代田区神田神保町二丁目20-3","","","","131016_01public_facility (1).csv"
"公園便所（内神田尾嶋公園内）","東京都千代田区内神田一丁目5-14","","","","131016_01public_facility (1).csv"
"公園便所（西神田公園内）","東京都千代田区西神田二丁目3-11","","","","131016_01public_facility (1).csv"
"公園便所（外濠公園法大前）","東京都千代田区富士見二丁目9","","","","131016_01public_facility (1).csv"
"公園便所（外濠公園市ヶ谷）","東京都千代田区九段北四丁目4","","","","131016_01public_facility (1).csv"
"公園便所（清水谷公園内）","東京都千代田区紀尾井町2-1","","","","131016_01public_facility (1).csv"
"公園便所（錦華公園内）","東京都千代田区神田猿楽町一丁目1-2","","","","131016_01public_facility (1).csv"
"公園便所（和泉公園内）","東京都千代田区神田和泉町1-300","","","","131016_01public_facility (1).csv"
"公衆便所（新三崎橋際）","東京都千代田区神田三崎町三丁目9-9","","","","131016_01public_facility (1).csv"
"公衆便所（堀留橋際）","東京都千代田区九段北一丁目6-9","","","","131016_01public_facility (1).csv"
"公衆便所（秋葉原駅前東側広場内）","東京都千代田区神田花岡町1先","","","","131016_01public_facility (1).csv"
"公衆便所（竹橋際）","東京都千代田区一ツ橋一丁目1-1","","","","131016_01public_facility (1).csv"
"公衆便所（一ツ橋際）","東京都千代田区一ツ橋二丁目1-1","","","","131016_01public_facility (1).csv"
"公衆便所（九段坂公園内）","東京都千代田区九段南二丁目2-18","","","","131016_01public_facility (1).csv"
"公衆便所（牛込見附）","東京都千代田区富士見二丁目9-7","","","","131016_01public_facility (1).csv"
"公衆便所（昌平橋際）","東京都千代田区神田須田町一丁目25","","","","131016_01public_facility (1).csv"
"公衆便所（万世橋際）","東京都千代田区神田須田町二丁目23","","","","131016_01public_facility (1).csv"
"公衆便所（美倉橋際）","東京都千代田区東神田二丁目3-1","","","","131016_01public_facility (1).csv"
"公衆便所（地蔵橋際）","東京都千代田区神田美倉町10","","","","131016_01public_facility (1).csv"
"公衆便所（和泉橋際）","東京都千代田区神田佐久間町一丁目11","","","","131016_01public_facility (1).csv"
"公衆便所（神田橋際）","東京都千代田区神田錦町一丁目29","","","","131016_01public_facility (1).csv"
"公衆便所（四谷見附）","東京都千代田区麹町六丁目6","","","","131016_01public_facility (1).csv"
"公衆便所（なか通り）","東京都千代田区鍛冶町二丁目13-10","","","","131016_01public_facility (1).csv"
"千代田清掃事務所庁舎","東京都千代田区外神田一丁目1-6","","","","131016_01public_facility (1).csv"
"三崎町中継所","東京都千代田区神田三崎町三丁目9-3","","","","131016_01public_facility (1).csv"
"千代田清掃車車庫（車庫棟）","東京都千代田区飯田橋三丁目9-12","","","","131016_01public_facility (1).csv"
"千代田清掃車車庫（管理棟）","東京都千代田区飯田橋三丁目13-2","","","","131016_01public_facility (1).csv"
"公衆便所（飯田橋際）","東京都千代田区飯田橋三丁目12-3","","","","131016_01public_facility (1).csv"
"公衆便所（佐久間公園内）","東京都千代田区神田佐久間町三丁目21","","","","131016_01public_facility (1).csv"
"公衆便所（千鳥ヶ淵緑道内）","東京都千代田区三番町2","","","","131016_01public_facility (1).csv"
"公衆便所（千鳥ヶ淵公園内）","東京都千代田区麹町一丁目2","","","","131016_01public_facility (1).csv"
"公衆便所（芳林公園際）","東京都千代田区外神田三丁目5-18","","","","131016_01public_facility (1).csv"
"有価物一時集積所","東京都千代田区九段南二丁目9-8","","","","131016_01public_facility (1).csv"
"ストックヤード(神田公園出張所）","東京都千代田区神田司町二丁目2","","","","131016_01public_facility (1).csv"
"ストックヤード(西神田コスモス館）","東京都千代田区西神田二丁目6-1","","","","131016_01public_facility (1).csv"
"ストックヤード(富士見出張所）","東京都千代田区富士見一丁目6-7","","","","131016_01public_facility (1).csv"
"ストックヤード(和泉橋出張所）","東京都千代田区神田佐久間町一丁目11-7","","","","131016_01public_facility (1).csv"
"ストックヤード（麹町２）","東京都千代田区麹町二丁目8","","","","131016_01public_facility (1).csv"
"旧下島ビル","東京都千代田区外神田三丁目13-2","","","","131016_01public_facility (1).csv"
"こもれび千桜","東京都千代田区神田東松下町22-1","","","","131016_01public_facility (1).csv"
"公共施設（日比谷まちづくり）","東京都千代田区有楽町一丁目1-4","","","","131016_01public_facility (1).csv"
"本庁舎","東京都千代田区九段南一丁目2-1","","","","131016_01public_facility (1).csv"
"千代田会館10階研修室","東京都千代田区九段南一丁目6-17","","","","131016_01public_facility (1).csv"
"千代田一番町郵便局（１階）","東京都千代田区一番町10-22","","","","131016_01public_facility (1).csv"
"防災器材置場（東郷記念公園内）","東京都千代田区三番町18","","","","131016_01public_facility (1).csv"
"防災器材置場（内神田２都道敷）","東京都千代田区内神田二丁目1-15","","","","131016_01public_facility (1).csv"
"防災器材置場（神田錦町１）","東京都千代田区神田錦町一丁目29","","","","131016_01public_facility (1).csv"
"防災器材置場（西神田コスモス館）","東京都千代田区西神田二丁目6-1","","","","131016_01public_facility (1).csv"
"防災器材置場（麹町2）","東京都千代田区麹町二丁目8","","","","131016_01public_facility (1).csv"
"防災備蓄倉庫（内神田１）","東京都千代田区内神田一丁目1-3","","","","131016_01public_facility (1).csv"
"防災備蓄倉庫（三番町16）","東京都千代田区三番町16-1","","","","131016_01public_facility (1).csv"
"防災備蓄倉庫（四番町１）","東京都千代田区四番町1","","","","131016_01public_facility (1).csv"
"防災備蓄倉庫（鍛冶町１東北新幹線高架下）","東京都千代田区鍛冶町一丁目1-5","","","","131016_01public_facility (1).csv"
"防災備蓄倉庫（九段さくら館）","東京都千代田区九段南二丁目9-8","","","","131016_01public_facility (1).csv"
"防災備蓄倉庫（富士見あんず館）","東京都千代田区富士見一丁目11-8","","","","131016_01public_facility (1).csv"
"防災課倉庫（西神田コスモス館6F）","東京都千代田区西神田二丁目6-1","","","","131016_01public_facility (1).csv"
"防災備蓄倉庫（西神田コスモス館B1F）","東京都千代田区西神田二丁目6-1","","","","131016_01public_facility (1).csv"
"防災備蓄倉庫（和泉橋出張所）","東京都千代田区神田佐久間町一丁目11-7","","","","131016_01public_facility (1).csv"
"防災備蓄倉庫（岩本町２）","東京都千代田区岩本町二丁目15-3","","","","131016_01public_facility (1).csv"
"防災備蓄倉庫（日比谷公園）","東京都千代田区日比谷公園1","","","","131016_01public_facility (1).csv"
"防災備蓄倉庫（麹町2）","東京都千代田区麹町二丁目8","","","","131016_01public_facility (1).csv"
"防災課倉庫（神田淡路町２）","東京都千代田区神田淡路町二丁目9","","","","131016_01public_facility (1).csv"
"無線設備機械室（西神田コスモス館6F）","東京都千代田区西神田二丁目6-1","","","","131016_01public_facility (1).csv"
"防災倉庫（隼町広場）","東京都千代田区隼町13-15","","","","131016_01public_facility (1).csv"
"防災倉庫（富士見みらい館）","東京都千代田区富士見一丁目10-3","","","","131016_01public_facility (1).csv"
"防災備蓄倉庫（富士見みらい館）","東京都千代田区富士見一丁目10-3","","","","131016_01public_facility (1).csv"
"防災倉庫（岩本町二丁目児童遊園）","東京都千代田区岩本町二丁目18-6","","","","131016_01public_facility (1).csv"
"防災倉庫（俎橋児童遊園）","東京都千代田区九段北一丁目1-1","","","","131016_01public_facility (1).csv"
"防災備蓄倉庫・麹町消防団第一分団本部","東京都千代田区平河町二丁目5-1","","","","131016_01public_facility (1).csv"
"防災倉庫（いずみ児童遊園）","東京都千代田区神田和泉町1","","","","131016_01public_facility (1).csv"
"災害対策用倉庫（都立一橋高等学校内）","東京都千代田区東神田一丁目12-13","","","","131016_01public_facility (1).csv"
"災害対策用職務住宅","東京都千代田区飯田橋四丁目10-1-310","","","","131016_01public_facility (1).csv"
"内神田職員住宅","東京都千代田区内神田一丁目1-1","","","","131016_01public_facility (1).csv"
"四番町職員住宅","東京都千代田区四番町1","","","","131016_01public_facility (1).csv"
"神保町職員住宅","東京都千代田区神田神保町二丁目40","","","","131016_01public_facility (1).csv"
"旧千代田区公会堂","東京都千代田区九段南一丁目6-17","","","","131016_01public_facility (1).csv"
"旧永田町小学校倉庫","東京都千代田区永田町二丁目19-1","","","","131016_01public_facility (1).csv"
"ロイアル一番町","東京都千代田区一番町6","","","","131016_01public_facility (1).csv"
"旧箱根千代田荘","神奈川県足柄下郡箱根町強羅字向山1320-275","","","","131016_01public_facility (1).csv"
"旧区立外神田住宅前区分所有部分","東京都千代田区外神田三丁目4-1","","","","131016_01public_facility (1).csv"
"旧無線設備機械室（西神田コスモス館25F）","東京都千代田区西神田二丁目6-1","","","","131016_01public_facility (1).csv"
"墨田区役所","東京都墨田区吾妻橋一丁目23-20","https://www.city.sumida.lg.jp/sisetu_info/kuyakusyo/sumidakuyakusyo.html","35.710722","139.801497","131075_public_facility.csv"
"緑出張所","東京都墨田区緑三丁目7-3","https://www.city.sumida.lg.jp/sisetu_info/syuttyouzyo/midori_syuttyouzyo.html","35.693716","139.803289","131075_public_facility.csv"
"横川出張所","東京都墨田区横川五丁目10-1111室","https://www.city.sumida.lg.jp/sisetu_info/syuttyouzyo/yokokawa_syuttyouzyo.html","35.705911","139.816341","131075_public_facility.csv"
"文花出張所","東京都墨田区文花一丁目32-1102室","https://www.city.sumida.lg.jp/sisetu_info/syuttyouzyo/bunka_syuttyouzyo.html","35.708094","139.824656","131075_public_facility.csv"
"墨田二丁目出張所","東京都墨田区墨田二丁目36-11","https://www.city.sumida.lg.jp/sisetu_info/syuttyouzyo/sumida2_syuttyuouzyo.html","35.731063","139.818292","131075_public_facility.csv"
"東向島出張所","東京都墨田区東向島二丁目38-7","https://www.city.sumida.lg.jp/sisetu_info/syuttyouzyo/hm_syuttyouzyo.html","35.721213","139.818441","131075_public_facility.csv"
"ひきふね図書館","東京都墨田区京島一丁目36-5","https://www.city.sumida.lg.jp/sisetu_info/tamokuteki/library/annai/hikihune.html","35.717058","139.819491","131075_public_facility.csv"
"緑図書館","東京都墨田区緑二丁目24-5","https://www.city.sumida.lg.jp/sisetu_info/tamokuteki/library/annai/midori.html","35.69574","139.800613","131075_public_facility.csv"
"立花図書館","東京都墨田区立花六丁目8-1101室","https://www.city.sumida.lg.jp/sisetu_info/tamokuteki/library/annai/tatibana.html","35.710694","139.834842","131075_public_facility.csv"
"八広図書館","東京都墨田区八広五丁目10-1104室","https://www.city.sumida.lg.jp/sisetu_info/tamokuteki/library/annai/yahiro.html","35.72481","139.825793","131075_public_facility.csv"
"東駒形コミュニティ会館図書室","東京都墨田区東駒形四丁目14-1","https://www.city.sumida.lg.jp/sisetu_info/tamokuteki/library/annai/higasikomagata.html","35.705517","139.807746","131075_public_facility.csv"
"梅若橋コミュニティ会館図書室","東京都墨田区堤通二丁目9-1","https://www.city.sumida.lg.jp/sisetu_info/tamokuteki/library/annai/umewaka.html","35.735335","139.816746","131075_public_facility.csv"
"横川コミュニティ会館図書室","東京都墨田区横川五丁目9-1","https://www.city.sumida.lg.jp/sisetu_info/tamokuteki/library/annai/yokokawa.html","35.705116","139.81758","131075_public_facility.csv"
"曳舟文化センター","東京都墨田区京島一丁目38-11","https://www.city.sumida.lg.jp/sisetu_info/tamokuteki/hikibunec.html","35.718293","139.818762","131075_public_facility.csv"
"すみだリバーサイドホール","東京都墨田区吾妻橋一丁目23-20","https://www.city.sumida.lg.jp/sisetu_info/tamokuteki/sumidariversidehall/index.html","35.710228","139.801599","131075_public_facility.csv"
"東駒形コミュニティ会館","東京都墨田区東駒形四丁目14-1","https://www.city.sumida.lg.jp/sisetu_info/tamokuteki/communitykaikan/higashikomagata/index.html","35.705517","139.807746","131075_public_facility.csv"
"梅若橋コミュニティ会館","東京都墨田区堤通二丁目9-1","https://www.city.sumida.lg.jp/sisetu_info/tamokuteki/communitykaikan/umewakabashi/index.html","35.735335","139.816746","131075_public_facility.csv"
