"全国地方公共団体コード","ID","地方公共団体名","名称","名称_カナ","名称_英字","名称_通称","POIコード","外部識別子","外部識別子の値","所在地_全国地方公共団体コード","町字ID","所在地_連結表記","所在地_都道府県","所在地_市区町村","所在地_町字","所在地_番地以下","建物名等(方書)","緯度","経度","高度の種別","高度の値","電話番号","内線番号","連絡先メールアドレス","連絡先FormURL","連絡先備考（その他、SNSなど）","郵便番号","法人番号","団体名","利用可能曜日","開始時間","終了時間","利用可能時間特記事項","説明","車椅子可","車椅子貸出","ツエ貸出","バリアフリートイレ","スロープ、エレベータ、エスカレータ","点字ブロック等の移動支援","点字や読上による支援","盲導犬・介助犬、聴導犬同伴","字幕","筆談対応","優先駐車場","オストメイト対応トイレ","授乳室","おむつ替えコーナー","飲食可否","ベビーカー貸出","ベビーカー利用","URL","画像","画像_ライセンス","備考"
"131121","131121000001","世田谷区","第１庁舎（複合施設）","","","","","","","131121","","東京都世田谷区世田谷4-21-27","東京都","世田谷区","世田谷4丁目","21-27","","35.646581","139.653243","","","","","","","","1540017","","","","","","","","","","","","","","","","","","","","","","","","","","","",""
"131121","131121000002","世田谷区","第２庁舎","","","","","","","131121","","東京都世田谷区世田谷4-22-35","東京都","世田谷区","世田谷4丁目","22-35","","35.646152","139.651755","","","","","","","","1540017","","","","","","","","","","","","","","","","","","","","","","","","","","","",""
"131121","131121000003","世田谷区","第３庁舎（複合施設）","","","","","","","131121","","東京都世田谷区世田谷4-22-33","東京都","世田谷区","世田谷4丁目","22-33","","35.64647","139.652243","","","","","","","","1540017","","","","","","","","","","","","","","","","","","","","","","","","","","","","プレハブ棟他を含む"
"131121","131121000004","世田谷区","分庁舎ノバビル","","","","","","","131121","","東京都世田谷区世田谷4-22-11ノバビル","東京都","世田谷区","世田谷4丁目","22-11 ノバビル","","35.646729","139.651655","","","","","","","","1540017","","","","","","","","","","","","","","","","","","","","","","","","","","","",""
"131121","131121000005","世田谷区","城山分庁舎","","","","","","","131121","","東京都世田谷区世田谷4-24-1","東京都","世田谷区","世田谷4丁目","24-1","","35.648097","139.651096","","","","","","","","1540017","","","","","","","","","","","","","","","","","","","","","","","","","","","",""
"131121","131121000006","世田谷区","美松堂ビル","","","","","","","131121","","東京都世田谷区若林4-31-7","東京都","世田谷区","若林4丁目","31-7","","35.645767","139.653649","","","","","","","","1540023","","","","","","","","","","","","","","","","","","","","","","","","","","","",""
"131121","131121000007","世田谷区","プレハブ会議室","","","","","","","131121","","東京都世田谷区世田谷4-19-10","東京都","世田谷区","世田谷4丁目","19-10","","35.645334","139.652839","","","","","","","","1540017","","","","","","","","","","","","","","","","","","","","","","","","","","","",""
"131121","131121000009","世田谷区","世田谷総合支所（複合施設）","","","","","","","131121","","東京都世田谷区世田谷4-22-33","東京都","世田谷区","世田谷4丁目","22-33","","35.64647","139.652243","","","","","","","","1540017","","","","","","","","","","","","","","","","","","","","","","","","","","","",""
"131121","131121000010","世田谷区","世田谷保健福祉センター（健康づくり課分室）（複合施設）","","","","","","","131121","","東京都世田谷区若林4-22-13","東京都","世田谷区","若林4丁目","22-13","","35.644434","139.65357","","","","","","","","1540023","","","","","","","","","","","","","","","","","","","","","","","","","","","","区分所有"
"131121","131121000011","世田谷区","北沢総合支所（複合施設）","","","","","","","131121","","東京都世田谷区北沢2-8-18","東京都","世田谷区","北沢2丁目","8-18","","35.662208","139.66972","","","","","","","","1550031","","","","","","","","","","","","","","","","","","","","","","","","","","","","区分所有・一部借上"
"131121","131121000012","世田谷区","玉川総合支所（複合施設）","","","","","","","131121","","東京都世田谷区等々力3-4-1","東京都","世田谷区","等々力3丁目","4-1","","35.608582","139.648462","","","","","","","","1580082","","","","","","","","","","","","","","","","","","","","","","","","","","","",""
"131121","131121000013","世田谷区","砧総合支所（複合施設）","","","","","","","131121","","東京都世田谷区成城6-2-1","東京都","世田谷区","成城6丁目","2-1","","35.641265","139.600691","","","","","","","","1570066","","","","","","","","","","","","","","","","","","","","","","","","","","","",""
"131121","131121000014","世田谷区","成城二丁目事務所棟","","","","","","","131121","","東京都世田谷区成城2-33-15","東京都","世田谷区","成城2丁目","33-15","","35.639226","139.598295","","","","","","","","1570066","","","","","","","","","","","","","","","","","","","","","","","","","","","",""
"131121","131121000015","世田谷区","烏山総合支所（複合施設）","","","","","","","131121","","東京都世田谷区南烏山6-22-14","東京都","世田谷区","南烏山6丁目","22-14","","35.669836","139.597976","","","","","","","","1570062","","","","","","","","","","","","","","","","","","","","","","","","","","","",""
"131121","131121000016","世田谷区","太子堂出張所（複合施設）","","","","","","","131121","","東京都世田谷区太子堂2-17-1","東京都","世田谷区","太子堂2丁目","17-1","","35.644777","139.671139","","","","","","","","1540004","","","","","","","","","","","","","","","","","","","","","","","","","","","",""
"131121","131121000017","世田谷区","経堂出張所（複合施設）","","","","","","","131121","","東京都世田谷区宮坂1-44-29","東京都","世田谷区","宮坂1丁目","44-29","","35.650582","139.641481","","","","","","","","1560051","","","","","","","","","","","","","","","","","","","","","","","","","","","",""
"131121","131121000018","世田谷区","用賀出張所（複合施設）","","","","","","","131121","","東京都世田谷区用賀2-29-22","東京都","世田谷区","用賀2丁目","29-22","","35.62561","139.636452","","","","","","","","1580097","","","","","","","","","","","","","","","","","","","","","","","","","","","",""
"131121","131121000019","世田谷区","二子玉川出張所（複合施設）","","","","","","","131121","","東京都世田谷区玉川4-4-5","東京都","世田谷区","玉川4丁目","4-5","","35.615468","139.626705","","","","","","","","1580094","","","","","","","","","","","","","","","","","","","","","","","","","","","",""
"131121","131121000020","世田谷区","烏山出張所（複合施設）","","","","","","","131121","","東京都世田谷区南烏山6-2-19","東京都","世田谷区","南烏山6丁目","2-19","","35.668837","139.600537","","","","","","","","1570062","","","","","","","","","","","","","","","","","","","","","","","","","","","",""
"131121","131121000021","世田谷区","池尻まちづくりセンター（複合施設）","","","","","","","131121","","東京都世田谷区池尻3-27-21","東京都","世田谷区","池尻3丁目","27-21","","35.649821","139.67869","","","","","","","","1540001","","","","","","","","","","","","","","","","","","","","","","","","","","","",""
"131121","131121000022","世田谷区","太子堂まちづくりセンター（複合施設）","","","","","","","131121","","東京都世田谷区太子堂2-17-1","東京都","世田谷区","太子堂2丁目","17-1","","35.644777","139.671139","","","","","","","","1540004","","","","","","","","","","","","","","","","","","","","","","","","","","","",""
"131121","131121000023","世田谷区","若林まちづくりセンター（複合施設）","","","","","","","131121","","東京都世田谷区若林1-34-2","東京都","世田谷区","若林1丁目","34-2","","35.646106","139.66376","","","","","","","","1540023","","","","","","","","","","","","","","","","","","","","","","","","","","","",""
"131121","131121000024","世田谷区","上町まちづくりセンター（複合施設）","","","","","","","131121","","東京都世田谷区世田谷1-23-5","東京都","世田谷区","世田谷1丁目","23-5","","35.641906","139.647502","","","","","","","","1540017","","","","","","","","","","","","","","","","","","","","","","","","","","","",""
"131121","131121000025","世田谷区","経堂まちづくりセンター（複合施設）","","","","","","","131121","","東京都世田谷区宮坂1-44-29","東京都","世田谷区","宮坂1丁目","44-29","","35.650582","139.641481","","","","","","","","1560051","","","","","","","","","","","","","","","","","","","","","","","","","","","",""
"131121","131121000026","世田谷区","下馬まちづくりセンター（複合施設）","","","","","","","131121","","東京都世田谷区下馬4-13-4","東京都","世田谷区","下馬4丁目","13-4","","35.635975","139.679084","","","","","","","","1540002","","","","","","","","","","","","","","","","","","","","","","","","","","","",""
"131121","131121000027","世田谷区","上馬まちづくりセンター（複合施設）","","","","","","","131121","","東京都世田谷区上馬4-10-17","東京都","世田谷区","上馬4丁目","10-17","","35.635039","139.662542","","","","","","","","1540011","","","","","","","","","","","","","","","","","","","","","","","","","","","",""
"131121","131121000028","世田谷区","北沢まちづくりセンター（複合施設）","","","","","","","131121","","東京都世田谷区北沢2-8-18","東京都","世田谷区","北沢2丁目","8-18","","35.662208","139.66972","","","","","","","","1550031","","","","","","","","","","","","","","","","","","","","","","","","","","","","区分所有・一部借上"
"131121","131121000029","世田谷区","梅丘まちづくりセンター（複合施設）","","","","","","","131121","","東京都世田谷区梅丘1-61-16","東京都","世田谷区","梅丘1丁目","61-16","","35.653407","139.652326","","","","","","","","1540022","","","","","","","","","","","","","","","","","","","","","","","","","","","",""
"131121","131121000030","世田谷区","代沢まちづくりセンター（複合施設）","","","","","","","131121","","東京都世田谷区代沢5-1-15","東京都","世田谷区","代沢5丁目","1-15","","35.654901","139.66779","","","","","","","","1550032","","","","","","","","","","","","","","","","","","","","","","","","","","","",""
"131121","131121000031","世田谷区","新代田まちづくりセンター（複合施設）","","","","","","","131121","","東京都世田谷区羽根木1-6-14","東京都","世田谷区","羽根木1丁目","6-14","","35.66454","139.660427","","","","","","","","1560042","","","","","","","","","","","","","","","","","","","","","","","","","","","",""
"131121","131121000032","世田谷区","松原まちづくりセンター（複合施設）","","","","","","","131121","","東京都世田谷区松原5-43-28","東京都","世田谷区","松原5丁目","43-28","","35.66465","139.651171","","","","","","","","1560043","","","","","","","","","","","","","","","","","","","","","","","","","","","","複合施設棟 令和4年竣工"
"131121","131121000033","世田谷区","松沢まちづくりセンター（複合施設）","","","","","","","131121","","東京都世田谷区赤堤5-31-5","東京都","世田谷区","赤堤5丁目","31-5","","35.665384","139.638033","","","","","","","","1560044","","","","","","","","","","","","","","","","","","","","","","","","","","","",""
"131121","131121000034","世田谷区","奥沢まちづくりセンター（複合施設）","","","","","","","131121","","東京都世田谷区奥沢3-15-7","東京都","世田谷区","奥沢3丁目","15-7","","35.600773","139.672945","","","","","","","","1580083","","","","","","","","","","","","","","","","","","","","","","","","","","","",""
"131121","131121000035","世田谷区","九品仏まちづくりセンター（複合施設）","","","","","","","131121","","東京都世田谷区奥沢7-35-4","東京都","世田谷区","奥沢7丁目","35-4","","35.606917","139.661764","","","","","","","","1580083","","","","","","","","","","","","","","","","","","","","","","","","","","","",""
"131121","131121000036","世田谷区","等々力まちづくりセンター（複合施設）","","","","","","","131121","","東京都世田谷区等々力3-4-1","東京都","世田谷区","等々力3丁目","4-1","","35.608582","139.648462","","","","","","","","1580082","","","","","","","","","","","","","","","","","","","","","","","","","","","",""
"131121","131121000037","世田谷区","上野毛まちづくりセンター（複合施設）","","","","","","","131121","","東京都世田谷区中町2-33-11","東京都","世田谷区","中町2丁目","33-11","","35.611404","139.641027","","","","","","","","1580091","","","","","","","","","","","","","","","","","","","","","","","","","","","",""
"131121","131121000038","世田谷区","用賀まちづくりセンター（複合施設）","","","","","","","131121","","東京都世田谷区用賀2-29-22","東京都","世田谷区","用賀2丁目","29-22","","35.62561","139.636452","","","","","","","","1580097","","","","","","","","","","","","","","","","","","","","","","","","","","","",""
"131121","131121000039","世田谷区","二子玉川まちづくりセンター（複合施設）","","","","","","","131121","","東京都世田谷区玉川4-4-5","東京都","世田谷区","玉川4丁目","4-5","","35.615468","139.626705","","","","","","","","1580094","","","","","","","","","","","","","","","","","","","","","","","","","","","",""
"131121","131121000040","世田谷区","深沢まちづくりセンター（複合施設）","","","","","","","131121","","東京都世田谷区駒沢4-33-12","東京都","世田谷区","駒沢4丁目","33-12","","35.62792","139.652654","","","","","","","","1540012","","","","","","","","","","","","","","","","","","","","","","","","","","","",""
"131121","131121000041","世田谷区","祖師谷まちづくりセンター（複合施設）","","","","","","","131121","","東京都世田谷区祖師谷4-1-23","東京都","世田谷区","祖師谷4丁目","1-23","","35.646928","139.608218","","","","","","","","1570072","","","","","","","","","","","","","","","","","","","","","","","","","","","",""
"131121","131121000042","世田谷区","成城まちづくりセンター（複合施設）","","","","","","","131121","","東京都世田谷区成城6-3-10","東京都","世田谷区","成城6丁目","3-10","","35.640809","139.600514","","","","","","","","1570066","","","","","","","","","","","","","","","","","","","","","","","","","","","",""
"131121","131121000043","世田谷区","船橋まちづくりセンター（複合施設）","","","","","","","131121","","東京都世田谷区船橋4-3-2","東京都","世田谷区","船橋4丁目","3-2","","35.655308","139.622534","","","","","","","","1560055","","","","","","","","","","","","","","","","","","","","","","","","","","","",""
"131121","131121000044","世田谷区","喜多見まちづくりセンター（複合施設）","","","","","","","131121","","東京都世田谷区喜多見5-11-10","東京都","世田谷区","喜多見5丁目","11-10","","35.628916","139.601209","","","","","","","","1570067","","","","","","","","","","","","","","","","","","","","","","","","","","","",""
"131121","131121000045","世田谷区","砧まちづくりセンター（複合施設）","","","","","","","131121","","東京都世田谷区砧5-8-18","東京都","世田谷区","砧5丁目","8-18","","35.637791","139.610003","","","","","","","","1570073","","","","","","","","","","","","","","","","","","","","","","","","","","","",""
"131121","131121000046","世田谷区","上北沢まちづくりセンター（複合施設）","","","","","","","131121","","東京都世田谷区上北沢4-32-9","東京都","世田谷区","上北沢4丁目","32-9","","35.669968","139.617974","","","","","","","","1560057","","","","","","","","","","","","","","","","","","","","","","","","","","","",""
"131121","131121000047","世田谷区","上祖師谷まちづくりセンター（複合施設）","","","","","","","131121","","東京都世田谷区上祖師谷2-7-6","東京都","世田谷区","上祖師谷2丁目","7-6","","35.6571","139.599674","","","","","","","","1570065","","","","","","","","","","","","","","","","","","","","","","","","","","","",""
"131121","131121000048","世田谷区","烏山まちづくりセンター（複合施設）","","","","","","","131121","","東京都世田谷区南烏山6-2-19","東京都","世田谷区","南烏山6丁目","2-19","","35.668837","139.600537","","","","","","","","1570062","","","","","","","","","","","","","","","","","","","","","","","","","","","",""
"131121","131121000049","世田谷区","世田谷土木・公園管理事務所（複合施設）","","","","","","","131121","","東京都世田谷区若林1-34-2","東京都","世田谷区","若林1丁目","34-2","","35.646106","139.66376","","","","","","","","1540023","","","","","","","","","","","","","","","","","","","","","","","","","","","",""
"131121","131121000050","世田谷区","北沢土木・公園管理事務所","","","","","","","131121","","東京都世田谷区代田5-19-1","東京都","世田谷区","代田5丁目","19-1","","35.65999","139.664194","","","","","","","","1550033","","","","","","","","","","","","","","","","","","","","","","","","","","","",""
"131121","131121000051","世田谷区","玉川土木・公園管理事務所","","","","","","","131121","","東京都世田谷区中町4-35-11","東京都","世田谷区","中町4丁目","35-11","","35.61741","139.640744","","","","","","","","1580091","","","","","","","","","","","","","","","","","","","","","","","","","","","",""
"131121","131121000052","世田谷区","砧土木・公園管理事務所","","","","","","","131121","","東京都世田谷区大蔵4-6-2","東京都","世田谷区","大蔵4丁目","6-2","","35.631573","139.613042","","","","","","","","1570074","","","","","","","","","","","","","","","","","","","","","","","","","","","",""
"131121","131121000053","世田谷区","烏山土木・公園管理事務所","","","","","","","131121","","東京都世田谷区粕谷4-9-27","東京都","世田谷区","粕谷4丁目","9-27","","35.664256","139.605581","","","","","","","","1570063","","","","","","","","","","","","","","","","","","","","","","","","","","","",""
"131121","131121000054","世田谷区","世田谷清掃事務所","","","","","","","131121","","東京都世田谷区上馬5-21-13","東京都","世田谷区","上馬5丁目","21-13","","35.641972","139.656376","","","","","","","","1540011","","","","","","","","","","","","","","","","","","","","","","","","","","","",""
"131121","131121000055","世田谷区","世田谷清掃事務所弦巻分室","","","","","","","131121","","東京都世田谷区弦巻1-51-12","東京都","世田谷区","弦巻1丁目","51-12","","35.63769","139.647726","","","","","","","","1540016","","","","","","","","","","","","","","","","","","","","","","","","","","","",""
"131121","131121000056","世田谷区","玉川清掃事務所","","","","","","","131121","","東京都世田谷区野毛1-3-7","東京都","世田谷区","野毛1丁目","3-7","","35.599624","139.644504","","","","","","","","1580092","","","","","","","","","","","","","","","","","","","","","","","","","","","",""
"131121","131121000057","世田谷区","砧清掃事務所","","","","","","","131121","","東京都世田谷区八幡山2-7-1","東京都","世田谷区","八幡山2丁目","7-1","","35.659834","139.61637","","","","","","","","1560056","","","","","","","","","","","","","","","","","","","","","","","","","","","","区分所有"
"131121","131121000058","世田谷区","エムケイアースビル（世田谷保健所試験検査室）","","","","","","","131121","","東京都世田谷区世田谷1-11-18エムケイアースビル","東京都","世田谷区","世田谷1丁目","11-18 エムケイアースビル","","35.641696","139.653326","","","","","","","","1540017","","","","","","","","","","","","","","","","","","","","","","","","","","","",""
"131121","131121000059","世田谷区","区史編さん担当事務室（複合施設）","","","","","","","131121","","東京都世田谷区弦巻3-16-8","東京都","世田谷区","弦巻3丁目","16-8","","35.63769","139.644325","","","","","","","","1540016","","","","","","","","","","","","","","","","","","","","","","","","","","","",""
"131121","131121000060","世田谷区","グリーンプラザ","","","","","","","131121","","東京都世田谷区世田谷4-18-7","東京都","世田谷区","世田谷4丁目","18-7","","35.645513","139.651821","","","","","","","","1540017","","","","","","","","","","","","","","","","","","","","","","","","","","","",""
"131121","131121000061","世田谷区","事務センター","","","","","","","131121","","東京都世田谷区弦巻2-23-1","東京都","世田谷区","弦巻2丁目","23-1","","35.636393","139.653145","","","","","","","","1540016","","","","","","","","","","","","","","","","","","","","","","","","","","","",""
"131121","131121000062","世田谷区","消費生活センター（複合施設）","","","","","","","131121","","東京都世田谷区太子堂2-16-7三軒茶屋分庁舎3F","東京都","世田谷区","太子堂2丁目","16-7 三軒茶屋分庁舎3F","","35.64447","139.67114","階数","3","","","","","","1540004","","","","","","","","","","","","","","","","","","","","","","","","","","","",""
"131121","131121000063","世田谷区","三軒茶屋分庁舎（複合施設）","","","","","","","131121","","東京都世田谷区太子堂2-16-7御幸ビル","東京都","世田谷区","太子堂2丁目","16-7 御幸ビル","","35.64447","139.67114","","","","","","","","1540004","","","","","","","","","","","","","","","","","","","","","","","","","","","",""
"131121","131121000064","世田谷区","梅丘分庁舎","","","","","","","131121","","東京都世田谷区松原6-3-5","東京都","世田谷区","松原6丁目","3-5","","35.657031","139.653828","","","","","","","","1560043","","","","","","","","","","","","","","","","","","","","","","","","","","","",""
"131121","131121000066","世田谷区","世田谷区民会館（複合施設）","","","","","","","131121","","東京都世田谷区世田谷4-21-27","東京都","世田谷区","世田谷4丁目","21-27","","35.646581","139.653243","","","","","","","","1540017","","","","","","","","","","","","","","","","","","","","","","","","","","","","区民会館棟 昭和34年竣工"
"131121","131121000067","世田谷区","世田谷区民会館別館（三茶しゃれなあどホール）（複合施設）","","","","","","","131121","","東京都世田谷区太子堂2-16-7三軒茶屋分庁舎5F","東京都","世田谷区","太子堂2丁目","16-7 三軒茶屋分庁舎5F","","35.64447","139.67114","階数","5","","","","","","1540004","","","","","","","","","","","","","","","","","","","","","","","","","","","",""
"131121","131121000068","世田谷区","北沢区民会館（北沢タウンホール）（複合施設）","","","","","","","131121","","東京都世田谷区北沢2-8-18","東京都","世田谷区","北沢2丁目","8-18","","35.662208","139.66972","","","","","","","","1550031","","","","","","","","","","","","","","","","","","","","","","","","","","","","区分所有・一部借上"
"131121","131121000069","世田谷区","北沢区民会館別館（梅丘パークホール）（複合施設）","","","","","","","131121","","東京都世田谷区松原6-4-1歯科医師会館","東京都","世田谷区","松原6丁目","4-1 歯科医師会館","","35.656922","139.652813","","","","","","","","1560043","","","","","","","","","","","","","","","","","","","","","","","","","","","",""
"131121","131121000070","世田谷区","玉川区民会館（玉川せせらぎホール）（複合施設）","","","","","","","131121","","東京都世田谷区等々力3-4-1","東京都","世田谷区","等々力3丁目","4-1","","35.608582","139.648462","","","","","","","","1580082","","","","","","","","","","","","","","","","","","","","","","","","","","","",""
"131121","131121000071","世田谷区","玉川区民会館別館（上用賀アートホール）（複合施設）","","","","","","","131121","","東京都世田谷区上用賀5-14-1-102","東京都","世田谷区","上用賀5丁目","14-1-102","","35.630095","139.625844","階数","1","","","","","","1580098","","","","","","","","","","","","","","","","","","","","","","","","","","","",""
"131121","131121000072","世田谷区","砧区民会館（成城ホール）（複合施設）","","","","","","","131121","","東京都世田谷区成城6-2-1","東京都","世田谷区","成城6丁目","2-1","","35.641265","139.600691","","","","","","","","1570066","","","","","","","","","","","","","","","","","","","","","","","","","","","",""
"131121","131121000073","世田谷区","烏山区民会館（複合施設）","","","","","","","131121","","東京都世田谷区南烏山6-2-19","東京都","世田谷区","南烏山6丁目","2-19","","35.668837","139.600537","","","","","","","","1570062","","","","","","","","","","","","","","","","","","","","","","","","","","","",""
"131121","131121000074","世田谷区","桜丘区民センター（複合施設）","","","","","","","131121","","東京都世田谷区桜丘5-14-1","東京都","世田谷区","桜丘5丁目","14-1","","35.644782","139.622143","","","","","","","","1560054","","","","","","","","","","","","","","","","","","","","","","","","","","","",""
"131121","131121000075","世田谷区","桜丘区民センター（別棟）（複合施設）","","","","","","","131121","","東京都世田谷区桜丘2-22-1","東京都","世田谷区","桜丘2丁目","22-1","","35.645851","139.623679","","","","","","","","1560054","","","","","","","","","","","","","","","","","","","","","","","","","","","",""
"131121","131121000076","世田谷区","太子堂区民センター（複合施設）","","","","","","","131121","","東京都世田谷区太子堂1-14-20","東京都","世田谷区","太子堂1丁目","14-20","","35.642897","139.673622","","","","","","","","1540004","","","","","","","","","","","","","","","","","","","","","","","","","","","",""
"131121","131121000077","世田谷区","弦巻区民センター（複合施設）","","","","","","","131121","","東京都世田谷区弦巻1-26-11","東京都","世田谷区","弦巻1丁目","26-11","","35.636934","139.651815","","","","","","","","1540016","","","","","","","","","","","","","","","","","","","","","","","","","","","",""
"131121","131121000078","世田谷区","宮坂区民センター（複合施設）","","","","","","","131121","","東京都世田谷区宮坂1-24-6","東京都","世田谷区","宮坂1丁目","24-6","","35.647725","139.644755","","","","","","","","1560051","","","","","","","","","","","","","","","","","","","","","","","","","","","",""
"131121","131121000079","世田谷区","代田区民センター（複合施設）","","","","","","","131121","","東京都世田谷区代田6-34-13","東京都","世田谷区","代田6丁目","34-13","","35.662869","139.660648","","","","","","","","1550033","","","","","","","","","","","","","","","","","","","","","","","","","","","",""
"131121","131121000080","世田谷区","奥沢区民センター（複合施設）","","","","","","","131121","","東京都世田谷区奥沢3-47-8","東京都","世田谷区","奥沢3丁目","47-8","","35.603624","139.672397","","","","","","","","1580083","","","","","","","","","","","","","","","","","","","","","","","","","","","","区分所有・一時移転中"
"131121","131121000081","世田谷区","玉川台区民センター（複合施設）","","","","","","","131121","","東京都世田谷区玉川台1-6-15","東京都","世田谷区","玉川台1丁目","6-15","","35.622935","139.633048","","","","","","","","1580096","","","","","","","","","","","","","","","","","","","","","","","","","","","",""
"131121","131121000082","世田谷区","深沢区民センター（複合施設）","","","","","","","131121","","東京都世田谷区深沢4-33-11","東京都","世田谷区","深沢4丁目","33-11","","35.620194","139.65387","","","","","","","","1580081","","","","","","","","","","","","","","","","","","","","","","","","","","","",""
"131121","131121000083","世田谷区","鎌田区民センター（複合施設）","","","","","","","131121","","東京都世田谷区鎌田3-35-1","東京都","世田谷区","鎌田3丁目","35-1","","35.622285","139.613512","","","","","","","","1570077","","","","","","","","","","","","","","","","","","","","","","","","","","","",""
"131121","131121000084","世田谷区","粕谷区民センター（複合施設）","","","","","","","131121","","東京都世田谷区粕谷4-13-6","東京都","世田谷区","粕谷4丁目","13-6","","35.663097","139.605159","","","","","","","","1570063","","","","","","","","","","","","","","","","","","","","","","","","","","","",""
"131121","131121000085","世田谷区","上北沢区民センター（複合施設）","","","","","","","131121","","東京都世田谷区上北沢3-8-9","東京都","世田谷区","上北沢3丁目","8-9","","35.667566","139.625565","","","","","","","","1560057","","","","","","","","","","","","","","","","","","","","","","","","","","","",""
"131121","131121000086","世田谷区","烏山区民センター（複合施設）","","","","","","","131121","","東京都世田谷区南烏山6-2-19","東京都","世田谷区","南烏山6丁目","2-19","","35.668837","139.600537","","","","","","","","1570062","","","","","","","","","","","","","","","","","","","","","","","","","","","",""
"131121","131121000087","世田谷区","池尻地区会館（複合施設）","","","","","","","131121","","東京都世田谷区池尻2-3-11","東京都","世田谷区","池尻2丁目","3-11","","35.646608","139.682525","","","","","","","","1540001","","","","","","","","","","","","","","","","","","","","","","","","","","","",""
"131121","131121000088","世田谷区","上馬地区会館（複合施設）","","","","","","","131121","","東京都世田谷区上馬4-10-17","東京都","世田谷区","上馬4丁目","10-17","","35.635039","139.662542","","","","","","","","1540011","","","","","","","","","","","","","","","","","","","","","","","","","","","",""
"131121","131121000089","世田谷区","経堂地区会館","","","","","","","131121","","東京都世田谷区経堂3-37-13","東京都","世田谷区","経堂3丁目","37-13","","35.651779","139.632161","","","","","","","","1560052","","","","","","","","","","","","","","","","","","","","","","","","","","","",""
"131121","131121000090","世田谷区","経堂地区会館別館","","","","","","","131121","","東京都世田谷区経堂3-1-15","東京都","世田谷区","経堂3丁目","1-15","","35.650341","139.633707","","","","","","","","1560052","","","","","","","","","","","","","","","","","","","","","","","","","","","",""
"131121","131121000091","世田谷区","経堂南地区会館","","","","","","","131121","","東京都世田谷区経堂5-21-6","東京都","世田谷区","経堂5丁目","21-6","","35.647522","139.630279","","","","","","","","1560052","","","","","","","","","","","","","","","","","","","","","","","","","","","",""
"131121","131121000092","世田谷区","下馬地区会館（複合施設）","","","","","","","131121","","東京都世田谷区下馬4-13-4","東京都","世田谷区","下馬4丁目","13-4","","35.635975","139.679084","","","","","","","","1540002","","","","","","","","","","","","","","","","","","","","","","","","","","","",""
"131121","131121000093","世田谷区","下馬南地区会館","","","","","","","131121","","東京都世田谷区下馬6-41-6","東京都","世田谷区","下馬6丁目","41-6","","35.632269","139.679039","","","","","","","","1540002","","","","","","","","","","","","","","","","","","","","","","","","","","","",""
"131121","131121000094","世田谷区","世田谷地区会館","","","","","","","131121","","東京都世田谷区世田谷2-25-10","東京都","世田谷区","世田谷2丁目","25-10","","35.640797","139.640487","","","","","","","","1540017","","","","","","","","","","","","","","","","","","","","","","","","","","","",""
"131121","131121000095","世田谷区","中里地区会館","","","","","","","131121","","東京都世田谷区上馬2-24-17","東京都","世田谷区","上馬2丁目","24-17","","35.638831","139.666784","","","","","","","","1540011","","","","","","","","","","","","","","","","","","","","","","","","","","","",""
"131121","131121000096","世田谷区","野沢地区会館（複合施設）","","","","","","","131121","","東京都世田谷区野沢1-8-14","東京都","世田谷区","野沢1丁目","8-14","","35.634692","139.671056","","","","","","","","1540003","","","","","","","","","","","","","","","","","","","","","","","","","","","",""
"131121","131121000097","世田谷区","三宿地区会館","","","","","","","131121","","東京都世田谷区三宿2-7-10","東京都","世田谷区","三宿2丁目","7-10","","35.653153","139.677169","","","","","","","","1540005","","","","","","","","","","","","","","","","","","","","","","","","","","","",""
"131121","131121000098","世田谷区","梅丘地区会館（複合施設）","","","","","","","131121","","東京都世田谷区梅丘1-61-16","東京都","世田谷区","梅丘1丁目","61-16","","35.653407","139.652326","","","","","","","","1540022","","","","","","","","","","","","","","","","","","","","","","","","","","","",""
"131121","131121000099","世田谷区","北沢地区会館（複合施設）","","","","","","","131121","","東京都世田谷区北沢3-3-10","東京都","世田谷区","北沢3丁目","3-10","","35.666362","139.672548","","","","","","","","1550031","","","","","","","","","","","","","","","","","","","","","","","","","","","",""
"131121","131121000100","世田谷区","桜上水南地区会館","","","","","","","131121","","東京都世田谷区桜上水3-4-11","東京都","世田谷区","桜上水3丁目","4-11","","35.659466","139.633492","","","","","","","","1560045","","","","","","","","","","","","","","","","","","","","","","","","","","","",""
"131121","131121000101","世田谷区","代沢地区会館","","","","","","","131121","","東京都世田谷区代沢5-8-19","東京都","世田谷区","代沢5丁目","8-19","","35.657508","139.66809","","","","","","","","1550032","","","","","","","","","","","","","","","","","","","","","","","","","","","",""
"131121","131121000102","世田谷区","代沢東地区会館","","","","","","","131121","","東京都世田谷区代沢1-31-8","東京都","世田谷区","代沢1丁目","31-8","","35.657881","139.675894","","","","","","","","1550032","","","","","","","","","","","","","","","","","","","","","","","","","","","",""
"131121","131121000103","世田谷区","代田地区会館","","","","","","","131121","","東京都世田谷区代田4-14-3","東京都","世田谷区","代田4丁目","14-3","","35.662399","139.657763","","","","","","","","1550033","","","","","","","","","","","","","","","","","","","","","","","","","","","",""
"131121","131121000104","世田谷区","花見堂地区会館（複合施設）","","","","","","","131121","","東京都世田谷区代田1-13-14","東京都","世田谷区","代田1丁目","13-14","","35.651927","139.662697","","","","","","","","1550033","","","","","","","","","","","","","","","","","","","","","","","","","","","",""
"131121","131121000105","世田谷区","松原地区会館（複合施設）","","","","","","","131121","","東京都世田谷区松原5-17-6","東京都","世田谷区","松原5丁目","17-6","","35.661243","139.648051","","","","","","","","1560043","","","","","","","","","","","","","","","","","","","","","","","","","","","",""
"131121","131121000106","世田谷区","守山地区会館（複合施設）","","","","","","","131121","","東京都世田谷区代田6-21-5","東京都","世田谷区","代田6丁目","21-5","","35.665439","139.661723","","","","","","","","1550033","","","","","","","","","","","","","","","","","","","","","","","","","","","",""
"131121","131121000107","世田谷区","奥沢地区会館（複合施設）","","","","","","","131121","","東京都世田谷区奥沢7-35-4","東京都","世田谷区","奥沢7丁目","35-4","","35.606917","139.661764","","","","","","","","1580083","","","","","","","","","","","","","","","","","","","","","","","","","","","",""
"131121","131121000108","世田谷区","奥沢東地区会館","","","","","","","131121","","東京都世田谷区奥沢2-9-28","東京都","世田谷区","奥沢2丁目","9-28","","35.604518","139.672614","","","","","","","","1580083","","","","","","","","","","","","","","","","","","","","","","","","","","","",""
"131121","131121000109","世田谷区","尾山台地区会館（複合施設）","","","","","","","131121","","東京都世田谷区等々力2-17-14","東京都","世田谷区","等々力2丁目","17-14","","35.605757","139.652395","","","","","","","","1580082","","","","","","","","","","","","","","","","","","","","","","","","","","","",""
"131121","131121000110","世田谷区","上野毛地区会館（複合施設）","","","","","","","131121","","東京都世田谷区中町2-33-11","東京都","世田谷区","中町2丁目","33-11","","35.611404","139.641027","","","","","","","","1580091","","","","","","","","","","","","","","","","","","","","","","","","","","","",""
"131121","131121000111","世田谷区","九品仏地区会館","","","","","","","131121","","東京都世田谷区奥沢7-34-3","東京都","世田谷区","奥沢7丁目","34-3","","35.606186","139.661801","","","","","","","","1580083","","","","","","","","","","","","","","","","","","","","","","","","","","","",""
"131121","131121000112","世田谷区","駒沢地区会館","","","","","","","131121","","東京都世田谷区駒沢3-13-5","東京都","世田谷区","駒沢3丁目","13-5","","35.631432","139.654233","","","","","","","","1540012","","","","","","","","","","","","","","","","","","","","","","","","","","","",""
"131121","131121000113","世田谷区","新町地区会館","","","","","","","131121","","東京都世田谷区新町2-21-10","東京都","世田谷区","新町2丁目","21-10","","35.629699","139.648116","","","","","","","","1540014","","","","","","","","","","","","","","","","","","","","","","","","","","","",""
"131121","131121000114","世田谷区","瀬田地区会館","","","","","","","131121","","東京都世田谷区瀬田4-18-11","東京都","世田谷区","瀬田4丁目","18-11","","35.621414","139.627327","","","","","","","","1580095","","","","","","","","","","","","","","","","","","","","","","","","","","","",""
"131121","131121000115","世田谷区","玉堤地区会館","","","","","","","131121","","東京都世田谷区玉堤1-12-18","東京都","世田谷区","玉堤1丁目","12-18","","35.595649","139.652349","","","","","","","","1580087","","","","","","","","","","","","","","","","","","","","","","","","","","","",""
"131121","131121000116","世田谷区","等々力地区会館（複合施設）","","","","","","","131121","","東京都世田谷区等々力3-25-16","東京都","世田谷区","等々力3丁目","25-16","","35.61137","139.649976","","","","","","","","1580082","","","","","","","","","","","","","","","","","","","","","","","","","","","",""
"131121","131121000117","世田谷区","東玉川地区会館（複合施設）","","","","","","","131121","","東京都世田谷区東玉川1-19-15","東京都","世田谷区","東玉川1丁目","19-15","","35.597177","139.678775","","","","","","","","1580084","","","","","","","","","","","","","","","","","","","","","","","","","","","",""
"131121","131121000118","世田谷区","深沢地区会館","","","","","","","131121","","東京都世田谷区深沢1-14-22","東京都","世田谷区","深沢1丁目","14-22","","35.617667","139.661041","","","","","","","","1580081","","","","","","","","","","","","","","","","","","","","","","","","","","","",""
"131121","131121000119","世田谷区","二子玉川地区会館（複合施設）","","","","","","","131121","","東京都世田谷区玉川4-4-5","東京都","世田谷区","玉川4丁目","4-5","","35.615468","139.626705","","","","","","","","1580094","","","","","","","","","","","","","","","","","","","","","","","","","","","",""
"131121","131121000120","世田谷区","二子玉川地区会館別館（複合施設）","","","","","","","131121","","東京都世田谷区玉川3-27-1","東京都","世田谷区","玉川3丁目","27-1","","35.614103","139.624276","","","","","","","","1580094","","","","","","","","","","","","","","","","","","","","","","","","","","","",""
"131121","131121000121","世田谷区","用賀地区会館（複合施設）","","","","","","","131121","","東京都世田谷区用賀4-38-16","東京都","世田谷区","用賀4丁目","38-16","","35.6299","139.629626","","","","","","","","1580097","","","","","","","","","","","","","","","","","","","","","","","","","","","",""
"131121","131121000122","世田谷区","宇奈根地区会館","","","","","","","131121","","東京都世田谷区宇奈根2-23-20","東京都","世田谷区","宇奈根2丁目","23-20","","35.623412","139.602624","","","","","","","","1570068","","","","","","","","","","","","","","","","","","","","","","","","","","","",""
"131121","131121000123","世田谷区","大蔵地区会館","","","","","","","131121","","東京都世田谷区砧3-5-6","東京都","世田谷区","砧3丁目","5-6","","35.63493","139.610811","","","","","","","","1570073","","","","","","","","","","","","","","","","","","","","","","","","","","","",""
"131121","131121000124","世田谷区","岡本地区会館","","","","","","","131121","","東京都世田谷区岡本1-25-4","東京都","世田谷区","岡本1丁目","25-4","","35.625048","139.619468","","","","","","","","1570076","","","","","","","","","","","","","","","","","","","","","","","","","","","",""
"131121","131121000125","世田谷区","喜多見地区会館","","","","","","","131121","","東京都世田谷区喜多見8-23-23","東京都","世田谷区","喜多見8丁目","23-23","","35.636821","139.589644","","","","","","","","1570067","","","","","","","","","","","","","","","","","","","","","","","","","","","",""
"131121","131121000126","世田谷区","喜多見東地区会館（複合施設）","","","","","","","131121","","東京都世田谷区喜多見5-11-10","東京都","世田谷区","喜多見5丁目","11-10","","35.628916","139.601209","","","","","","","","1570067","","","","","","","","","","","","","","","","","","","","","","","","","","","",""
"131121","131121000127","世田谷区","砧地区会館","","","","","","","131121","","東京都世田谷区砧8-2-21","東京都","世田谷区","砧8丁目","2-21","","35.639088","139.607248","","","","","","","","1570073","","","","","","","","","","","","","","","","","","","","","","","","","","","",""
"131121","131121000128","世田谷区","祖師谷地区会館","","","","","","","131121","","東京都世田谷区祖師谷3-30-30","東京都","世田谷区","祖師谷3丁目","30-30","","35.643477","139.607668","","","","","","","","1570072","","","","","","","","","","","","","","","","","","","","","","","","","","","",""
"131121","131121000129","世田谷区","千歳台地区会館（複合施設）","","","","","","","131121","","東京都世田谷区千歳台3-31-9","東京都","世田谷区","千歳台3丁目","31-9","","35.653626","139.611611","","","","","","","","1570071","","","","","","","","","","","","","","","","","","","","","","","","","","","",""
"131121","131121000130","世田谷区","船橋地区会館","","","","","","","131121","","東京都世田谷区船橋3-11-8","東京都","世田谷区","船橋3丁目","11-8","","35.652452","139.62338","","","","","","","","1560055","","","","","","","","","","","","","","","","","","","","","","","","","","","",""
"131121","131121000131","世田谷区","上北沢地区会館","","","","","","","131121","","東京都世田谷区上北沢2-1-3","東京都","世田谷区","上北沢2丁目","1-3","","35.663209","139.62248","","","","","","","","1560057","","","","","","","","","","","","","","","","","","","","","","","","","","","",""
"131121","131121000132","世田谷区","上祖師谷地区会館（複合施設）","","","","","","","131121","","東京都世田谷区上祖師谷4-5-6","東京都","世田谷区","上祖師谷4丁目","5-6","","35.653571","139.596639","","","","","","","","1570065","","","","","","","","","","","","","","","","","","","","","","","","","","","",""
"131121","131121000133","世田谷区","北烏山地区会館","","","","","","","131121","","東京都世田谷区北烏山9-25-26","東京都","世田谷区","北烏山9丁目","25-26","","35.674354","139.592345","","","","","","","","1570061","","","","","","","","","","","","","","","","","","","","","","","","","","","",""
"131121","131121000134","世田谷区","給田地区会館（複合施設）","","","","","","","131121","","東京都世田谷区給田3-14-7","東京都","世田谷区","給田3丁目","14-7","","35.664894","139.590708","","","","","","","","1570064","","","","","","","","","","","","","","","","","","","","","","","","","","","",""
"131121","131121000135","世田谷区","池尻区民集会所（複合施設）","","","","","","","131121","","東京都世田谷区池尻3-27-21","東京都","世田谷区","池尻3丁目","27-21","","35.649821","139.67869","","","","","","","","1540001","","","","","","","","","","","","","","","","","","","","","","","","","","","",""
"131121","131121000136","世田谷区","三軒茶屋区民集会所（複合施設）","","","","","","","131121","","東京都世田谷区太子堂2-17-1","東京都","世田谷区","太子堂2丁目","17-1","","35.644777","139.671139","","","","","","","","1540004","","","","","","","","","","","","","","","","","","","","","","","","","","","",""
"131121","131121000137","世田谷区","下馬区民集会所（複合施設）","","","","","","","131121","","東京都世田谷区下馬3-14-9","東京都","世田谷区","下馬3丁目","14-9","","35.635942","139.675404","","","","","","","","1540002","","","","","","","","","","","","","","","","","","","","","","","","","","","",""
"131121","131121000138","世田谷区","弦巻区民集会所","","","","","","","131121","","東京都世田谷区弦巻5-1-18","東京都","世田谷区","弦巻5丁目","1-18","","35.63506","139.637811","","","","","","","","1540016","","","","","","","","","","","","","","","","","","","","","","","","","","","",""
"131121","131121000139","世田谷区","野沢区民集会所","","","","","","","131121","","東京都世田谷区野沢4-24-1","東京都","世田谷区","野沢4丁目","24-1","","35.634809","139.664923","","","","","","","","1540003","","","","","","","","","","","","","","","","","","","","","","","","","","","","区分所有"
"131121","131121000140","世田谷区","丸山区民集会所（複合施設）","","","","","","","131121","","東京都世田谷区三軒茶屋2-32-14","東京都","世田谷区","三軒茶屋2丁目","32-14","","35.64077","139.665786","","","","","","","","1540024","","","","","","","","","","","","","","","","","","","","","","","","","","","",""
"131121","131121000141","世田谷区","若林区民集会所（複合施設）","","","","","","","131121","","東京都世田谷区若林1-34-2","東京都","世田谷区","若林1丁目","34-2","","35.646106","139.66376","","","","","","","","1540023","","","","","","","","","","","","","","","","","","","","","","","","","","","",""
"131121","131121000142","世田谷区","大原区民集会所","","","","","","","131121","","東京都世田谷区大原1-16-16シルクロードビル","東京都","世田谷区","大原1丁目","16-16 シルクロードビル","","35.668677","139.665084","","","","","","","","1560041","","","","","","","","","","","","","","","","","","","","","","","","","","","",""
"131121","131121000143","世田谷区","北沢区民集会所（複合施設）","","","","","","","131121","","東京都世田谷区北沢4-24-22","東京都","世田谷区","北沢4丁目","24-22","","35.668395","139.668156","","","","","","","","1550031","","","","","","","","","","","","","","","","","","","","","","","","","","","",""
"131121","131121000144","世田谷区","北沢南区民集会所","","","","","","","131121","","東京都世田谷区北沢3-25-8","東京都","世田谷区","北沢3丁目","25-8","","35.664334","139.669121","","","","","","","","1550031","","","","","","","","","","","","","","","","","","","","","","","","","","","",""
"131121","131121000145","世田谷区","下北沢区民集会所","","","","","","","131121","","東京都世田谷区北沢2-26-6B1F、3F","東京都","世田谷区","北沢2丁目","26-6 B1F、3F","","35.662028","139.665991","階数","-1;3","","","","","","1550031","","","","","","","","","","","","","","","","","","","","","","","","","","","",""
"131121","131121000146","世田谷区","新代田区民集会所（複合施設）","","","","","","","131121","","東京都世田谷区羽根木1-6-14","東京都","世田谷区","羽根木1丁目","6-14","","35.66454","139.660427","","","","","","","","1560042","","","","","","","","","","","","","","","","","","","","","","","","","","","",""
"131121","131121000147","世田谷区","羽根木区民集会所","","","","","","","131121","","東京都世田谷区羽根木2-8-6東松原ハイム1F","東京都","世田谷区","羽根木2丁目","8-6 東松原ハイム1F","","35.666462","139.658596","階数","1","","","","","","1560042","","","","","","","","","","","","","","","","","","","","","","","","","","","","区分所有"
"131121","131121000148","世田谷区","松沢区民集会所（複合施設）","","","","","","","131121","","東京都世田谷区赤堤5-31-5","東京都","世田谷区","赤堤5丁目","31-5","","35.665384","139.638033","","","","","","","","1560044","","","","","","","","","","","","","","","","","","","","","","","","","","","",""
"131121","131121000149","世田谷区","六所橋区民集会所","","","","","","","131121","","東京都世田谷区赤堤2-10-13","東京都","世田谷区","赤堤2丁目","10-13","","35.657735","139.64334","","","","","","","","1560044","","","","","","","","","","","","","","","","","","","","","","","","","","","",""
"131121","131121000150","世田谷区","上野毛区民集会所","","","","","","","131121","","東京都世田谷区上野毛1-26-14伊東ビル2F","東京都","世田谷区","上野毛1丁目","26-14 伊東ビル2F","","35.612573","139.63871","階数","2","","","","","","1580093","","","","","","","","","","","","","","","","","","","","","","","","","","","",""
"131121","131121000151","世田谷区","桜新町区民集会所（複合施設）","","","","","","","131121","","東京都世田谷区桜新町1-30-14","東京都","世田谷区","桜新町1丁目","30-14","","35.628345","139.644","","","","","","","","1540015","","","","","","","","","","","","","","","","","","","","","","","","","","","",""
"131121","131121000152","世田谷区","中町区民集会所（複合施設）","","","","","","","131121","","東京都世田谷区中町4-15-6","東京都","世田谷区","中町4丁目","15-6","","35.617961","139.644841","","","","","","","","1580091","","","","","","","","","","","","","","","","","","","","","","","","","","","",""
"131121","131121000153","世田谷区","野毛区民集会所（複合施設）","","","","","","","131121","","東京都世田谷区野毛2-4-4","東京都","世田谷区","野毛2丁目","4-4","","35.600795","139.642655","","","","","","","","1580092","","","","","","","","","","","","","","","","","","","","","","","","","","","",""
"131121","131121000154","世田谷区","用賀区民集会所（複合施設）","","","","","","","131121","","東京都世田谷区用賀4-10-6コミュニティ・テラス","東京都","世田谷区","用賀4丁目","10-6 コミュニティ・テラス","","35.626906","139.63251","","","","","","","","1580097","","","","","","","","","","","","","","","","","","","","","","","","","","","",""
"131121","131121000155","世田谷区","鎌田区民集会所","","","","","","","131121","","東京都世田谷区鎌田2-1-24","東京都","世田谷区","鎌田2丁目","1-24","","35.617031","139.61333","","","","","","","","1570077","","","","","","","","","","","","","","","","","","","","","","","","","","","",""
"131121","131121000156","世田谷区","砧総合支所区民集会所（複合施設）","","","","","","","131121","","東京都世田谷区成城6-2-1","東京都","世田谷区","成城6丁目","2-1","","35.641265","139.600691","","","","","","","","1570066","","","","","","","","","","","","","","","","","","","","","","","","","","","",""
"131121","131121000157","世田谷区","希望丘区民集会所（複合施設）","","","","","","","131121","","東京都世田谷区船橋6-25-1","東京都","世田谷区","船橋6丁目","25-1","","35.659021","139.620796","","","","","","","","1560055","","","","","","","","","","","","","","","","","","","","","","","","","","","","複合施設棟 平成31年竣工"
"131121","131121000158","世田谷区","祖師谷区民集会所（複合施設）","","","","","","","131121","","東京都世田谷区祖師谷4-1-23","東京都","世田谷区","祖師谷4丁目","1-23","","35.646928","139.608218","","","","","","","","1570072","","","","","","","","","","","","","","","","","","","","","","","","","","","",""
"131121","131121000159","世田谷区","山野区民集会所","","","","","","","131121","","東京都世田谷区砧1-11-3都営砧一丁目アパート1F","東京都","世田谷区","砧1丁目","11-3 都営砧1丁目アパート1F","","35.6375","139.615301","階数","1","","","","","","1570073","","","","","","","","","","","","","","","","","","","","","","","","","","","",""
"131121","131121000160","世田谷区","上祖師谷一丁目区民集会所（複合施設）","","","","","","","131121","","東京都世田谷区上祖師谷1-24-2","東京都","世田谷区","上祖師谷1丁目","24-2","","35.663569","139.599001","","","","","","","","1570065","","","","","","","","","","","","","","","","","","","","","","","","","","","",""
"131121","131121000161","世田谷区","寺町通り区民集会所","","","","","","","131121","","東京都世田谷区北烏山5-1-4","東京都","世田谷区","北烏山5丁目","1-4","","35.676611","139.597381","","","","","","","","1570061","","","","","","","","","","","","","","","","","","","","","","","","","","","",""
"131121","131121000162","世田谷区","八幡山区民集会所（複合施設）","","","","","","","131121","","東京都世田谷区八幡山3-32-26","東京都","世田谷区","八幡山3丁目","32-26","","35.668277","139.616839","","","","","","","","1560056","","","","","","","","","","","","","","","","","","","","","","","","","","","",""
"131121","131121000163","世田谷区","南烏山区民集会所","","","","","","","131121","","東京都世田谷区南烏山3-23-7芦花パークヒルⅢ2F","東京都","世田谷区","南烏山3丁目","23-7 芦花パークヒルⅢ2F","","35.671759","139.60707","階数","2","","","","","","1570062","","","","","","","","","","","","","","","","","","","","","","","","","","","",""
"131121","131121000164","世田谷区","みどり会館","","","","","","","131121","","東京都世田谷区北烏山5-1-5","東京都","世田谷区","北烏山5丁目","1-5","","35.676417","139.597001","","","","","","","","1570061","","","","","","","","","","","","","","","","","","","","","","","","","","","",""
"131121","131121000165","世田谷区","おなが広域用防災倉庫","","","","","","","131121","","東京都世田谷区世田谷4-14","東京都","世田谷区","世田谷4丁目","14","","35.644532","139.652402","","","","","","","","1540017","","","","","","","","","","","","","","","","","","","","","","","","","","","",""
"131121","131121000166","世田谷区","下馬広域用防災倉庫","","","","","","","131121","","東京都世田谷区下馬2-26","東京都","世田谷区","下馬2丁目","26","","35.642006","139.679042","","","","","","","","1540002","","","","","","","","","","","","","","","","","","","","","","","","","","","",""
"131121","131121000167","世田谷区","小田急上部（代田富士３５６広場）広域用防災倉庫","","","","","","","131121","","東京都世田谷区代田3-56","東京都","世田谷区","代田3丁目","56","","35.657253","139.658137","","","","","","","","1550033","","","","","","","","","","","","","","","","","","","","","","","","","","","",""
"131121","131121000168","世田谷区","桜上水広域用防災倉庫","","","","","","","131121","","東京都世田谷区桜上水3-17-6","東京都","世田谷区","桜上水3丁目","17-6","","35.659982","139.632459","","","","","","","","1560045","","","","","","","","","","","","","","","","","","","","","","","","","","","",""
"131121","131121000169","世田谷区","羽根木広域用防災倉庫（複合施設）","","","","","","","131121","","東京都世田谷区代田4-38-52","東京都","世田谷区","代田4丁目","38-52","","35.658004","139.653219","","","","","","","","1550033","","","","","","","","","","","","","","","","","","","","","","","","","","","",""
"131121","131121000170","世田谷区","玉川広域用防災倉庫","","","","","","","131121","","東京都世田谷区玉川1-14-1","東京都","世田谷区","玉川1丁目","14-1","","35.610476","139.630099","","","","","","","","1580094","","","","","","","","","","","","","","","","","","","","","","","","","","","",""
"131121","131121000171","世田谷区","中町・玉川広域用防災倉庫（複合施設）","","","","","","","131121","","東京都世田谷区中町4-21-1","東京都","世田谷区","中町4丁目","21-1","","35.616941","139.643537","","","","","","","","1580091","","","","","","","","","","","","","","","","","","","","","","","","","","","","玉川中体育館棟 昭和55年竣工"
"131121","131121000172","世田谷区","野毛広域用防災倉庫（複合施設）","","","","","","","131121","","東京都世田谷区野毛1-25","東京都","世田谷区","野毛1丁目","25","","35.605489","139.642466","","","","","","","","1580092","","","","","","","","","","","","","","","","","","","","","","","","","","","",""
"131121","131121000173","世田谷区","二子玉川公園広域用防災倉庫","","","","","","","131121","","東京都世田谷区玉川1-16；上野毛2-28","東京都","世田谷区","玉川1丁目","16 ；上野毛2-28","","35.608265","139.632528","","","","","","","","1580094","","","","","","","","","","","","","","","","","","","","","","","","","","","","一部公園施設を含む"
"131121","131121000174","世田谷区","大蔵広域用防災倉庫（複合施設）","","","","","","","131121","","東京都世田谷区大蔵4-6-2","東京都","世田谷区","大蔵4丁目","6-2","","35.631573","139.613042","","","","","","","","1570074","","","","","","","","","","","","","","","","","","","","","","","","","","","",""
"131121","131121000175","世田谷区","きたみふれあい広場防災倉庫","","","","","","","131121","","東京都世田谷区喜多見9-25","東京都","世田谷区","喜多見9丁目","25","","35.640789","139.589299","","","","","","","","1570067","","","","","","","","","","","","","","","","","","","","","","","","","","","",""
"131121","131121000176","世田谷区","希望丘広域用防災倉庫（複合施設）","","","","","","","131121","","東京都世田谷区船橋4-20-1","東京都","世田谷区","船橋4丁目","20-1","","35.655799","139.618876","","","","","","","","1560055","","","","","","","","","","","","","","","","","","","","","","","","","","","",""
"131121","131121000177","世田谷区","成城広域用防災倉庫","","","","","","","131121","","東京都世田谷区成城1-4-19","東京都","世田谷区","成城1丁目","4-19","","35.633388","139.604357","","","","","","","","1570066","","","","","","","","","","","","","","","","","","","","","","","","","","","",""
"131121","131121000178","世田谷区","粕谷広域用防災倉庫","","","","","","","131121","","東京都世田谷区粕谷3-1-1","東京都","世田谷区","粕谷3丁目","1-1","","35.658956","139.608529","","","","","","","","1570063","","","","","","","","","","","","","","","","","","","","","","","","","","","",""
"131121","131121000179","世田谷区","烏山広域用防災倉庫","","","","","","","131121","","東京都世田谷区北烏山2-3","東京都","世田谷区","北烏山2丁目","3","","35.679917","139.601184","","","","","","","","1570061","","","","","","","","","","","","","","","","","","","","","","","","","","","",""
"131121","131121000180","世田谷区","中央自動車道高架下広域用防災倉庫","","","","","","","131121","","東京都世田谷区北烏山4-2先","東京都","世田谷区","北烏山4丁目","2 先","","35.676887","139.598237","","","","","","","","1570061","","","","","","","","","","","","","","","","","","","","","","","","","","","",""
"131121","131121000181","世田谷区","世田谷水防倉庫（複合施設）","","","","","","","131121","","東京都世田谷区世田谷1-48-4","東京都","世田谷区","世田谷1丁目","48-4","","35.64085","139.643101","","","","","","","","1540017","","","","","","","","","","","","","","","","","","","","","","","","","","","",""
"131121","131121000182","世田谷区","赤堤水防倉庫","","","","","","","131121","","東京都世田谷区赤堤3-34-17","東京都","世田谷区","赤堤3丁目","34-17","","35.657849","139.635151","","","","","","","","1560044","","","","","","","","","","","","","","","","","","","","","","","","","","","",""
"131121","131121000183","世田谷区","多摩川専用土のう倉庫","","","","","","","131121","","東京都世田谷区玉川1-7先","東京都","世田谷区","玉川1丁目","7 先","","35.610367","139.627945","","","","","","","","1580094","","","","","","","","","","","","","","","","","","","","","","","","","","","",""
"131121","131121000184","世田谷区","中町水防倉庫（複合施設）","","","","","","","131121","","東京都世田谷区中町2-21-12","東京都","世田谷区","中町2丁目","21-12","","35.613821","139.644713","","","","","","","","1580091","","","","","","","","","","","","","","","","","","","","","","","","","","","",""
"131121","131121000185","世田谷区","砧水防倉庫","","","","","","","131121","","東京都世田谷区祖師谷3-13-4","東京都","世田谷区","祖師谷3丁目","13-4","","35.641309","139.602097","","","","","","","","1570072","","","","","","","","","","","","","","","","","","","","","","","","","","","",""
"131121","131121000186","世田谷区","池尻防災施設","","","","","","","131121","","東京都世田谷区池尻2-3","東京都","世田谷区","池尻2丁目","3","","35.646613","139.682852","","","","","","","","1540001","","","","","","","","","","","","","","","","","","","","","","","","","","","",""
"131121","131121000187","世田谷区","北沢三丁目防災倉庫","","","","","","","131121","","東京都世田谷区北沢3-9","東京都","世田谷区","北沢3丁目","9","","35.664169","139.671014","","","","","","","","1550031","","","","","","","","","","","","","","","","","","","","","","","","","","","",""
"131121","131121000188","世田谷区","豪徳寺防災施設","","","","","","","131121","","東京都世田谷区豪徳寺1-40","東京都","世田谷区","豪徳寺1丁目","40","","35.65444","139.648926","","","","","","","","1540021","","","","","","","","","","","","","","","","","","","","","","","","","","","",""
"131121","131121000189","世田谷区","祖師谷三丁目高架下防災倉庫","","","","","","","131121","","東京都世田谷区祖師谷3-11","東京都","世田谷区","祖師谷3丁目","11","","35.642092","139.603014","","","","","","","","1570072","","","","","","","","","","","","","","","","","","","","","","","","","","","",""
"131121","131121000190","世田谷区","烏山総合支所防災資材倉庫","","","","","","","131121","","東京都世田谷区北烏山8-8","東京都","世田谷区","北烏山8丁目","8","","35.67493","139.589988","","","","","","","","1570061","","","","","","","","","","","","","","","","","","","","","","","","","","","",""
"131121","131121000191","世田谷区","世田谷区民健康村なかのビレジ","","","","","","","104442","","群馬県利根郡川場村大字中野626","群馬県","利根郡川場村","中野","626","","36.700034","139.128474","","","","","","","","3780103","","","","","","","","","","","","","","","","","","","","","","","","","","","","森のむらを含む"
"131121","131121000192","世田谷区","世田谷区民健康村ふじやまビレジ","","","","","","","104442","","群馬県利根郡川場村大字谷地1320","群馬県","利根郡川場村","谷地","1320","","36.722748","139.102173","","","","","","","","3780101","","","","","","","","","","","","","","","","","","","","","","","","","","","",""
"131121","131121000193","世田谷区","中央図書館（複合施設）","","","","","","","131121","","東京都世田谷区弦巻3-16-8","東京都","世田谷区","弦巻3丁目","16-8","","35.63769","139.644325","","","","","","","","1540016","","","","","","","","","","","","","","","","","","","","","","","","","","","",""
"131121","131121000194","世田谷区","梅丘図書館","","","","","","","131121","","東京都世田谷区代田4-38-10","東京都","世田谷区","代田4丁目","38-10","","35.657452","139.654708","","","","","","","","1550033","","","","","","","","","","","","","","","","","","","","","","","","","","","","一時移転中"
"131121","131121000195","世田谷区","世田谷図書館（複合施設）","","","","","","","131121","","東京都世田谷区若林4-22-13","東京都","世田谷区","若林4丁目","22-13","","35.644434","139.65357","","","","","","","","1540023","","","","","","","","","","","","","","","","","","","","","","","","","","","","区分所有"
"131121","131121000196","世田谷区","砧図書館","","","","","","","131121","","東京都世田谷区祖師谷3-10-4","東京都","世田谷区","祖師谷3丁目","10-4","","35.642226","139.604067","","","","","","","","1570072","","","","","","","","","","","","","","","","","","","","","","","","","","","",""
"131121","131121000197","世田谷区","奥沢図書館（複合施設）","","","","","","","131121","","東京都世田谷区奥沢3-47-8","東京都","世田谷区","奥沢3丁目","47-8","","35.603624","139.672397","","","","","","","","1580083","","","","","","","","","","","","","","","","","","","","","","","","","","","","区分所有・一時移転中"
"131121","131121000198","世田谷区","玉川台図書館（複合施設）","","","","","","","131121","","東京都世田谷区玉川台1-6-15","東京都","世田谷区","玉川台1丁目","6-15","","35.622935","139.633048","","","","","","","","1580096","","","","","","","","","","","","","","","","","","","","","","","","","","","",""
"131121","131121000199","世田谷区","代田図書館（複合施設）","","","","","","","131121","","東京都世田谷区代田6-34-13","東京都","世田谷区","代田6丁目","34-13","","35.662869","139.660648","","","","","","","","1550033","","","","","","","","","","","","","","","","","","","","","","","","","","","",""
"131121","131121000200","世田谷区","烏山図書館（複合施設）","","","","","","","131121","","東京都世田谷区南烏山6-2-19","東京都","世田谷区","南烏山6丁目","2-19","","35.668837","139.600537","","","","","","","","1570062","","","","","","","","","","","","","","","","","","","","","","","","","","","",""
"131121","131121000201","世田谷区","下馬図書館","","","","","","","131121","","東京都世田谷区下馬2-32-1","東京都","世田谷区","下馬2丁目","32-1","","35.641494","139.676265","","","","","","","","1540002","","","","","","","","","","","","","","","","","","","","","","","","","","","",""
"131121","131121000202","世田谷区","深沢図書館（複合施設）","","","","","","","131121","","東京都世田谷区深沢4-33-11","東京都","世田谷区","深沢4丁目","33-11","","35.620194","139.65387","","","","","","","","1580081","","","","","","","","","","","","","","","","","","","","","","","","","","","",""
"131121","131121000203","世田谷区","桜丘図書館（複合施設）","","","","","","","131121","","東京都世田谷区桜丘5-14-1","東京都","世田谷区","桜丘5丁目","14-1","","35.644782","139.622143","","","","","","","","1560054","","","","","","","","","","","","","","","","","","","","","","","","","","","",""
"131121","131121000204","世田谷区","尾山台図書館（複合施設）","","","","","","","131121","","東京都世田谷区等々力2-17-14","東京都","世田谷区","等々力2丁目","17-14","","35.605757","139.652395","","","","","","","","1580082","","","","","","","","","","","","","","","","","","","","","","","","","","","",""
"131121","131121000205","世田谷区","上北沢図書館（複合施設）","","","","","","","131121","","東京都世田谷区上北沢3-8-9","東京都","世田谷区","上北沢3丁目","8-9","","35.667566","139.625565","","","","","","","","1560057","","","","","","","","","","","","","","","","","","","","","","","","","","","",""
"131121","131121000206","世田谷区","粕谷図書館（複合施設）","","","","","","","131121","","東京都世田谷区粕谷4-13-6","東京都","世田谷区","粕谷4丁目","13-6","","35.663097","139.605159","","","","","","","","1570063","","","","","","","","","","","","","","","","","","","","","","","","","","","",""
"131121","131121000207","世田谷区","鎌田図書館（複合施設）","","","","","","","131121","","東京都世田谷区鎌田3-35-1","東京都","世田谷区","鎌田3丁目","35-1","","35.622285","139.613512","","","","","","","","1570077","","","","","","","","","","","","","","","","","","","","","","","","","","","",""
"131121","131121000208","世田谷区","経堂図書館","","","","","","","131121","","東京都世田谷区宮坂3-1-30","東京都","世田谷区","宮坂3丁目","1-30","","35.651514","139.637763","","","","","","","","1560051","","","","","","","","","","","","","","","","","","","","","","","","","","","",""
"131121","131121000209","世田谷区","池尻図書室（複合施設）","","","","","","","131121","","東京都世田谷区池尻3-27-21","東京都","世田谷区","池尻3丁目","27-21","","35.649821","139.67869","","","","","","","","1540001","","","","","","","","","","","","","","","","","","","","","","","","","","","",""
"131121","131121000210","世田谷区","希望丘図書室","","","","","","","131121","","東京都世田谷区船橋7-8-4","東京都","世田谷区","船橋7丁目","8-4","","35.659141","139.618725","","","","","","","","1560055","","","","","","","","","","","","","","","","","","","","","","","","","","","",""
"131121","131121000211","世田谷区","野毛図書室","","","","","","","131121","","東京都世田谷区野毛2-15-19","東京都","世田谷区","野毛2丁目","15-19","","35.603223","139.641631","","","","","","","","1580092","","","","","","","","","","","","","","","","","","","","","","","","","","","","一部を野毛青少年交流センター別館として利用中"
"131121","131121000212","世田谷区","松沢図書室（複合施設）","","","","","","","131121","","東京都世田谷区赤堤5-31-5","東京都","世田谷区","赤堤5丁目","31-5","","35.665384","139.638033","","","","","","","","1560044","","","","","","","","","","","","","","","","","","","","","","","","","","","",""
"131121","131121000213","世田谷区","喜多見図書室（複合施設）","","","","","","","131121","","東京都世田谷区喜多見5-11-10","東京都","世田谷区","喜多見5丁目","11-10","","35.628916","139.601209","","","","","","","","1570067","","","","","","","","","","","","","","","","","","","","","","","","","","","",""
"131121","131121000214","世田谷区","図書館カウンター二子玉川","","","","","","","131121","","東京都世田谷区玉川1-14-1二子玉川ライズショッピングセンターテラスマーケット2階","東京都","世田谷区","玉川1丁目","14-1 二子玉川ライズショッピングセンターテラスマーケット2階","","35.610476","139.630099","階数","2","","","","","","1580094","","","","","","","","","","","","","","","","","","","","","","","","","","","",""
"131121","131121000215","世田谷区","図書館カウンター三軒茶屋（複合施設）","","","","","","","131121","","東京都世田谷区太子堂4-3-1STKハイツ","東京都","世田谷区","太子堂4丁目","3-1 STKハイツ","","35.64337","139.668554","","","","","","","","1540004","","","","","","","","","","","","","","","","","","","","","","","","","","","",""
"131121","131121000216","世田谷区","図書館カウンター下北沢","","","","","","","131121","","東京都世田谷区北沢2-6-4ミカン下北E-102","東京都","世田谷区","北沢2丁目","6-4 ミカン下北E-102","","35.661297","139.669171","階数","1","","","","","","1550031","","","","","","","","","","","","","","","","","","","","","","","","","","","",""
"131121","131121000217","世田谷区","向井潤吉アトリエ館","","","","","","","131121","","東京都世田谷区弦巻2-5-1","東京都","世田谷区","弦巻2丁目","5-1","","35.63562","139.65548","","","","","","","","1540016","","","","","","","","","","","","","","","","","","","","","","","","","","","",""
"131121","131121000218","世田谷区","宮本三郎記念美術館","","","","","","","131121","","東京都世田谷区奥沢5-38-13","東京都","世田谷区","奥沢5丁目","38-13","","35.604428","139.666367","","","","","","","","1580083","","","","","","","","","","","","","","","","","","","","","","","","","","","",""
"131121","131121000219","世田谷区","清川泰次記念ギャラリー","","","","","","","131121","","東京都世田谷区成城2-22-17","東京都","世田谷区","成城2丁目","22-17","","35.638517","139.600784","","","","","","","","1570066","","","","","","","","","","","","","","","","","","","","","","","","","","","",""
"131121","131121000220","世田谷区","世田谷美術館","","","","","","","131121","","東京都世田谷区砧公園1-2","東京都","世田谷区","砧公園","1-2","","35.631618","139.621689","","","","","","","","1570075","","","","","","","","","","","","","","","","","","","","","","","","","","","",""
"131121","131121000221","世田谷区","世田谷文学館","","","","","","","131121","","東京都世田谷区南烏山1-10-10","東京都","世田谷区","南烏山1丁目","10-10","","35.667056","139.608844","","","","","","","","1570062","","","","","","","","","","","","","","","","","","","","","","","","","","","",""
"131121","131121000222","世田谷区","郷土資料館","","","","","","","131121","","東京都世田谷区世田谷1-29-18","東京都","世田谷区","世田谷1丁目","29-18","","35.640998","139.647189","","","","","","","","1540017","","","","","","","","","","","","","","","","","","","","","","","","","","","",""
"131121","131121000223","世田谷区","平和資料館（せたがや未来の平和館）（複合施設）","","","","","","","131121","","東京都世田谷区池尻1-5-27","東京都","世田谷区","池尻1丁目","5-27","","35.644306","139.680704","","","","","","","","1540001","","","","","","","","","","","","","","","","","","","","","","","","","","","","平和資料館棟 平成27年竣工"
"131121","131121000224","世田谷区","宇奈根考古資料室","","","","","","","131121","","東京都世田谷区宇奈根1-8-21","東京都","世田谷区","宇奈根1丁目","8-21","","35.620219","139.603833","","","","","","","","1570068","","","","","","","","","","","","","","","","","","","","","","","","","","","",""
"131121","131121000225","世田谷区","宇奈根考古資料室分室","","","","","","","131121","","東京都世田谷区宇奈根1-9-3","東京都","世田谷区","宇奈根1丁目","9-3","","35.620361","139.604087","","","","","","","","1570068","","","","","","","","","","","","","","","","","","","","","","","","","","","",""
"131121","131121000226","世田谷区","池之上青少年交流センター","","","","","","","131121","","東京都世田谷区代沢2-37-18","東京都","世田谷区","代沢2丁目","37-18","","35.659367","139.673365","","","","","","","","1550032","","","","","","","","","","","","","","","","","","","","","","","","","","","",""
"131121","131121000227","世田谷区","野毛青少年交流センター","","","","","","","131121","","東京都世田谷区野毛2-15-19","東京都","世田谷区","野毛2丁目","15-19","","35.603223","139.641631","","","","","","","","1580092","","","","","","","","","","","","","","","","","","","","","","","","","","","","別館は野毛図書室に含む"
"131121","131121000228","世田谷区","希望丘青少年交流センター「アップス」（複合施設）","","","","","","","131121","","東京都世田谷区船橋6-25-1","東京都","世田谷区","船橋6丁目","25-1","","35.659021","139.620796","","","","","","","","1560055","","","","","","","","","","","","","","","","","","","","","","","","","","","","複合施設棟 平成31年竣工"
"131121","131121000229","世田谷区","市民大学・生涯大学（複合施設）","","","","","","","131121","","東京都世田谷区池尻2-3-11","東京都","世田谷区","池尻2丁目","3-11","","35.646608","139.682525","","","","","","","","1540001","","","","","","","","","","","","","","","","","","","","","","","","","","","",""
"131121","131121000230","世田谷区","男女共同参画センター“らぷらす”","","","","","","","131121","","東京都世田谷区太子堂1-12-40グレート王寿ビル","東京都","世田谷区","太子堂1丁目","12-40 グレート王寿ビル","","35.645246","139.674986","","","","","","","","1540004","","","","","","","","","","","","","","","","","","","","","","","","","","","",""
"131121","131121000231","世田谷区","世田谷文化生活情報センター（複合施設）","","","","","","","131121","","東京都世田谷区太子堂4-1-1","東京都","世田谷区","太子堂4丁目","1-1","","35.643681","139.669084","","","","","","","","1540004","","","","","","","","","","","","","","","","","","","","","","","","","","","","区分所有"
"131121","131121000232","世田谷区","中央図書館プラネタリウム（複合施設）","","","","","","","131121","","東京都世田谷区弦巻3-16-8","東京都","世田谷区","弦巻3丁目","16-8","","35.63769","139.644325","","","","","","","","1540016","","","","","","","","","","","","","","","","","","","","","","","","","","","",""
"131121","131121000233","世田谷区","教育総合センター（複合施設）","","","","","","","131121","","東京都世田谷区若林5-38-1","東京都","世田谷区","若林5丁目","38-1","","35.65049","139.658976","","","","","","","","1540023","","","","","","","","","","","","","","","","","","","","","","","","","","","",""
"131121","131121000234","世田谷区","岡本公園民家園","","","","","","","131121","","東京都世田谷区岡本2-19-1","東京都","世田谷区","岡本2丁目","19-1","","35.622377","139.617802","","","","","","","","1570076","","","","","","","","","","","","","","","","","","","","","","","","","","","",""
"131121","131121000235","世田谷区","次大夫堀公園民家園","","","","","","","131121","","東京都世田谷区喜多見5-27-14","東京都","世田谷区","喜多見5丁目","27-14","","35.63015","139.599145","","","","","","","","1570067","","","","","","","","","","","","","","","","","","","","","","","","","","","",""
"131121","131121000236","世田谷区","池尻小学校第２体育館（複合施設）","","","","","","","131121","","東京都世田谷区池尻2-4-10","東京都","世田谷区","池尻2丁目","4-10","","35.646017","139.679688","","","","","","","","1540001","","","","","","","","","","","","","","","","","","","","","","","","","","","","体育館棟 平成4年竣工"
"131121","131121000237","世田谷区","こどものひろば公園野球場","","","","","","","131121","","東京都世田谷区下馬2-31-4","東京都","世田谷区","下馬2丁目","31-4","","35.64259","139.678656","","","","","","","","1540002","","","","","","","","","","","","","","","","","","","","","","","","","","","",""
"131121","131121000238","世田谷区","世田谷公園水泳場（複合施設）","","","","","","","131121","","東京都世田谷区池尻1-5-27","東京都","世田谷区","池尻1丁目","5-27","","35.644306","139.680704","","","","","","","","1540001","","","","","","","","","","","","","","","","","","","","","","","","","","","","プール監視棟 昭和60年竣工"
"131121","131121000239","世田谷区","世田谷公園スポーツ施設（複合施設）","","","","","","","131121","","東京都世田谷区池尻1-5-27","東京都","世田谷区","池尻1丁目","5-27","","35.644306","139.680704","","","","","","","","1540001","","","","","","","","","","","","","","","","","","","","","","","","","","","","事務所棟 平成28年竣工"
"131121","131121000240","世田谷区","太子堂中学校温水プール（複合施設）","","","","","","","131121","","東京都世田谷区太子堂3-27-17","東京都","世田谷区","太子堂3丁目","27-17","","35.650179","139.668966","","","","","","","","1540004","","","","","","","","","","","","","","","","","","","","","","","","","","","","プール体育館棟 昭和57年竣工"
"131121","131121000241","世田谷区","弦巻中学校トレーニングルーム（複合施設）","","","","","","","131121","","東京都世田谷区弦巻1-42-22","東京都","世田谷区","弦巻1丁目","42-22","","35.637328","139.649398","","","","","","","","1540016","","","","","","","","","","","","","","","","","","","","","","","","","","","","プール特別教室棟 昭和58年竣工"
"131121","131121000242","世田谷区","梅丘中学校温水プール（複合施設）","","","","","","","131121","","東京都世田谷区松原6-5-11","東京都","世田谷区","松原6丁目","5-11","","35.658793","139.652254","","","","","","","","1560043","","","","","","","","","","","","","","","","","","","","","","","","","","","","プール棟 平成16年竣工"
"131121","131121000243","世田谷区","羽根木公園スポーツ施設（複合施設）","","","","","","","131121","","東京都世田谷区代田4-38-52","東京都","世田谷区","代田4丁目","38-52","","35.658004","139.653219","","","","","","","","1550033","","","","","","","","","","","","","","","","","","","","","","","","","","","",""
"131121","131121000244","世田谷区","尾山台地域体育館（複合施設）","","","","","","","131121","","東京都世田谷区尾山台3-19-3","東京都","世田谷区","尾山台3丁目","19-3","","35.604984","139.65415","","","","","","","","1580086","","","","","","","","","","","","","","","","","","","","","","","","","","","",""
"131121","131121000245","世田谷区","多摩川玉堤広場スポーツ施設","","","","","","","131121","","東京都世田谷区玉堤1-5-1","東京都","世田谷区","玉堤1丁目","5-1","","35.59336","139.655232","","","","","","","","1580087","","","","","","","","","","","","","","","","","","","","","","","","","","","",""
"131121","131121000246","世田谷区","玉川中学校温水プール（複合施設）","","","","","","","131121","","東京都世田谷区中町4-21-1","東京都","世田谷区","中町4丁目","21-1","","35.616941","139.643537","","","","","","","","1580091","","","","","","","","","","","","","","","","","","","","","","","","","","","","プール棟 平成7年竣工"
"131121","131121000247","世田谷区","玉川野毛町公園水泳場（複合施設）","","","","","","","131121","","東京都世田谷区野毛1-25-1","東京都","世田谷区","野毛1丁目","25-1","","35.605678","139.643336","","","","","","","","1580092","","","","","","","","","","","","","","","","","","","","","","","","","","","","水泳場 昭和48年竣工"
"131121","131121000248","世田谷区","玉川野毛町公園スポーツ施設（複合施設）","","","","","","","131121","","東京都世田谷区野毛1-25-1","東京都","世田谷区","野毛1丁目","25-1","","35.605678","139.643336","","","","","","","","1580092","","","","","","","","","","","","","","","","","","","","","","","","","","","",""
"131121","131121000249","世田谷区","大蔵運動場（総合運動場）（複合施設）","","","","","","","131121","","東京都世田谷区大蔵4-6-1","東京都","世田谷区","大蔵4丁目","6-1","","35.628904","139.612002","","","","","","","","1570074","","","","","","","","","","","","","","","","","","","","","","","","","","","","観覧場他 令和1年竣工"
"131121","131121000250","世田谷区","大蔵運動場温水プール（総合運動場温水プール）","","","","","","","131121","","東京都世田谷区大蔵4-6-1","東京都","世田谷区","大蔵4丁目","6-1","","35.628904","139.612002","","","","","","","","1570074","","","","","","","","","","","","","","","","","","","","","","","","","","","",""
"131121","131121000251","世田谷区","大蔵第二運動場（複合施設）","","","","","","","131121","","東京都世田谷区大蔵4-7-1","東京都","世田谷区","大蔵4丁目","7-1","","35.631475","139.614734","","","","","","","","1570074","","","","","","","","","","","","","","","","","","","","","","","","","","","",""
"131121","131121000252","世田谷区","大蔵第二運動場屋外プール（複合施設）","","","","","","","131121","","東京都世田谷区大蔵4-7-1","東京都","世田谷区","大蔵4丁目","7-1","","35.631475","139.614734","","","","","","","","1570074","","","","","","","","","","","","","","","","","","","","","","","","","","","","プール棟 昭和63年竣工"
"131121","131121000253","世田谷区","希望丘地域体育館（複合施設）","","","","","","","131121","","東京都世田谷区船橋6-25-1","東京都","世田谷区","船橋6丁目","25-1","","35.659021","139.620796","","","","","","","","1560055","","","","","","","","","","","","","","","","","","","","","","","","","","","",""
"131121","131121000254","世田谷区","千歳温水プール","","","","","","","131121","","東京都世田谷区船橋7-9-1","東京都","世田谷区","船橋7丁目","9-1","","35.65915","139.61651","","","","","","","","1560055","","","","","","","","","","","","","","","","","","","","","","","","","","","",""
"131121","131121000255","世田谷区","二子玉川緑地運動場","","","","","","","131121","","東京都世田谷区鎌田1-3-5","東京都","世田谷区","鎌田1丁目","3-5","","35.616674","139.619097","","","","","","","","1570077","","","","","","","","","","","","","","","","","","","","","","","","","","","",""
"131121","131121000256","世田谷区","烏山中学校温水プール（複合施設）","","","","","","","131121","","東京都世田谷区南烏山4-26-1","東京都","世田谷区","南烏山4丁目","26-1","","35.672001","139.600926","","","","","","","","1570062","","","","","","","","","","","","","","","","","","","","","","","","","","","",""
"131121","131121000257","世田谷区","烏山中学校クライミングウォール（複合施設）","","","","","","","131121","","東京都世田谷区南烏山4-26-1","東京都","世田谷区","南烏山4丁目","26-1","","35.672001","139.600926","","","","","","","","1570062","","","","","","","","","","","","","","","","","","","","","","","","","","","",""
"131121","131121000258","世田谷区","北烏山地区体育室","","","","","","","131121","","東京都世田谷区北烏山8-1-6","東京都","世田谷区","北烏山8丁目","1-6","","35.674802","139.591804","","","","","","","","1570061","","","","","","","","","","","","","","","","","","","","","","","","","","","",""
"131121","131121000259","世田谷区","八幡山小学校地域体育館（複合施設）","","","","","","","131121","","東京都世田谷区八幡山1-14-1","東京都","世田谷区","八幡山1丁目","14-1","","35.662083","139.621705","","","","","","","","1560056","","","","","","","","","","","","","","","","","","","","","","","","","","","",""
"131121","131121000260","世田谷区","エコプラザ用賀・用賀粗大ごみ中継所","","","","","","","131121","","東京都世田谷区用賀4-7-1","東京都","世田谷区","用賀4丁目","7-1","","35.626894","139.630535","","","","","","","","1580097","","","","","","","","","","","","","","","","","","","","","","","","","","","",""
"131121","131121000261","世田谷区","喜多見資源化センター","","","","","","","131121","","東京都世田谷区喜多見1-2-20先","東京都","世田谷区","喜多見1丁目","2-20 先","","35.621313","139.598148","","","","","","","","1570067","","","","","","","","","","","","","","","","","","","","","","","","","","","",""
"131121","131121000262","世田谷区","希望丘中継所（複合施設）","","","","","","","131121","","東京都世田谷区船橋7-21-15","東京都","世田谷区","船橋7丁目","21-15","","35.65896","139.615678","","","","","","","","1560055","","","","","","","","","","","","","","","","","","","","","","","","","","","",""
"131121","131121000263","世田谷区","資源循環センター（リセタ）","","","","","","","131121","","東京都世田谷区大蔵1-1-12","東京都","世田谷区","大蔵1丁目","1-12","","35.632436","139.622381","","","","","","","","1570074","","","","","","","","","","","","","","","","","","","","","","","","","","","",""
"131121","131121000264","世田谷区","船橋粗大ごみ中継所（複合施設）","","","","","","","131121","","東京都世田谷区船橋7-21-15","東京都","世田谷区","船橋7丁目","21-15","","35.65896","139.615678","","","","","","","","1560055","","","","","","","","","","","","","","","","","","","","","","","","","","","",""
"131121","131121000265","世田谷区","リサイクル千歳台","","","","","","","131121","","東京都世田谷区千歳台1-1-5","東京都","世田谷区","千歳台1丁目","1-5","","35.645611","139.617019","","","","","","","","1570071","","","","","","","","","","","","","","","","","","","","","","","","","","","","区分所有"
"131121","131121000266","世田谷区","特別養護老人ホームきたざわ苑（複合施設）","","","","","","","131121","","東京都世田谷区北沢5-24-18","東京都","世田谷区","北沢5丁目","24-18","","35.669971","139.671303","","","","","","","","1550031","","","","","","","","","","","","","","","","","","","","","","","","","","","","定員：100人"
"131121","131121000267","世田谷区","特別養護老人ホーム上北沢ホーム（複合施設）","","","","","","","131121","","東京都世田谷区上北沢1-28-17","東京都","世田谷区","上北沢1丁目","28-17","","35.663528","139.626286","","","","","","","","1560057","","","","","","","","","","","","","","","","","","","","","","","","","","","","定員：100人"
"131121","131121000268","世田谷区","特別養護老人ホーム芦花ホーム（複合施設）","","","","","","","131121","","東京都世田谷区粕谷2-23-1","東京都","世田谷区","粕谷2丁目","23-1","","35.665862","139.609843","","","","","","","","1570063","","","","","","","","","","","","","","","","","","","","","","","","","","","","定員：103人"
"131121","131121000269","世田谷区","池尻あんしんすこやかセンター（複合施設）","","","","","","","131121","","東京都世田谷区池尻3-27-21","東京都","世田谷区","池尻3丁目","27-21","","35.649821","139.67869","","","","","","","","1540001","","","","","","","","","","","","","","","","","","","","","","","","","","","",""
"131121","131121000270","世田谷区","上馬あんしんすこやかセンター（複合施設）","","","","","","","131121","","東京都世田谷区上馬4-10-17","東京都","世田谷区","上馬4丁目","10-17","","35.635039","139.662542","","","","","","","","1540011","","","","","","","","","","","","","","","","","","","","","","","","","","","",""
"131121","131121000271","世田谷区","上町あんしんすこやかセンター（複合施設）","","","","","","","131121","","東京都世田谷区世田谷1-23-5","東京都","世田谷区","世田谷1丁目","23-5","","35.641906","139.647502","","","","","","","","1540017","","","","","","","","","","","","","","","","","","","","","","","","","","","",""
"131121","131121000272","世田谷区","経堂あんしんすこやかセンター（複合施設）","","","","","","","131121","","東京都世田谷区宮坂1-44-29","東京都","世田谷区","宮坂1丁目","44-29","","35.650582","139.641481","","","","","","","","1560051","","","","","","","","","","","","","","","","","","","","","","","","","","","",""
"131121","131121000273","世田谷区","下馬あんしんすこやかセンター（複合施設）","","","","","","","131121","","東京都世田谷区下馬4-13-4","東京都","世田谷区","下馬4丁目","13-4","","35.635975","139.679084","","","","","","","","1540002","","","","","","","","","","","","","","","","","","","","","","","","","","","",""
"131121","131121000274","世田谷区","太子堂あんしんすこやかセンター（複合施設）","","","","","","","131121","","東京都世田谷区太子堂2-17-1","東京都","世田谷区","太子堂2丁目","17-1","","35.644777","139.671139","","","","","","","","1540004","","","","","","","","","","","","","","","","","","","","","","","","","","","",""
"131121","131121000275","世田谷区","若林あんしんすこやかセンター（複合施設）","","","","","","","131121","","東京都世田谷区若林1-34-2","東京都","世田谷区","若林1丁目","34-2","","35.646106","139.66376","","","","","","","","1540023","","","","","","","","","","","","","","","","","","","","","","","","","","","",""
"131121","131121000276","世田谷区","梅丘あんしんすこやかセンター（複合施設）","","","","","","","131121","","東京都世田谷区梅丘1-61-16","東京都","世田谷区","梅丘1丁目","61-16","","35.653407","139.652326","","","","","","","","1540022","","","","","","","","","","","","","","","","","","","","","","","","","","","",""
"131121","131121000277","世田谷区","北沢あんしんすこやかセンター（複合施設）","","","","","","","131121","","東京都世田谷区北沢2-8-18","東京都","世田谷区","北沢2丁目","8-18","","35.662208","139.66972","","","","","","","","1550031","","","","","","","","","","","","","","","","","","","","","","","","","","","","区分所有・一部借上"
"131121","131121000278","世田谷区","新代田あんしんすこやかセンター（複合施設）","","","","","","","131121","","東京都世田谷区羽根木1-6-14","東京都","世田谷区","羽根木1丁目","6-14","","35.66454","139.660427","","","","","","","","1560042","","","","","","","","","","","","","","","","","","","","","","","","","","","",""
"131121","131121000279","世田谷区","代沢あんしんすこやかセンター（複合施設）","","","","","","","131121","","東京都世田谷区代沢5-1-15","東京都","世田谷区","代沢5丁目","1-15","","35.654901","139.66779","","","","","","","","1550032","","","","","","","","","","","","","","","","","","","","","","","","","","","",""
"131121","131121000280","世田谷区","松沢あんしんすこやかセンター（複合施設）","","","","","","","131121","","東京都世田谷区赤堤5-31-5","東京都","世田谷区","赤堤5丁目","31-5","","35.665384","139.638033","","","","","","","","1560044","","","","","","","","","","","","","","","","","","","","","","","","","","","",""
"131121","131121000281","世田谷区","松原あんしんすこやかセンター（複合施設）","","","","","","","131121","","東京都世田谷区松原5-43-28","東京都","世田谷区","松原5丁目","43-28","","35.66465","139.651171","","","","","","","","1560043","","","","","","","","","","","","","","","","","","","","","","","","","","","","複合施設棟 令和4年竣工"
"131121","131121000282","世田谷区","奥沢あんしんすこやかセンター（複合施設）","","","","","","","131121","","東京都世田谷区奥沢3-15-7","東京都","世田谷区","奥沢3丁目","15-7","","35.600773","139.672945","","","","","","","","1580083","","","","","","","","","","","","","","","","","","","","","","","","","","","",""
"131121","131121000283","世田谷区","上野毛あんしんすこやかセンター（複合施設）","","","","","","","131121","","東京都世田谷区中町2-33-11","東京都","世田谷区","中町2丁目","33-11","","35.611404","139.641027","","","","","","","","1580091","","","","","","","","","","","","","","","","","","","","","","","","","","","",""
"131121","131121000284","世田谷区","九品仏あんしんすこやかセンター（複合施設）","","","","","","","131121","","東京都世田谷区奥沢7-35-4","東京都","世田谷区","奥沢7丁目","35-4","","35.606917","139.661764","","","","","","","","1580083","","","","","","","","","","","","","","","","","","","","","","","","","","","",""
"131121","131121000285","世田谷区","等々力あんしんすこやかセンター（複合施設）","","","","","","","131121","","東京都世田谷区等々力3-4-1","東京都","世田谷区","等々力3丁目","4-1","","35.608582","139.648462","","","","","","","","1580082","","","","","","","","","","","","","","","","","","","","","","","","","","","",""
"131121","131121000286","世田谷区","深沢あんしんすこやかセンター（複合施設）","","","","","","","131121","","東京都世田谷区駒沢4-33-12","東京都","世田谷区","駒沢4丁目","33-12","","35.62792","139.652654","","","","","","","","1540012","","","","","","","","","","","","","","","","","","","","","","","","","","","",""
"131121","131121000287","世田谷区","二子玉川あんしんすこやかセンター（複合施設）","","","","","","","131121","","東京都世田谷区玉川4-4-5","東京都","世田谷区","玉川4丁目","4-5","","35.615468","139.626705","","","","","","","","1580094","","","","","","","","","","","","","","","","","","","","","","","","","","","",""
"131121","131121000288","世田谷区","用賀あんしんすこやかセンター（複合施設）","","","","","","","131121","","東京都世田谷区用賀2-29-22","東京都","世田谷区","用賀2丁目","29-22","","35.62561","139.636452","","","","","","","","1580097","","","","","","","","","","","","","","","","","","","","","","","","","","","",""
"131121","131121000289","世田谷区","喜多見あんしんすこやかセンター（複合施設）","","","","","","","131121","","東京都世田谷区喜多見5-11-10","東京都","世田谷区","喜多見5丁目","11-10","","35.628916","139.601209","","","","","","","","1570067","","","","","","","","","","","","","","","","","","","","","","","","","","","",""
"131121","131121000290","世田谷区","砧あんしんすこやかセンター（複合施設）","","","","","","","131121","","東京都世田谷区砧5-8-18","東京都","世田谷区","砧5丁目","8-18","","35.637791","139.610003","","","","","","","","1570073","","","","","","","","","","","","","","","","","","","","","","","","","","","",""
"131121","131121000291","世田谷区","成城あんしんすこやかセンター（複合施設）","","","","","","","131121","","東京都世田谷区成城6-3-10","東京都","世田谷区","成城6丁目","3-10","","35.640809","139.600514","","","","","","","","1570066","","","","","","","","","","","","","","","","","","","","","","","","","","","",""
"131121","131121000292","世田谷区","祖師谷あんしんすこやかセンター（複合施設）","","","","","","","131121","","東京都世田谷区祖師谷4-1-23","東京都","世田谷区","祖師谷4丁目","1-23","","35.646928","139.608218","","","","","","","","1570072","","","","","","","","","","","","","","","","","","","","","","","","","","","",""
"131121","131121000293","世田谷区","船橋あんしんすこやかセンター（複合施設）","","","","","","","131121","","東京都世田谷区船橋4-3-2","東京都","世田谷区","船橋4丁目","3-2","","35.655308","139.622534","","","","","","","","1560055","","","","","","","","","","","","","","","","","","","","","","","","","","","",""
"131121","131121000294","世田谷区","上北沢あんしんすこやかセンター（複合施設）","","","","","","","131121","","東京都世田谷区上北沢4-32-9","東京都","世田谷区","上北沢4丁目","32-9","","35.669968","139.617974","","","","","","","","1560057","","","","","","","","","","","","","","","","","","","","","","","","","","","",""
"131121","131121000295","世田谷区","上祖師谷あんしんすこやかセンター（複合施設）","","","","","","","131121","","東京都世田谷区上祖師谷2-7-6","東京都","世田谷区","上祖師谷2丁目","7-6","","35.6571","139.599674","","","","","","","","1570065","","","","","","","","","","","","","","","","","","","","","","","","","","","",""
"131121","131121000296","世田谷区","烏山あんしんすこやかセンター（複合施設）","","","","","","","131121","","東京都世田谷区南烏山6-2-19","東京都","世田谷区","南烏山6丁目","2-19","","35.668837","139.600537","","","","","","","","1570062","","","","","","","","","","","","","","","","","","","","","","","","","","","",""
"131121","131121000297","世田谷区","上馬高齢者集会所（複合施設）","","","","","","","131121","","東京都世田谷区上馬4-36-9","東京都","世田谷区","上馬4丁目","36-9","","35.638515","139.659944","","","","","","","","1540011","","","","","","","","","","","","","","","","","","","","","","","","","","","",""
"131121","131121000298","世田谷区","健康増進・交流施設（せたがや（複合施設）","","","","","","","131121","","東京都世田谷区池尻2-3-11","東京都","世田谷区","池尻2丁目","3-11","","35.646608","139.682525","","","","","","","","1540001","","","","","","","","","","","","","","","","","","","","","","","","","","","",""
"131121","131121000299","世田谷区","桜高齢者集会所","","","","","","","131121","","東京都世田谷区桜1-2-19","東京都","世田谷区","桜1丁目","2-19","","35.645766","139.646199","","","","","","","","1560053","","","","","","","","","","","","","","","","","","","","","","","","","","","",""
"131121","131121000300","世田谷区","シルバー人材センター（複合施設）","","","","","","","131121","","東京都世田谷区宮坂1-24-6","東京都","世田谷区","宮坂1丁目","24-6","","35.647725","139.644755","","","","","","","","1560051","","","","","","","","","","","","","","","","","","","","","","","","","","","",""
"131121","131121000301","世田谷区","ひだまり友遊会館（複合施設）","","","","","","","131121","","東京都世田谷区若林4-37-8","東京都","世田谷区","若林4丁目","37-8","","35.647815","139.656649","","","","","","","","1540023","","","","","","","","","","","","","","","","","","","","","","","","","","","",""
"131121","131121000302","世田谷区","優っくり看護小規模多機能介護三軒茶屋（複合施設）","","","","","","","131121","","東京都世田谷区三軒茶屋2-32-14","東京都","世田谷区","三軒茶屋2丁目","32-14","","35.64077","139.665786","","","","","","","","1540024","","","","","","","","","","","","","","","","","","","","","","","","","","","",""
"131121","131121000303","世田谷区","梅丘一丁目高齢者就業施設（自転車等駐車場管理センター）","","","","","","","131121","","東京都世田谷区梅丘1-43-42","東京都","世田谷区","梅丘1丁目","43-42","","35.655654","139.65216","","","","","","","","1540022","","","","","","","","","","","","","","","","","","","","","","","","","","","",""
"131121","131121000304","世田谷区","梅丘高齢者在宅サービスセンター（複合施設）","","","","","","","131121","","東京都世田谷区松原6-5-11","東京都","世田谷区","松原6丁目","5-11","","35.658793","139.652254","","","","","","","","1560043","","","","","","","","","","","","","","","","","","","","","","","","","","","","プール棟 平成16年竣工"
"131121","131121000305","世田谷区","土と農の交流園","","","","","","","131121","","東京都世田谷区桜上水2-11-1","東京都","世田谷区","桜上水2丁目","11-1","","35.658943","139.627882","","","","","","","","1560045","","","","","","","","","","","","","","","","","","","","","","","","","","","",""
"131121","131121000306","世田谷区","認知症在宅生活サポートセンター（複合施設）","","","","","","","131121","","東京都世田谷区松原6-37-10","東京都","世田谷区","松原6丁目","37-10","","35.657543","139.649921","","","","","","","","1560043","","","","","","","","","","","","","","","","","","","","","","","","","","","","区分所有"
"131121","131121000307","世田谷区","シルバー人材センター用賀ワークプラザ","","","","","","","131121","","東京都世田谷区玉川台1-12-1","東京都","世田谷区","玉川台1丁目","12-1","","35.623599","139.632499","","","","","","","","1580096","","","","","","","","","","","","","","","","","","","","","","","","","","","",""
"131121","131121000308","世田谷区","小規模多機能型居宅介護（複合施設）","","","","","","","131121","","東京都世田谷区梅丘1-2-18","東京都","世田谷区","梅丘1丁目","2-18","","35.652715","139.652822","","","","","","","","1540022","","","","","","","","","","","","","","","","","","","","","","","","","","","",""
"131121","131121000309","世田谷区","訪問看護ステーションさぎそう（複合施設）","","","","","","","131121","","東京都世田谷区中町2-25-17","東京都","世田谷区","中町2丁目","25-17","","35.613234","139.643972","","","","","","","","1580091","","","","","","","","","","","","","","","","","","","","","","","","","","","",""
"131121","131121000310","世田谷区","烏山グループホームくつろぎ（複合施設）","","","","","","","131121","","東京都世田谷区南烏山4-28-3","東京都","世田谷区","南烏山4丁目","28-3","","35.67216","139.602724","","","","","","","","1570062","","","","","","","","","","","","","","","","","","","","","","","","","","","",""
"131121","131121000311","世田谷区","北烏山東敬老会館","","","","","","","131121","","東京都世田谷区北烏山2-2-6","東京都","世田谷区","北烏山2丁目","2-6","","35.679759","139.602243","","","","","","","","1570061","","","","","","","","","","","","","","","","","","","","","","","","","","","",""
"131121","131121000312","世田谷区","高齢者一時生活援助施設ほのぼの（複合施設）","","","","","","","131121","","東京都世田谷区南烏山4-28-3","東京都","世田谷区","南烏山4丁目","28-3","","35.67216","139.602724","","","","","","","","1570062","","","","","","","","","","","","","","","","","","","","","","","","","","","",""
"131121","131121000313","世田谷区","シルバー人材センター烏山支部","","","","","","","131121","","東京都世田谷区粕谷1-7-34","東京都","世田谷区","粕谷1丁目","7-34","","35.660692","139.611746","","","","","","","","1570063","","","","","","","","","","","","","","","","","","","","","","","","","","","",""
"131121","131121000314","世田谷区","夢のみずうみ村新樹苑","","","","","","","131121","","東京都世田谷区八幡山3-18-27","東京都","世田谷区","八幡山3丁目","18-27","","35.664557","139.615704","","","","","","","","1560056","","","","","","","","","","","","","","","","","","","","","","","","","","","",""
"131121","131121000315","世田谷区","デイ・ホーム池尻（複合施設）","","","","","","","131121","","東京都世田谷区池尻2-4-26","東京都","世田谷区","池尻2丁目","4-26","","35.646224","139.67956","","","","","","","","1540001","","","","","","","","","","","","","","","","","","","","","","","","","","","","建物全体面積は新ＢＯＰ部分を含んだ面積"
"131121","131121000316","世田谷区","デイ・ホーム上馬（複合施設）","","","","","","","131121","","東京都世田谷区上馬4-36-9","東京都","世田谷区","上馬4丁目","36-9","","35.638515","139.659944","","","","","","","","1540011","","","","","","","","","","","","","","","","","","","","","","","","","","","",""
"131121","131121000317","世田谷区","デイ・ホーム桜丘（複合施設）","","","","","","","131121","","東京都世田谷区桜丘1-19-22","東京都","世田谷区","桜丘1丁目","19-22","","35.64526","139.630161","","","","","","","","1560054","","","","","","","","","","","","","","","","","","","","","","","","","","","","建物全体面積は新ＢＯＰ部分を含んだ面積"
"131121","131121000318","世田谷区","デイ・ホーム世田谷（複合施設）","","","","","","","131121","","東京都世田谷区世田谷4-15-3","東京都","世田谷区","世田谷4丁目","15-3","","35.644448","139.650941","","","","","","","","1540017","","","","","","","","","","","","","","","","","","","","","","","","","","","",""
"131121","131121000319","世田谷区","デイ・ホーム太子堂（複合施設）","","","","","","","131121","","東京都世田谷区太子堂5-24-20","東京都","世田谷区","太子堂5丁目","24-20","","35.648475","139.664952","","","","","","","","1540004","","","","","","","","","","","","","","","","","","","","","","","","","","","",""
"131121","131121000320","世田谷区","デイ・ホーム弦巻（複合施設）","","","","","","","131121","","東京都世田谷区弦巻5-13-19","東京都","世田谷区","弦巻5丁目","13-19","","35.638364","139.641173","","","","","","","","1540016","","","","","","","","","","","","","","","","","","","","","","","","","","","",""
"131121","131121000321","世田谷区","デイ・ホーム中丸","","","","","","","131121","","東京都世田谷区野沢3-25-10","東京都","世田谷区","野沢3丁目","25-10","","35.632399","139.67486","","","","","","","","1540003","","","","","","","","","","","","","","","","","","","","","","","","","","","",""
"131121","131121000322","世田谷区","デイサービスセンターきたざわ苑（複合施設）","","","","","","","131121","","東京都世田谷区北沢5-24-18","東京都","世田谷区","北沢5丁目","24-18","","35.669971","139.671303","","","","","","","","1550031","","","","","","","","","","","","","","","","","","","","","","","","","","","",""
"131121","131121000323","世田谷区","デイ・ホーム赤堤（複合施設）","","","","","","","131121","","東京都世田谷区赤堤1-37-11","東京都","世田谷区","赤堤1丁目","37-11","","35.655294","139.638326","","","","","","","","1560044","","","","","","","","","","","","","","","","","","","","","","","","","","","",""
"131121","131121000324","世田谷区","デイ・ホーム松原（複合施設）","","","","","","","131121","","東京都世田谷区松原5-17-6","東京都","世田谷区","松原5丁目","17-6","","35.661243","139.648051","","","","","","","","1560043","","","","","","","","","","","","","","","","","","","","","","","","","","","",""
"131121","131121000325","世田谷区","デイ・ホーム上用賀（複合施設）","","","","","","","131121","","東京都世田谷区上用賀5-14-1-101","東京都","世田谷区","上用賀5丁目","14-1-101","","35.630095","139.625844","階数","1","","","","","","1580098","","","","","","","","","","","","","","","","","","","","","","","","","","","",""
"131121","131121000326","世田谷区","デイ・ホームたまがわ（複合施設）","","","","","","","131121","","東京都世田谷区野毛2-4-4","東京都","世田谷区","野毛2丁目","4-4","","35.600795","139.642655","","","","","","","","1580092","","","","","","","","","","","","","","","","","","","","","","","","","","","",""
"131121","131121000327","世田谷区","デイ・ホーム玉川田園調布","","","","","","","131121","","東京都世田谷区玉川田園調布2-16-12","東京都","世田谷区","玉川田園調布2丁目","16-12","","35.60288","139.665424","","","","","","","","1580085","","","","","","","","","","","","","","","","","","","","","","","","","","","",""
"131121","131121000328","世田谷区","デイ・ホーム等々力","","","","","","","131121","","東京都世田谷区等々力5-19-11","東京都","世田谷区","等々力5丁目","19-11","","35.610149","139.654494","","","","","","","","1580082","","","","","","","","","","","","","","","","","","","","","","","","","","","",""
"131121","131121000329","世田谷区","デイ・ホーム中町（複合施設）","","","","","","","131121","","東京都世田谷区中町4-15-6、21","東京都","世田谷区","中町4丁目","15-6、21","","35.617961","139.644841","","","","","","","","1580091","","","","","","","","","","","","","","","","","","","","","","","","","","","",""
"131121","131121000330","世田谷区","デイ・ホーム深沢（複合施設）","","","","","","","131121","","東京都世田谷区深沢4-17-1","東京都","世田谷区","深沢4丁目","17-1","","35.618482","139.653469","","","","","","","","1580081","","","","","","","","","","","","","","","","","","","","","","","","","","","",""
"131121","131121000331","世田谷区","鎌田ケアセンター（複合施設）","","","","","","","131121","","東京都世田谷区鎌田3-35-1","東京都","世田谷区","鎌田3丁目","35-1","","35.622285","139.613512","","","","","","","","1570077","","","","","","","","","","","","","","","","","","","","","","","","","","","",""
"131121","131121000332","世田谷区","食事サービスサポートセンター「だんらん」","","","","","","","131121","","東京都世田谷区鎌田3-13-1","東京都","世田谷区","鎌田3丁目","13-1","","35.620653","139.613687","","","","","","","","1570077","","","","","","","","","","","","","","","","","","","","","","","","","","","",""
"131121","131121000333","世田谷区","祖師谷ケアセンター（複合施設）","","","","","","","131121","","東京都世田谷区祖師谷4-28-6-101","東京都","世田谷区","祖師谷4丁目","28-6-101","","35.649694","139.606289","階数","1","","","","","","1570072","","","","","","","","","","","","","","","","","","","","","","","","","","","","区分所有"
"131121","131121000334","世田谷区","デイ・ホーム上北沢（複合施設）","","","","","","","131121","","東京都世田谷区上北沢1-28-17","東京都","世田谷区","上北沢1丁目","28-17","","35.663528","139.626286","","","","","","","","1560057","","","","","","","","","","","","","","","","","","","","","","","","","","","",""
"131121","131121000335","世田谷区","デイ・ホーム芦花（複合施設）","","","","","","","131121","","東京都世田谷区粕谷2-23-1","東京都","世田谷区","粕谷2丁目","23-1","","35.665862","139.609843","","","","","","","","1570063","","","","","","","","","","","","","","","","","","","","","","","","","","","",""
"131121","131121000336","世田谷区","池尻小学校ふれあいルーム（複合施設）","","","","","","","131121","","東京都世田谷区池尻2-4-5","東京都","世田谷区","池尻2丁目","4-5","","35.646258","139.680683","","","","","","","","1540001","","","","","","","","","","","","","","","","","","","","","","","","","","","",""
"131121","131121000337","世田谷区","上馬塩田ふれあいの家","","","","","","","131121","","東京都世田谷区上馬2-17-13","東京都","世田谷区","上馬2丁目","17-13","","35.638117","139.664922","","","","","","","","1540011","","","","","","","","","","","","","","","","","","","","","","","","","","","",""
"131121","131121000338","世田谷区","駒沢中学校支えあいルーム（複合施設）","","","","","","","131121","","東京都世田谷区駒沢2-39-25駒沢中学校舎内","東京都","世田谷区","駒沢2丁目","39-25 駒沢中学校舎内","","35.636447","139.655929","","","","","","","","1540012","","","","","","","","","","","","","","","","","","","","","","","","","","","",""
"131121","131121000339","世田谷区","下馬ふれあいルーム（複合施設）","","","","","","","131121","","東京都世田谷区下馬3-14-9","東京都","世田谷区","下馬3丁目","14-9","","35.635942","139.675404","","","","","","","","1540002","","","","","","","","","","","","","","","","","","","","","","","","","","","",""
"131121","131121000340","世田谷区","野沢ふれあいの家","","","","","","","131121","","東京都世田谷区野沢4-19-19","東京都","世田谷区","野沢4丁目","19-19","","35.632796","139.666457","","","","","","","","1540003","","","","","","","","","","","","","","","","","","","","","","","","","","","",""
"131121","131121000341","世田谷区","若林ふれあいルーム（複合施設）","","","","","","","131121","","東京都世田谷区若林4-37-8","東京都","世田谷区","若林4丁目","37-8","","35.647815","139.656649","","","","","","","","1540023","","","","","","","","","","","","","","","","","","","","","","","","","","","",""
"131121","131121000342","世田谷区","松原西ふれあいの家","","","","","","","131121","","東京都世田谷区松原3-22-10","東京都","世田谷区","松原3丁目","22-10","","35.665906","139.64488","","","","","","","","1560043","","","","","","","","","","","","","","","","","","","","","","","","","","","",""
"131121","131121000343","世田谷区","松原ふれあいルーム（複合施設）","","","","","","","131121","","東京都世田谷区松原5-43-28","東京都","世田谷区","松原5丁目","43-28","","35.66465","139.651171","","","","","","","","1560043","","","","","","","","","","","","","","","","","","","","","","","","","","","","複合施設棟 令和4年竣工"
"131121","131121000344","世田谷区","桜新町ふれあいルーム（複合施設）","","","","","","","131121","","東京都世田谷区桜新町1-30-14桜新町区民集会所1階","東京都","世田谷区","桜新町1丁目","30-14 桜新町区民集会所1階","","35.628345","139.644","階数","1","","","","","","1540015","","","","","","","","","","","","","","","","","","","","","","","","","","","",""
"131121","131121000345","世田谷区","等々力ふれあいルーム（複合施設）","","","","","","","131121","","東京都世田谷区等々力2-33-14","東京都","世田谷区","等々力2丁目","33-14","","35.607716","139.647964","","","","","","","","1580082","","","","","","","","","","","","","","","","","","","","","","","","","","","",""
"131121","131121000346","世田谷区","中町ふれあいの家","","","","","","","131121","","東京都世田谷区中町5-19-2","東京都","世田谷区","中町5丁目","19-2","","35.620008","139.642549","","","","","","","","1580091","","","","","","","","","","","","","","","","","","","","","","","","","","","",""
"131121","131121000347","世田谷区","東玉川ふれあいルーム（複合施設）","","","","","","","131121","","東京都世田谷区東玉川1-19-15","東京都","世田谷区","東玉川1丁目","19-15","","35.597177","139.678775","","","","","","","","1580084","","","","","","","","","","","","","","","","","","","","","","","","","","","",""
"131121","131121000348","世田谷区","用賀ふれあいルーム（複合施設）","","","","","","","131121","","東京都世田谷区用賀4-38-16","東京都","世田谷区","用賀4丁目","38-16","","35.6299","139.629626","","","","","","","","1580097","","","","","","","","","","","","","","","","","","","","","","","","","","","",""
"131121","131121000349","世田谷区","宇奈根ふれあいの家","","","","","","","131121","","東京都世田谷区宇奈根1-38-2","東京都","世田谷区","宇奈根1丁目","38-2","","35.622626","139.605413","","","","","","","","1570068","","","","","","","","","","","","","","","","","","","","","","","","","","","",""
"131121","131121000350","世田谷区","砧くちなしふれあいの家","","","","","","","131121","","東京都世田谷区砧8-26-33","東京都","世田谷区","砧8丁目","26-33","","35.639774","139.604271","","","","","","","","1570073","","","","","","","","","","","","","","","","","","","","","","","","","","","",""
"131121","131121000351","世田谷区","成城ふれあいの家","","","","","","","131121","","東京都世田谷区成城3-13-25","東京都","世田谷区","成城3丁目","13-25","","35.636072","139.596595","","","","","","","","1570066","","","","","","","","","","","","","","","","","","","","","","","","","","","",""
"131121","131121000352","世田谷区","祖師谷支えあいルーム（複合施設）","","","","","","","131121","","東京都世田谷区祖師谷3-21-1","東京都","世田谷区","祖師谷3丁目","21-1","","35.642829","139.604687","","","","","","","","1570072","","","","","","","","","","","","","","","","","","","","","","","","","","","",""
"131121","131121000353","世田谷区","千歳ふれあいルーム（複合施設）","","","","","","","131121","","東京都世田谷区千歳台6-16-12","東京都","世田谷区","千歳台6丁目","16-12","","35.657829","139.607023","","","","","","","","1570071","","","","","","","","","","","","","","","","","","","","","","","","","","","",""
"131121","131121000354","世田谷区","八幡山ふれあいの家","","","","","","","131121","","東京都世田谷区八幡山1-11-10","東京都","世田谷区","八幡山1丁目","11-10","","35.660612","139.621093","","","","","","","","1560056","","","","","","","","","","","","","","","","","","","","","","","","","","","",""
"131121","131121000355","世田谷区","南烏山ふれあいの家","","","","","","","131121","","東京都世田谷区南烏山2-22-7","東京都","世田谷区","南烏山2丁目","22-7","","35.668188","139.605916","","","","","","","","1570062","","","","","","","","","","","","","","","","","","","","","","","","","","","",""
"131121","131121000356","世田谷区","ぽーとせたがや","","","","","","","131121","","東京都世田谷区下馬3-22-13サザン三軒茶屋2F","東京都","世田谷区","下馬3丁目","22-13 サザン三軒茶屋2F","","35.634303","139.673185","階数","2","","","","","","1540002","","","","","","","","","","","","","","","","","","","","","","","","","","","",""
"131121","131121000357","世田谷区","基幹相談支援センター","","","","","","","131121","","東京都世田谷区松原6-37-1","東京都","世田谷区","松原6丁目","37-1","","35.657158","139.650729","","","","","","","","1560043","","","","","","","","","","","","","","","","","","","","","","","","","","","",""
"131121","131121000358","世田谷区","ぽーときたざわ","","","","","","","131121","","東京都世田谷区松原3-40-7パインフィールド201","東京都","世田谷区","松原3丁目","40-7 パインフィールド201","","35.667366","139.642548","階数","2","","","","","","1560043","","","","","","","","","","","","","","","","","","","","","","","","","","","",""
"131121","131121000359","世田谷区","みつけばハウス","","","","","","","","","","","","","","","","","","","","","","","","","","","","","","","","","","","","","","","","","","","","","","","","","","","",""
"131121","131121000360","世田谷区","ぽーとたまがわ（複合施設）","","","","","","","131121","","東京都世田谷区中町2-17-21","東京都","世田谷区","中町2丁目","17-21","","35.611089","139.644774","","","","","","","","1580091","","","","","","","","","","","","","","","","","","","","","","","","","","","",""
"131121","131121000361","世田谷区","医療的ケア相談支援センター（複合施設）","","","","","","","131121","","東京都世田谷区大蔵2-10-18","東京都","世田谷区","大蔵2丁目","10-18","","35.634651","139.61299","","","","","","","","1570074","","","","","","","","","","","","","","","","","","","","","","","","","","","",""
"131121","131121000362","世田谷区","発達障害相談・療育センター「げんき」（複合施設）","","","","","","","131121","","東京都世田谷区大蔵2-10-18","東京都","世田谷区","大蔵2丁目","10-18","","35.634651","139.61299","","","","","","","","1570074","","","","","","","","","","","","","","","","","","","","","","","","","","","",""
"131121","131121000363","世田谷区","ぽーときぬた（複合施設）","","","","","","","131121","","東京都世田谷区祖師谷3-21-1","東京都","世田谷区","祖師谷3丁目","21-1","","35.642829","139.604687","","","","","","","","1570072","","","","","","","","","","","","","","","","","","","","","","","","","","","",""
"131121","131121000364","世田谷区","ぽーとからすやま","","","","","","","131121","","東京都世田谷区南烏山1-13-16","東京都","世田谷区","南烏山1丁目","13-16","","35.670033","139.609706","","","","","","","","1570062","","","","","","","","","","","","","","","","","","","","","","","","","","","",""
"131121","131121000365","世田谷区","ケアセンターふらっと（複合施設）","","","","","","","131121","","東京都世田谷区下馬2-20-14","東京都","世田谷区","下馬2丁目","20-14","","35.640638","139.675404","","","","","","","","1540002","","","","","","","","","","","","","","","","","","","","","","","","","","","",""
"131121","131121000366","世田谷区","駒沢生活実習所","","","","","","","131121","","東京都世田谷区弦巻2-1-5","東京都","世田谷区","弦巻2丁目","1-5","","35.63453","139.65587","","","","","","","","1540016","","","","","","","","","","","","","","","","","","","","","","","","","","","",""
"131121","131121000367","世田谷区","下馬福祉工房（複合施設）","","","","","","","131121","","東京都世田谷区下馬2-20-14","東京都","世田谷区","下馬2丁目","20-14","","35.640638","139.675404","","","","","","","","1540002","","","","","","","","","","","","","","","","","","","","","","","","","","","",""
"131121","131121000368","世田谷区","障害児保育園ヘレン経堂（複合施設）","","","","","","","131121","","東京都世田谷区宮坂3-15-15","東京都","世田谷区","宮坂3丁目","15-15","","35.653946","139.637335","","","","","","","","1560051","","","","","","","","","","","","","","","","","","","","","","","","","","","",""
"131121","131121000369","世田谷区","世田谷福祉作業所","","","","","","","131121","","東京都世田谷区下馬2-31-6","東京都","世田谷区","下馬2丁目","31-6","","35.64268","139.6781","","","","","","","","1540002","","","","","","","","","","","","","","","","","","","","","","","","","","","","区分所有 管理棟含む"
