全国地方公共団体コード,ID,地方公共団体名,名称,名称_カナ,名称_英字,名称_通称,POIコード,外部識別子,外部識別子の値,所在地_全国地方公共団体コード,町字ID,所在地_連結表記,所在地_都道府県,所在地_市区町村,所在地_町字,所在地_番地以下,建物名等(方書),緯度,経度,高度の種別,高度の値,電話番号,内線番号,連絡先メールアドレス,連絡先FormURL,連絡先備考（その他、SNSなど）,郵便番号,法人番号,団体名,利用可能曜日,開始時間,終了時間,利用可能時間特記事項,説明,車椅子可,車椅子貸出,ツエ貸出,バリアフリートイレ,スロープ、エレベータ、エスカレータ,点字ブロック等の移動支援,点字や読上による支援,盲導犬・介助犬、聴導犬同伴,字幕,筆談対応,優先駐車場,オストメイト対応トイレ,授乳室,おむつ替えコーナー,飲食可否,ベビーカー貸出,ベビーカー利用,URL,画像,画像_ライセンス,備考
131229,1.31E+11,葛飾区,立石地区センター,,,,,,,131229,,"東京都葛飾区立石3-12-1立石地区センター
",東京都,葛飾区,立石3,12-1,立石地区センター別館,35.740059,139.843623,,,,,,,,1240012,,,,,,,,可,無,無,有,有,有,無,有,無,有,有,無,無,無,,無,可,,,,・座標精度：番地号一致
131229,1.31E+11,葛飾区,東立石地区センター,,,,,,,131229,,東京都葛飾区東立石2-15-7東立石地区センター,東京都,葛飾区,東立石2,15-7,東立石地区センター,35.734073,139.847683,,,,,,,,1240013,,,,,,,,可,無,無,有,有,有,無,有,無,有,無,無,無,無,,無,可,,,,・座標精度：番地号一致（同住所の別建物あり）
131229,1.31E+11,葛飾区,東立石地区センター別館,,,,,,,131229,,東京都葛飾区東立石3-34-12東立石地区センター別館,東京都,葛飾区,東立石3,34-12,東立石地区センター別館,35.735298,139.847407,,,,,,,,1240013,,,,,,,,否,無,無,有,無,無,無,有,無,無,無,無,無,無,,無,否,,,,・座標精度：番地号一致（同住所の別建物あり）
131229,1.31E+11,葛飾区,東四つ木地区センター,,,,,,,131229,,東京都葛飾区東四つ木1-20-4東四つ木地区センター,東京都,葛飾区,東四つ木1,20-4,東四つ木地区センター,35.728891,139.840693,,,,,,,,1240014,,,,,,,,可,無,無,有,有,有,無,有,無,有,無,無,無,有,,無,可,,,,・座標精度：番地号一致
131229,1.31E+11,葛飾区,四つ木地区センター,,,,,,,131229,,東京都葛飾区宝町1-1-22四つ木地区センター,東京都,葛飾区,宝町1,1-22,四つ木地区センター,35.74013,139.837175,,,,,,,,1240005,,,,,,,,可,無,無,有,有,有,無,有,無,有,有,無,無,無,,無,可,,,,・座標精度：番地号一致
131229,1.31E+11,葛飾区,堀切地区センター,,,,,,,131229,,東京都葛飾区堀切3-8-5堀切地区センター,東京都,葛飾区,堀切3,8-5,堀切地区センター,35.74724,139.828075,,,,,,,,1240006,,,,,,,,可,無,無,有,有,有,無,有,無,有,無,有,無,有,,無,可,,,,・座標精度：番地号一致
131229,1.31E+11,葛飾区,堀切地区センター別館,,,,,,,131229,,東京都葛飾区堀切2-31-10堀切地区センター別館,東京都,葛飾区,堀切2,31-10,堀切地区センター別館,35.744644,139.82726,,,,,,,,1240006,,,,,,,,否,無,無,無,無,無,無,有,無,無,無,無,無,無,,無,否,,,,・座標精度：番地号一致（同住所の別建物あり）
131229,1.31E+11,葛飾区,南綾瀬地区センター,,,,,,,131229,,東京都葛飾区堀切7-8-22南綾瀬地区センター,東京都,葛飾区,堀切7,8-22,南綾瀬地区センター,35.754027,139.829985,,,,,,,,1240006,,,,,,,,可,無,無,有,有,有,無,有,無,有,無,有,無,有,,無,可,,,,・座標精度：番地号一致
131229,1.31E+11,葛飾区,南綾瀬地区センター別館,,,,,,,131229,,東京都葛飾区堀切6-28-5南綾瀬地区センター別館,東京都,葛飾区,堀切6,28-5,南綾瀬地区センター別館,35.753693,139.830118,,,,,,,,1240006,,,,,,,,否,無,無,無,無,有,無,有,無,有,無,無,無,無,,無,否,,,,・座標精度：番地号一致
131229,1.31E+11,葛飾区,お花茶屋地区センター,,,,,,,131229,,東京都葛飾区お花茶屋2-1-12お花茶屋地区センター,東京都,葛飾区,お花茶屋2,1-12,お花茶屋地区センター,35.751287,139.838477,,,,,,,,1240003,,,,,,,,否,無,無,無,無,無,無,有,無,有,無,無,無,無,,無,否,,,,・座標精度：番地号一致
131229,1.31E+11,葛飾区,亀有地区センター,,,,,,,131229,,東京都葛飾区亀有3-26-1亀有地区センター,東京都,葛飾区,亀有3,26-1,亀有地区センター,35.766574,139.848735,,,,,,,,1250061,,,,,,,,可,無,無,有,有,無,無,有,無,有,無,無,無,無,,無,可,,,,・座標精度：番地号一致
131229,1.31E+11,葛飾区,青戸地区センター,,,,,,,131229,,東京都葛飾区青戸5-20-6青戸地区センター,東京都,葛飾区,青戸5,20-6,青戸地区センター,35.750122,139.854345,,,,,,,,1250062,,,,,,,,可,無,無,有,有,有,無,有,無,有,無,無,無,有,,無,可,,,,・座標精度：番地号一致
131229,1.31E+11,葛飾区,新小岩北地区センター,,,,,,,131229,,東京都葛飾区東新小岩6-21-1新小岩北地区センター,東京都,葛飾区,東新小岩6,21-1,新小岩北地区センター,35.724256,139.858911,,,,,,,,1240023,,,,,,,,可,無,無,有,無,有,無,有,無,有,有,有,無,有,,無,可,,,,・座標精度：番地号一致
131229,1.31E+11,葛飾区,新小岩地区センター,,,,,,,131229,,東京都葛飾区新小岩2-17-1新小岩地区センター,東京都,葛飾区,新小岩2,17-1,新小岩地区センター,35.716329,139.861747,,,,,,,,1240024,,,,,,,,可,無,無,有,有,有,無,有,無,有,無,有,有,有,,無,可,,,,・座標精度：番地号一致
131229,1.31E+11,葛飾区,奥戸地区センター,,,,,,,131229,,東京都葛飾区奥戸3-9-17奥戸地区センター,東京都,葛飾区,奥戸3,9-17,奥戸地区センター,35.733671,139.861872,,,,,,,,1240022,,,,,,,,否,無,無,無,無,無,無,有,無,有,無,無,無,無,,無,否,,,,・座標精度：番地号一致
131229,1.31E+11,葛飾区,高砂地区センター,,,,,,,131229,,東京都葛飾区高砂3-1-39高砂地区センター,東京都,葛飾区,高砂3,1-39,高砂地区センター,35.745949,139.868386,,,,,,,,1250054,,,,,,,,可,無,無,有,有,有,無,有,無,有,有,無,無,有,,無,可,,,,・座標精度：番地号一致
131229,1.31E+11,葛飾区,柴又地区センター,,,,,,,131229,,東京都葛飾区柴又1-38-2柴又地区センター,東京都,葛飾区,柴又1,38-2,柴又地区センター,35.75571,139.872692,,,,,,,,1250052,,,,,,,,可,無,無,有,無,有,無,有,無,有,無,無,無,無,,無,可,,,,・座標精度：番地号一致
131229,1.31E+11,葛飾区,新宿地区センター,,,,,,,131229,,東京都葛飾区新宿4-1-10新宿地区センター,東京都,葛飾区,新宿4,1-10,新宿地区センター,35.76139,139.860152,,,,,,,,1250051,,,,,,,,否,無,無,無,無,無,無,有,無,有,無,無,無,無,,無,否,,,,・座標精度：番地号一致
131229,1.31E+11,葛飾区,金町地区センター,,,,,,,131229,,東京都葛飾区東金町1-22-1金町地区センター,東京都,葛飾区,東金町1,22-1,金町地区センター,35.769725,139.868832,,,,,,,,1250041,,,,,,,,可,無,無,有,有,有,無,有,無,有,無,無,無,有,,無,可,,,,・座標精度：番地号一致
131229,1.31E+11,葛飾区,東金町地区センター,,,,,,,131229,,東京都葛飾区東金町5-33-6東金町地区センター,東京都,葛飾区,東金町5,33-6,東金町地区センター,35.777428,139.879218,,,,,,,,1250041,,,,,,,,否,無,無,無,無,無,無,有,無,有,無,無,無,無,,無,否,,,,・座標精度：番地号一致
131229,1.31E+11,葛飾区,水元地区センター,,,,,,,131229,,東京都葛飾区水元3-13-22水元地区センター,東京都,葛飾区,水元3,13-22,水元地区センター,35.782358,139.864306,,,,,,,,1250032,,,,,,,,否,無,無,無,無,有,無,有,無,有,無,無,無,無,,無,否,,,,・座標精度：番地号一致
131229,1.31E+11,葛飾区,西水元地区センター,,,,,,,131229,,東京都葛飾区西水元5-3-1-101西水元地区センター,東京都,葛飾区,西水元5,3-1-101,西水元地区センター,35.785357,139.854069,,,,,,,,1250031,,,,,,,,可,無,無,有,無,有,無,有,無,有,有,無,無,無,,無,可,,,,・座標精度：番地号一致（同住所の別建物あり）
131229,1.31E+11,葛飾区,亀有集い交流館,,,,,,,131229,,東京都葛飾区亀有1-24-3亀有集い交流館,東京都,葛飾区,亀有1,24-3,亀有集い交流館,35.760451,139.847451,,,,,,,,1250061,,,,,,,,否,無,無,無,無,無,無,有,無,無,無,無,無,無,,無,否,,,,・座標精度：番地号一致
131229,1.31E+11,葛飾区,たつみ集い交流館,,,,,,,131229,,東京都葛飾区西新小岩2-1-4たつみ集い交流館,東京都,葛飾区,西新小岩2,1-4,たつみ集い交流館,35.717855,139.85072,,,,,,,,1240025,,,,,,,,否,無,無,無,無,無,無,有,無,無,無,無,無,無,,無,否,,,,・座標精度：番地号一致（同住所の別建物あり）
131229,1.31E+11,葛飾区,末広集い交流館,,,,,,,131229,,東京都葛飾区金町5-4-1末広集い交流館,東京都,葛飾区,金町5,4-1,末広集い交流館,35.765954,139.866389,,,,,,,,1250042,,,,,,,,否,無,無,無,無,無,無,有,無,無,無,無,無,無,,無,否,,,,・座標精度：番地号一致
131229,1.31E+11,葛飾区,水元集い交流館,,,,,,,131229,,東京都葛飾区東水元1-7-3水元集い交流館,東京都,葛飾区,東水元1,7-3,水元集い交流館,35.778843,139.867535,,,,,,,,1250033,,,,,,,,否,無,無,無,無,無,無,有,無,無,無,無,無,無,,無,否,,,,・座標精度：番地号一致
131229,1.31E+11,葛飾区,西青戸集い交流館,,,,,,,131229,,東京都葛飾区青戸7-15-2西青戸集い交流館,東京都,葛飾区,青戸7,15-2,西青戸集い交流館,35.754457,139.85381,,,,,,,,1250062,,,,,,,,否,無,無,無,無,無,無,有,無,無,無,無,無,無,,無,否,,,,・座標精度：番地号一致
131229,1.31E+11,葛飾区,宝町集い交流館,,,,,,,131229,,東京都葛飾区宝町2-38-19宝町集い交流館,東京都,葛飾区,宝町2,38-19,宝町集い交流館,35.747688,139.837157,,,,,,,,1240005,,,,,,,,否,無,無,無,無,無,無,有,無,無,無,無,無,無,,無,否,,,,・座標精度：番地号一致
131229,1.31E+11,葛飾区,新宿防災コミュニティセンター集い交流館,,,,,,,131229,,東京都葛飾区新宿5-20-18新宿防災コミュニティセンター集い交流館,東京都,葛飾区,新宿5,20-18,新宿防災コミュニティセンター集い交流館,35.765451,139.861241,,,,,,,,1250051,,,,,,,,否,無,無,有,無,無,無,有,無,無,無,無,無,無,,無,否,,,,・座標精度：番地号一致
131229,1.31E+11,葛飾区,青戸高架下集い交流館,,,,,,,131229,,東京都葛飾区立石6-38-13青戸高架下集い交流館,東京都,葛飾区,立石6,38-13,青戸高架下集い交流館,35.743582,139.854201,,,,,,,,1240012,,,,,,,,否,無,無,有,無,無,無,有,無,無,無,無,無,無,,無,否,,,,・座標精度：番地号一致（同住所の別建物あり）
131229,1.31E+11,葛飾区,西亀有集い交流館,,,,,,,131229,,東京都葛飾区西亀有2-11-1西亀有集い交流館,東京都,葛飾区,西亀有2,11-1,西亀有集い交流館,35.758788,139.832268,,,,,,,,1240002,,,,,,,,可,無,無,有,無,有,無,有,無,無,無,無,無,無,,無,可,,,,・座標精度：番地号一致（同住所の別建物あり）
131229,1.31E+11,葛飾区,新小岩南集い交流館,,,,,,,131229,,東京都葛飾区新小岩1-17-6新小岩南集い交流館,東京都,葛飾区,新小岩1,17-6,新小岩南集い交流館,35.714545,139.85666,,,,,,,,1240024,,,,,,,,否,無,無,有,無,無,無,有,無,無,無,無,無,無,,無,否,,,,・座標精度：番地号一致
131229,1.31E+11,葛飾区,木根川集い交流館,,,,,,,131229,,東京都葛飾区東四つ木1-8-4木根川集い交流館,東京都,葛飾区,東四つ木1,8-4,木根川集い交流館,35.727463,139.839741,,,,,,,,1240014,,,,,,,,否,無,無,有,無,有,無,有,無,無,無,無,無,無,,無,否,,,,・座標精度：番地号一致（同住所の別建物あり）
131229,1.31E+11,葛飾区,亀有北集い交流館,,,,,,,131229,,東京都葛飾区亀有5-14-18亀有北集い交流館,東京都,葛飾区,亀有5,14-18,亀有北集い交流館,35.767204,139.844537,,,,,,,,1250061,,,,,,,,否,無,無,有,無,無,無,有,無,無,無,無,無,無,,無,否,,,,・座標精度：番地号一致
131229,1.31E+11,葛飾区,南綾瀬第二集い交流館,,,,,,,131229,,東京都葛飾区堀切5-38-4南綾瀬第二集い交流館,東京都,葛飾区,堀切5,38-4,南綾瀬第二集い交流館,35.749901,139.830397,,,,,,,,1240006,,,,,,,,否,無,無,有,無,有,無,有,無,無,無,無,無,無,,無,否,,,,・座標精度：番地号一致
131229,1.31E+11,葛飾区,高砂北集い交流館,,,,,,,131229,,東京都葛飾区高砂5-6-7高砂北集い交流館,東京都,葛飾区,高砂5,6-7,高砂北集い交流館,35.751404,139.865224,,,,,,,,1250054,,,,,,,,否,無,無,無,無,無,無,有,無,無,無,無,無,無,,無,否,,,,・座標精度：番地号一致
131229,1.31E+11,葛飾区,東奥戸集い交流館,,,,,,,131229,,東京都葛飾区奥戸4-20-11東奥戸集い交流館,東京都,葛飾区,奥戸4,20-11,東奥戸集い交流館,35.728862,139.867926,,,,,,,,1240022,,,,,,,,否,無,無,有,無,無,無,有,無,無,無,無,無,無,,無,否,,,,・座標精度：番地号一致（同住所の別建物あり）
131229,1.31E+11,葛飾区,亀有東集い交流館,,,,,,,131229,,東京都葛飾区亀有5-48-13亀有東集い交流館,東京都,葛飾区,亀有5,48-13,亀有東集い交流館,35.768972,139.849541,,,,,,,,1250061,,,,,,,,否,無,無,無,無,無,無,有,無,無,無,無,無,無,,無,否,,,,・座標精度：番地号一致
131229,1.31E+11,葛飾区,南水元集い交流館,,,,,,,131229,,東京都葛飾区南水元4-13-24南水元集い交流館,東京都,葛飾区,南水元4,13-24,南水元集い交流館,35.778442,139.862787,,,,,,,,1250035,,,,,,,,否,無,無,有,無,無,無,有,無,無,無,無,無,無,,無,否,,,,・座標精度：番地号一致
131229,1.31E+11,葛飾区,奥戸しらさぎ集い交流館,,,,,,,131229,,東京都葛飾区奥戸3-17-4-102奥戸しらさぎ集い交流館,東京都,葛飾区,奥戸3,17-4-102,奥戸しらさぎ集い交流館,35.730192,139.860849,,,,,,,,1240022,,,,,,,,可,無,無,有,無,有,無,有,無,無,無,無,無,無,,無,可,,,,・座標精度：番地号一致（同住所の別建物あり）
131229,1.31E+11,葛飾区,亀が岡集い交流館,,,,,,,131229,,東京都葛飾区東金町2-5-20-109亀が岡集い交流館,東京都,葛飾区,東金町2,5-20-109,亀が岡集い交流館,35.771739,139.866403,,,,,,,,1250041,,,,,,,,可,無,無,有,無,無,無,有,無,無,無,無,無,無,,無,可,,,,・座標精度：番地号一致
131229,1.31E+11,葛飾区,金町つつみ集い交流館,,,,,,,131229,,東京都葛飾区金町3-51-11金町つつみ集い交流館,東京都,葛飾区,金町3,51-11,金町つつみ集い交流館,35.768717,139.876733,,,,,,,,1250042,,,,,,,,否,無,無,有,無,無,無,有,無,無,無,無,無,無,,無,否,,,,・座標精度：番地号一致
131229,1.31E+11,葛飾区,幸田集い交流館,,,,,,,131229,,東京都葛飾区西水元3-11-1幸田集い交流館,東京都,葛飾区,西水元3,11-1,幸田集い交流館,35.788451,139.846975,,,,,,,,1250031,,,,,,,,可,無,無,有,無,無,無,有,無,無,無,無,無,無,,無,可,,,,・座標精度：番地号一致
131229,1.31E+11,葛飾区,白鳥集い交流館,,,,,,,131229,,東京都葛飾区白鳥4-16-5白鳥集い交流館,東京都,葛飾区,白鳥4,16-5,白鳥集い交流館,35.754749,139.847732,,,,,,,,1250063,,,,,,,,否,無,無,有,無,無,無,有,無,無,無,無,無,無,,無,否,,,,・座標精度：番地号一致
131229,1.31E+11,葛飾区,渋江集い交流館,,,,,,,131229,,東京都葛飾区東四つ木4-44-2-102渋江集い交流館,東京都,葛飾区,東四つ木4,44-2-102,渋江集い交流館,35.734868,139.841098,,,,,,,,1240014,,,,,,,,可,無,無,有,無,有,無,有,無,無,無,無,無,無,,無,可,,,,・座標精度：番地号一致（同住所の別建物あり）
131229,1.31E+11,葛飾区,さくらみち集い交流館,,,,,,,131229,,東京都葛飾区鎌倉3-20-4さくらみち集い交流館,東京都,葛飾区,鎌倉3,20-4,さくらみち集い交流館,35.750264,139.877847,,,,,,,,1250053,,,,,,,,可,無,無,有,無,無,無,有,無,無,無,無,無,無,,無,可,,,,・座標精度：番地号一致
131229,1.31E+11,葛飾区,上平井集い交流館,,,,,,,131229,,東京都葛飾区西新小岩3-36-4上平井集い交流館,東京都,葛飾区,西新小岩3,36-4,上平井集い交流館,35.722815,139.844958,,,,,,,,1240025,,,,,,,,否,無,無,有,無,無,無,有,無,無,無,無,無,無,,無,否,,,,・座標精度：番地号一致
131229,1.31E+11,葛飾区,細田集い交流館,,,,,,,131229,,東京都葛飾区細田4-23-5細田集い交流館,東京都,葛飾区,細田4,23-5,細田集い交流館,35.741101,139.87337,,,,,,,,1240021,,,,,,,,否,無,無,有,無,無,無,有,無,無,無,無,無,無,,無,否,,,,・座標精度：番地号一致
131229,1.31E+11,葛飾区,いいづか集い交流館,,,,,,,131229,,東京都葛飾区南水元1-20-8いいづか集い交流館,東京都,葛飾区,南水元1,20-8,いいづか集い交流館,35.77636,139.859179,,,,,,,,1250035,,,,,,,,可,無,無,有,有,有,無,有,無,無,無,無,無,無,,無,可,,,,・座標精度：番地号一致
131229,1.31E+11,葛飾区,西奥戸憩い交流館,,,,,,,131229,,東京都葛飾区奥戸1-12-1西奥戸憩い交流館,東京都,葛飾区,奥戸1,12-1,西奥戸憩い交流館,35.728564,139.854201,,,,,,,,1240022,,,,,,,,否,無,無,無,無,有,無,有,無,有,無,無,無,無,,無,否,,,,・座標精度：番地号一致
131229,1.31E+11,葛飾区,東奥戸憩い交流館,,,,,,,131229,,東京都葛飾区奥戸4-20-11東奥戸憩い交流館,東京都,葛飾区,奥戸4,20-11,東奥戸憩い交流館,35.728862,139.867926,,,,,,,,1240022,,,,,,,,可,無,無,有,無,有,無,有,無,有,無,無,無,無,,無,可,,,,・座標精度：番地号一致（同住所の別建物あり）
131229,1.31E+11,葛飾区,砂原憩い交流館,,,,,,,131229,,東京都葛飾区西亀有3-12-1砂原憩い交流館,東京都,葛飾区,西亀有3,12-1,砂原憩い交流館,35.762577,139.83819,,,,,,,,1250002,,,,,,,,可,無,無,有,無,有,無,有,無,有,無,無,無,無,,無,可,,,,・座標精度：番地号一致
131229,1.31E+11,葛飾区,末広憩い交流館,,,,,,,131229,,東京都葛飾区金町5-4-1末広憩い交流館,東京都,葛飾区,金町5,4-1,末広憩い交流館,35.765954,139.866389,,,,,,,,1250042,,,,,,,,否,無,無,無,無,有,無,有,無,有,無,無,無,無,,無,否,,,,・座標精度：番地号一致
131229,1.31E+11,葛飾区,鎌倉憩い交流館,,,,,,,131229,,東京都葛飾区鎌倉2-6-20鎌倉憩い交流館,東京都,葛飾区,鎌倉2,6-20,鎌倉憩い交流館,35.745298,139.874531,,,,,,,,1250053,,,,,,,,否,無,無,無,無,有,無,有,無,有,無,無,無,無,,無,否,,,,・座標精度：番地号一致
131229,1.31E+11,葛飾区,宝町憩い交流館,,,,,,,131229,,東京都葛飾区宝町2-38-19宝町憩い交流館,東京都,葛飾区,宝町2,38-19,宝町憩い交流館,35.747688,139.837157,,,,,,,,1240005,,,,,,,,可,無,無,有,無,有,無,有,無,有,無,無,無,無,,無,可,,,,・座標精度：番地号一致
131229,1.31E+11,葛飾区,柴又憩い交流館,,,,,,,131229,,東京都葛飾区柴又2-4-5柴又憩い交流館,東京都,葛飾区,柴又2,4-5,柴又憩い交流館,35.75801,139.870133,,,,,,,,1250052,,,,,,,,可,無,無,有,無,有,無,有,無,有,無,無,無,無,,無,可,,,,・座標精度：番地号一致
131229,1.31E+11,葛飾区,新宿憩い交流館,,,,,,,131229,,東京都葛飾区新宿1-5-6新宿憩い交流館,東京都,葛飾区,新宿1,5-6,新宿憩い交流館,35.759023,139.858993,,,,,,,,1250051,,,,,,,,可,無,無,有,無,有,無,有,無,有,無,無,無,無,,無,可,,,,・座標精度：番地号一致
131229,1.31E+11,葛飾区,たつみ憩い交流館,,,,,,,131229,,東京都葛飾区西新小岩2-1-4たつみ憩い交流館,東京都,葛飾区,西新小岩2,1-4,たつみ憩い交流館,35.717855,139.85072,,,,,,,,1240025,,,,,,,,否,有,無,無,無,有,無,有,無,有,無,無,無,無,,無,否,,,,・座標精度：番地号一致（同住所の別建物あり）
131229,1.31E+11,葛飾区,水元憩い交流館,,,,,,,131229,,東京都葛飾区水元4-6-15水元憩い交流館,東京都,葛飾区,水元4,6-15,水元憩い交流館,35.788128,139.860639,,,,,,,,1250032,,,,,,,,可,無,無,有,無,有,無,有,無,有,無,無,無,無,,無,可,,,,・座標精度：番地号一致
131229,1.31E+11,葛飾区,青戸中央憩い交流館,,,,,,,131229,,東京都葛飾区青戸6-16-12青戸中央憩い交流館,東京都,葛飾区,青戸6,16-12,青戸中央憩い交流館,35.752986,139.85712,,,,,,,,1250062,,,,,,,,否,無,無,無,無,有,無,有,無,有,無,無,無,無,,無,否,,,,・座標精度：番地号一致
131229,1.31E+11,葛飾区,東金町憩い交流館,,,,,,,131229,,東京都葛飾区東金町5-22-18東金町憩い交流館,東京都,葛飾区,東金町5,22-18,東金町憩い交流館,35.779296,139.877945,,,,,,,,1250041,,,,,,,,否,無,無,無,無,有,無,有,無,有,無,無,無,無,,無,否,,,,・座標精度：番地号一致
131229,1.31E+11,葛飾区,小菅憩い交流館,,,,,,,131229,,東京都葛飾区小菅3-6-1小菅憩い交流館,東京都,葛飾区,小菅3,6-1,小菅憩い交流館,35.754768,139.824111,,,,,,,,1240001,,,,,,,,否,無,無,無,無,有,無,有,無,有,無,無,無,無,,無,否,,,,・座標精度：番地号一致（同住所の別建物あり）
131229,1.31E+11,葛飾区,中道憩い交流館,,,,,,,131229,,東京都葛飾区西亀有1-2-7中道憩い交流館,東京都,葛飾区,西亀有1,2-7,中道憩い交流館,35.756812,139.837079,,,,,,,,1240002,,,,,,,,否,無,無,無,無,有,無,有,無,有,無,無,無,無,,無,否,,,,・座標精度：番地号一致
131229,1.31E+11,葛飾区,堀切憩い交流館,,,,,,,131229,,東京都葛飾区堀切1-23-6堀切憩い交流館,東京都,葛飾区,堀切1,23-6,堀切憩い交流館,35.740479,139.829357,,,,,,,,1240006,,,,,,,,否,無,無,無,無,有,無,有,無,有,無,無,無,無,,無,否,,,,・座標精度：番地号一致
131229,1.31E+11,葛飾区,亀有学び交流館,,,,,,,131229,,東京都葛飾区お花茶屋3-5-6亀有学び交流館,東京都,葛飾区,お花茶屋3,5-6,亀有学び交流館,35.756465,139.843117,,,,,,,,1240003,,,,,,,,可,有,無,有,有,有,無,有,無,有,無,有,無,無,,無,可,,,,・座標精度：番地号一致
131229,1.31E+11,葛飾区,柴又学び交流館,,,,,,,131229,,東京都葛飾区柴又5-33-8柴又学び交流館,東京都,葛飾区,柴又5,33-8,柴又学び交流館,35.753682,139.881852,,,,,,,,1250052,,,,,,,,可,有,無,有,有,有,無,有,無,有,無,無,無,無,,無,可,,,,・座標精度：番地号一致
131229,1.31E+11,葛飾区,水元学び交流館,,,,,,,131229,,東京都葛飾区南水元2-13-1水元学び交流館,東京都,葛飾区,南水元2,13-1,水元学び交流館,35.779591,139.855678,,,,,,,,1250035,,,,,,,,可,有,無,有,有,有,無,有,無,有,有,無,無,無,,無,可,,,,・座標精度：番地号一致
131229,1.31E+11,葛飾区,新小岩地域活動センター,,,,,,,131229,,東京都葛飾区西新小岩4-33-2新小岩地域活動センター,東京都,葛飾区,西新小岩4,33-2,新小岩地域活動センター,35.718841,139.853634,,,,,,,,1240025,,,,,,,,可,無,無,有,有,有,無,有,無,有,有,有,有,有,,無,可,,,,・座標精度：番地号一致
131229,1.31E+11,葛飾区,新小岩地域活動センター別館,,,,,,,131229,,東京都葛飾区新小岩1-45-1（JR新小岩南口ビル6階　えきにこわ内）新小岩地域活動センター別館,東京地,葛飾区,新小岩1,45-1,新小岩地域活動センター別館,35.71687,139.85824,,,,,,,,1240024,,,,,,,,,,,,,,,,,,,,,,,,,,,,
131229,1.31E+11,葛飾区,金町駅前活動センター,,,カナマチぷらっと,,,,131229,,東京都葛飾区金町六丁目5番1号　ベルトーレ金町3階金町駅前活動センター,東京都,葛飾区,金町六丁目,5番1号,ベルトーレ金町3階金町駅前活動センター,35.768583,139.871074,,,(03)6231-3680,,,,,1250042,,,年末年始・施設メンテナンス日を除く日,9:00,21:00,,,,,,有,エレベータ有,,,,,,,,有,,可,,可,,,,・座標精度：番地号一致
131229,1.31E+11,葛飾区,かつしかボランティアセンター,,,,,,,131229,,東京都葛飾区堀切3-34-1かつしかボランティアセンター,東京都,葛飾区,堀切3,34-1,かつしかボランティアセンター,35.744359,139.834538,階数,1,(03)5698-2511,,vc@katsushika-shakyo.com,,,1240006,5.01E+12,社会福祉法人葛飾区社会福祉協議会,日月火水木金土,9:00,"月〜土は、21:00まで
日・祝は、17:30まで",12/28〜1/4は終日利用不可,,可,無,無,有,有,有,有,可,無,可,有,,,,,無,可,https://www.katsushika-shakyo.com/service/other/volunteer_center/,,,・座標精度：番地号一致（同住所の別建物あり）
131229,1.31E+11,葛飾区,旧あきみつ寮,フレアイサロン　アキミツ,,,,,,131229,,東京都葛飾区東金町4-8-10旧あきみつ寮,東京都,葛飾区,東金町4,8-10,旧あきみつ寮,35.773501,139.875228,,,(03)6231-3451,,,,,1250041,,,火〜土,9:00,16:00,,,,無,無,無,出入口(建物外)スロープあるが玄関(建物内)段差あり。,無,,有,無,有,無,無,無,無,可,無,,,,,・座標精度：番地号一致（同住所の別建物あり）
131229,1.31E+11,葛飾区,かつしかシンフォニーヒルズ（葛飾区文化会館）,,,,,,,131229,,東京都葛飾区立石6-33-1かつしかシンフォニーヒルズ（葛飾区文化会館）,東京都,葛飾区,立石6,33-1,かつしかシンフォニーヒルズ（葛飾区文化会館）,35.742515,139.852163,,,03-5670-2222,,,,,1240012,,葛飾区文化施設指定管理者,,,22:00,,,可,可,,有,有,,,,,有,有,有,,,,,,https://www.k-mil.gr.jp/,,,・座標精度：番地号一致
131229,1.31E+11,葛飾区,かめありリリオホール（葛飾区亀有文化ホール）,,,,,,,131229,,東京都葛飾区亀有3-26-1かめありリリオホール（葛飾区亀有文化ホール）,東京都,葛飾区,亀有3,26-1,かめありリリオホール（葛飾区亀有文化ホール）,35.766574,139.848735,,,03-5680-2222,,,,,1250061,,葛飾区文化施設指定管理者,,,22:00,,,可,可,,有,有,,,,,有,無,無,,,,,,https://www.k-mil.gr.jp/,,,・座標精度：番地号一致
131229,1.31E+11,葛飾区,テクノプラザかつしか（地域産業振興会館）,,,,,,,131229,,東京都葛飾区青戸7-2-1テクノプラザかつしか（地域産業振興会館）,東京都,葛飾区,青戸7,2-1,テクノプラザかつしか（地域産業振興会館）,35.752462,139.852518,,,,,,,,1250062,,産業観光部産業経済課,月火水木金土日（年末年始・メンテナンス休館日を除く）,9:00,21:30,詳細はホームページをご確認ください。,"区内の産業関係者の交流や自主的活動の促進を目的とした施設です。
大小さまざまな会議室・ホールは、研修、会議をはじめとし講演会、サークル活動、展示即売会など、幅広い用途に対応しています。",有,有,無,有,有,有,無,有,無,有,有,有,有,有,有,無,有,https://techno-plaza.jp/,,,・座標精度：番地号一致
131229,1.31E+11,葛飾区,新小岩創業支援施設,,,,,,,131229,,東京都葛飾区新小岩3-25-1新小岩創業支援施設,東京都,葛飾区,新小岩3,25-1,新小岩創業支援施設,35.713619,139.865837,,,,,,,,1240024,,,,,,,,,,,,,,,,,,,,,,,,,,,,・座標精度：番地号一致（同住所の別建物あり）
131229,1.31E+11,葛飾区,東四つ木工場ビル（操業支援施設）,,,,,,,131229,,東京都葛飾区東四つ木1-22-1東四つ木工場ビル（操業支援施設）,東京都,葛飾区,東四つ木1,22-1,東四つ木工場ビル（操業支援施設）,35.729228,139.841516,,,,,,,,1240014,,,,,,,,,,,,,,,,,,,,,,,,,,,,・座標精度：番地号一致
131229,1.31E+11,葛飾区,勤労福祉会館,,,,,,,131229,,東京都葛飾区立石3-12-1勤労福祉会館,東京都,葛飾区,立石3,12-1,勤労福祉会館,35.740059,139.843623,,,,,,,,1240012,,,,,,,,,,,,,,,,,,,,,,,,,,,,・座標精度：番地号一致
131229,1.31E+11,葛飾区,観光文化センター,,,,,,,131229,,東京都葛飾区柴又6-22-19観光文化センター,東京都,葛飾区,柴又6,22-19,観光文化センター,35.757211,139.880515,,,,,,,,1250052,,,,,,,,,,,,,,,,,,,,,,,,,,,,・座標精度：番地号一致（同住所の別建物あり）
131229,1.31E+11,葛飾区,山本亭,,,,,,,131229,,東京都葛飾区柴又7-19-32山本亭,東京都,葛飾区,柴又7,19-32,山本亭,35.758073,139.880018,,,,,,,,1250052,,,,,,,,,,,,,,,,,,,,,,,,,,,,・座標精度：番地号一致
131229,1.31E+11,葛飾区,柴又レンタサイクル倉庫,,,,,,,131229,,東京都葛飾区柴又6-24-2柴又レンタサイクル倉庫,東京都,葛飾区,柴又6,24-2,柴又レンタサイクル倉庫,35.756192,139.880881,,,,,,,,1250052,,,,,,,,,,,,,,,,,,,,,,,,,,,,・座標精度：番地号一致（同住所の別建物あり）
131229,1.31E+11,葛飾区,旧柴又職員寮,,,,,,,131229,,東京都葛飾区柴又7-12-19旧柴又職員寮,東京都,葛飾区,柴又7,12-19,旧柴又職員寮,35.75965,139.877944,,,,,,,,1250052,,,,,,,,,,,,,,,,,,,,,,,,,,,,・座標精度：番地号一致
131229,1.31E+11,葛飾区,葛飾区保健所,,,,,,,131229,,東京都葛飾区青戸4-15-14葛飾区保健所,東京都,葛飾区,青戸4,15-14,葛飾区保健所,35.751482,139.850539,,,,,,,,1250062,,,,,,,,,,,,,,,,,,,,,,,,,,,,・座標精度：番地号一致
131229,1.31E+11,葛飾区,青戸保健センター,,,,,,,131229,,東京都葛飾区青戸4-15-14青戸保健センター,東京都,葛飾区,青戸4,15-14,青戸保健センター,35.751482,139.850539,,,,,,,,1250062,,,,,,,,,,,,,,,,,,,,,,,,,,,,・座標精度：番地号一致
131229,1.31E+11,葛飾区,新小岩保健センター,,,,,,,131229,,東京都葛飾区西新小岩4-33-2新小岩保健センター,東京都,葛飾区,西新小岩4,33-2,新小岩保健センター,35.718841,139.853634,,,,,,,,1240025,,,,,,,,,,,,,,,,,,,,,,,,,,,,・座標精度：番地号一致
131229,1.31E+11,葛飾区,金町保健センター,,,,,,,131229,,東京都葛飾区金町4-18-19金町保健センター,東京都,葛飾区,金町4,18-19,金町保健センター,35.764663,139.865093,,,,,,,,1250042,,,,,,,,,,,,,,,,,,,,,,,,,,,,・座標精度：番地号一致
131229,1.31E+11,葛飾区,水元保健センター,,,,,,,131229,,東京都葛飾区東水元1-7-3水元保健センター,東京都,葛飾区,東水元1,7-3,水元保健センター,35.778843,139.867535,,,,,,,,1250033,,,,,,,,,,,,,,,,,,,,,,,,,,,,・座標精度：番地号一致
131229,1.31E+11,葛飾区,立石休日応急診療所,,,,,,,131229,,東京都葛飾区立石5-15-12立石休日応急診療所,東京都,葛飾区,立石5,15-12,立石休日応急診療所,35.744298,139.846894,,,,,,,,1240012,,,,,,,,,,,,,,,,,,,,,,,,,,,,・座標精度：番地号一致
131229,1.31E+11,葛飾区,金町休日応急診療所,,,,,,,131229,,東京都葛飾区東金町1-22-1金町休日応急診療所,東京都,葛飾区,東金町1,22-1,金町休日応急診療所,35.769725,139.868832,,,,,,,,1250041,,,,,,,,,,,,,,,,,,,,,,,,,,,,・座標精度：番地号一致
131229,1.31E+11,葛飾区,障害児・者歯科診療所（ひまわり歯科診療所）,,,,,,,131229,,東京都葛飾区青戸7-1-20障害児・者歯科診療所（ひまわり歯科診療所）,東京都,葛飾区,青戸7,1-20,障害児・者歯科診療所（ひまわり歯科診療所）,35.753179,139.852705,,,,,,,,1250062,,,,,,,,,,,,,,,,,,,,,,,,,,,,・座標精度：番地号一致
131229,1.31E+11,葛飾区,ねたきり高齢者歯科診療所（たんぽぽ歯科診療所）,,,,,,,131229,,東京都葛飾区亀有2-23-10ねたきり高齢者歯科診療所（たんぽぽ歯科診療所）,東京都,葛飾区,亀有2,23-10,ねたきり高齢者歯科診療所（たんぽぽ歯科診療所）,35.760928,139.852477,,,,,,,,1250061,,,,,,,,,,,,,,,,,,,,,,,,,,,,・座標精度：番地号一致
131229,1.31E+11,葛飾区,金町作業所,,,,,,,131229,5001,東京都葛飾区金町1-6-24金町作業所,東京都,葛飾区,金町1,6-24,金町作業所,35.761952,139.865832,階数,2,,2323,074000@city.katsushika.lg.jp,,,1250042,,葛飾区,,,,月から金利用可。土、日、祝日、年末年始は利用不可。,シルバー人材センター作業所,,無,無,無,無,無,無,無,無,無,無,無,無,無,無,無,無,,,,・座標精度：番地号一致
131229,1.31E+11,葛飾区,立石作業所,,,,,,,131229,22002,東京都葛飾区東立石2-1-4立石作業所,東京都,葛飾区,東立石2,1-4,立石作業所,35.733784,139.843495,階数,2,,2323,074000@city.katsushika.lg.jp,,,1240013,,葛飾区,,,,月から金利用可。土、日、祝日、年末年始は利用不可。,シルバー人材センター作業所,,無,無,無,無,無,無,無,無,無,無,無,無,無,無,無,無,,,,・座標精度：番地号一致
131229,1.31E+11,葛飾区,シニア活動支援センター,,,,,,,131229,21006,東京都葛飾区立石6-38-11シニア活動支援センター,東京都,葛飾区,立石6,38-11,シニア活動支援センター,35.743825,139.854369,階数,4,,2947,072021@city.katsushika.lg.jp,,,1240012,,葛飾区,,,,月から日・祝日利用可。年末年始は利用不可。,シニア活動支援センター,可,有,無,有,有,無,無,無,無,有,無,無,無,無,可,無,無,,,,・座標精度：番地号一致
131229,1.31E+11,葛飾区,水元ふれあいの家,,,,,,,131229,,東京都葛飾区水元1-26-20水元ふれあいの家,東京都,葛飾区,水元1,26-20,水元ふれあいの家,35.783582,139.859836,,,,,,,,1250032,,,,,,,,,,,,,,,,,,,,,,,,,,,,・座標精度：番地号一致
131229,1.31E+11,葛飾区,奥戸くつろぎの郷,,,,,,,131229,,東京都葛飾区奥戸3-25-1奥戸くつろぎの郷,東京都,葛飾区,奥戸3,25-1,奥戸くつろぎの郷,35.732175,139.862795,,,,,,,,1240022,,,,,,,,,,,,,,,,,,,,,,,,,,,,・座標精度：番地号一致（同住所の別建物あり）
131229,1.31E+11,葛飾区,東四つ木ほほえみの里,,,,,,,131229,,東京都葛飾区東四つ木2-26-15東四つ木ほほえみの里,東京都,葛飾区,東四つ木2,26-15,特記事項に記載東四つ木ほほえみの里,35.729937,139.841709,,,,,,,,1240014,,,,,,,,,,,,,,,,,,,,,,,,,,,,・座標精度：大字・町代表点
131229,1.31E+11,葛飾区,西水元あやめ園,,,,,,,131229,,東京都葛飾区西水元2-2-8西水元あやめ園,東京都,葛飾区,西水元2,2-8,西水元あやめ園,35.784966,139.849081,,,,,,,,1250031,,,,,,,,,,,,,,,,,,,,,,,,,,,,・座標精度：番地号一致
131229,1.31E+11,葛飾区,水元在宅サービスセンター,,,,,,,131229,,東京都葛飾区水元1-26-20水元在宅サービスセンター,東京都,葛飾区,水元1,26-20,水元在宅サービスセンター,35.783582,139.859836,,,,,,,,1250032,,,,,,,,,,,,,,,,,,,,,,,,,,,,・座標精度：番地号一致
131229,1.31E+11,葛飾区,東堀切在宅サービスセンター,,,,,,,131229,,東京都葛飾区東堀切2-28-6-101東堀切在宅サービスセンター,東京都,葛飾区,東堀切2,28-6-101,東堀切在宅サービスセンター,35.751555,139.837598,,,,,,,,1240004,,,,,,,,,,,,,,,,,,,,,,,,,,,,・座標精度：番地号一致
131229,1.31E+11,葛飾区,奥戸在宅サービスセンター,,,,,,,131229,,東京都葛飾区奥戸3-25-1奥戸在宅サービスセンター,東京都,葛飾区,奥戸3,25-1,奥戸在宅サービスセンター,35.732175,139.862795,,,,,,,,1240022,,,,,,,,,,,,,,,,,,,,,,,,,,,,・座標精度：番地号一致（同住所の別建物あり）
131229,1.31E+11,葛飾区,亀有在宅サービスセンター,,,,,,,131229,,東京都葛飾区亀有1-10-14-101亀有在宅サービスセンター,東京都,葛飾区,亀有1,10-14-101,亀有在宅サービスセンター,35.757343,139.848238,,,,,,,,1250061,,,,,,,,,,,,,,,,,,,,,,,,,,,,・座標精度：番地号一致
131229,1.31E+11,葛飾区,東四つ木在宅サービスセンター,,,,,,,131229,,東京都葛飾区東四つ木4-44-2-101東四つ木在宅サービスセンター,東京都,葛飾区,東四つ木4,44-2-101,東四つ木在宅サービスセンター,35.734868,139.841098,,,,,,,,1240014,,,,,,,,,,,,,,,,,,,,,,,,,,,,・座標精度：番地号一致（同住所の別建物あり）
131229,1.31E+11,葛飾区,東新小岩在宅サービスセンター,,,,,,,131229,,東京都葛飾区東新小岩3-8-6-101東新小岩在宅サービスセンター,東京都,葛飾区,東新小岩3,8-6-101,東新小岩在宅サービスセンター,35.721689,139.859891,,,,,,,,1240023,,,,,,,,,,,,,,,,,,,,,,,,,,,,・座標精度：番地号一致
131229,1.31E+11,葛飾区,西水元在宅サービスセンター,,,,,,,131229,,東京都葛飾区西水元2-2-8西水元在宅サービスセンター,東京都,葛飾区,西水元2,2-8,西水元在宅サービスセンター,35.784966,139.849081,,,,,,,,1250031,,,,,,,,,,,,,,,,,,,,,,,,,,,,・座標精度：番地号一致
131229,1.31E+11,葛飾区,ウェルピアかつしか（障害者福祉センター）,,,,,,,131229,,東京都葛飾区堀切3-34-1ウェルピアかつしか（障害者福祉センター）,東京都,葛飾区,堀切3,34-1,ウェルピアかつしか（障害者福祉センター）,35.744359,139.834538,,,,,,,,1240006,,,,,,,,,,,,,,,,,,,,,,,,,,,,・座標精度：番地号一致（同住所の別建物あり）
131229,1.31E+11,葛飾区,子ども発達センター堀切分室,,,,,,,131229,,東京都葛飾区堀切3-34-1子ども発達センター堀切分室,東京都,葛飾区,堀切3,34-1,子ども発達センター堀切分室,35.744359,139.834538,,,,,,,,1240006,,,,,,,,,,,,,,,,,,,,,,,,,,,,・座標精度：番地号一致（同住所の別建物あり）
131229,1.31E+11,葛飾区,子ども発達センター水元分室,,,,,,,131229,,東京都葛飾区水元4-6-15子ども発達センター水元分室,東京都,葛飾区,水元4,6-15,子ども発達センター水元分室,35.788128,139.860639,,,,,,,,1250032,,,,,,,,,,,,,,,,,,,,,,,,,,,,・座標精度：番地号一致
131229,1.31E+11,葛飾区,子ども発達センター新小岩分室,,,,,,,131229,,東京都葛飾区西新小岩4-33-2子ども発達センター新小岩分室,東京都,葛飾区,西新小岩4,33-2,子ども発達センター新小岩分室,35.718841,139.853634,,,,,,,,1240025,,,,,,,,,,,,,,,,,,,,,,,,,,,,・座標精度：番地号一致
131229,1.31E+11,葛飾区,水元そよかぜ園,,,,,,,131229,,東京都葛飾区水元5-16-11水元そよかぜ園,東京都,葛飾区,水元5,16-11,水元そよかぜ園,35.789153,139.862953,,,,,,,,1250032,,,,,,,,,,,,,,,,,,,,,,,,,,,,・座標精度：番地号一致
131229,1.31E+11,葛飾区,奥戸福祉館,,,,,,,131229,,東京都葛飾区奥戸3-17-4-101奥戸福祉館,東京都,葛飾区,奥戸3,17-4-101,奥戸福祉館,35.730192,139.860849,,,,,,,,1240022,,,,,,,,,,,,,,,,,,,,,,,,,,,,・座標精度：番地号一致（同住所の別建物あり）
131229,1.31E+11,葛飾区,鎌倉福祉館,,,,,,,131229,,東京都葛飾区鎌倉3-7-1鎌倉福祉館,東京都,葛飾区,鎌倉3,7-1,鎌倉福祉館,35.74916,139.875136,,,,,,,,1250053,,,,,,,,,,,,,,,,,,,,,,,,,,,,・座標精度：番地号一致
131229,1.31E+11,葛飾区,高砂福祉館,,,,,,,131229,,東京都葛飾区高砂5-10-1高砂福祉館,東京都,葛飾区,高砂5,10-1,高砂福祉館,35.751773,139.864004,,,,,,,,1250054,,,,,,,,,,,,,,,,,,,,,,,,,,,,・座標精度：番地号一致
131229,1.31E+11,葛飾区,西水元福祉館,,,,,,,131229,,東京都葛飾区西水元3-11-1西水元福祉館,東京都,葛飾区,西水元3,11-1,西水元福祉館,35.788451,139.846975,,,,,,,,1250031,,,,,,,,,,,,,,,,,,,,,,,,,,,,・座標精度：番地号一致
131229,1.31E+11,葛飾区,白鳥福祉館,,,,,,,131229,,東京都葛飾区白鳥4-8-1白鳥福祉館,東京都,葛飾区,白鳥4,8-1,白鳥福祉館,35.752358,139.846395,,,,,,,,1250063,,,,,,,,,,,,,,,,,,,,,,,,,,,,・座標精度：番地号一致
131229,1.31E+11,葛飾区,東堀切くすのき園,,,,,,,131229,,東京都葛飾区東堀切1-21-3東堀切くすのき園,東京都,葛飾区,東堀切1,21-3,東堀切くすのき園,35.749014,139.836126,,,,,,,,1240004,,,,,,,,,,,,,,,,,,,,,,,,,,,,・座標精度：番地号一致
131229,1.31E+11,葛飾区,きね川福祉作業所,,,,,,,131229,,東京都葛飾区東四つ木3-8-10きね川福祉作業所,東京都,葛飾区,東四つ木3,8-10,きね川福祉作業所,35.729563,139.838244,,,,,,,,1240014,,,,,,,,,,,,,,,,,,,,,,,,,,,,・座標精度：番地号一致
131229,1.31E+11,葛飾区,青戸しょうぶ,,,,,,,131229,,東京都葛飾区青戸5-20-6青戸しょうぶ,東京都,葛飾区,青戸5,20-6,青戸しょうぶ,35.750122,139.854345,,,,,,,,1250062,,,,,,,,,,,,,,,,,,,,,,,,,,,,・座標精度：番地号一致
131229,1.31E+11,葛飾区,こすもす,,,,,,,131229,,東京都葛飾区東四つ木3-49-10こすもす,東京都,葛飾区,東四つ木3,49-10,こすもす,35.730853,139.840695,,,,,,,,1240014,,,,,,,,,,,,,,,,,,,,,,,,,,,,・座標精度：番地号一致（同住所の別建物あり）
131229,1.31E+11,葛飾区,葛飾幼児グループ,,,,,,,131229,,東京都葛飾区四つ木5-6-7葛飾幼児グループ,東京都,葛飾区,四つ木5,6-7,葛飾幼児グループ,35.740695,139.838277,,,,,,,,1240011,,,,,,,,,,,,,,,,,,,,,,,,,,,,・座標精度：番地号一致
131229,1.31E+11,葛飾区,のぞみ発達クリニック,,,,,,,131229,,東京都葛飾区高砂7-26-3のぞみ発達クリニック,東京都,葛飾区,高砂7,26-3,のぞみ発達クリニック,35.757,139.86714,,,,,,,,1250054,,,,,,,,,,,,,,,,,,,,,,,,,,,,・座標精度：番地号一致
131229,1.31E+11,葛飾区,障害者就労支援センター,,,,,,,131229,,東京都葛飾区立石5-27-1障害者就労支援センター,東京都,葛飾区,立石5,27-1,障害者就労支援センター,35.745828,139.846272,,,,,,,,1240012,,,,,,,,,,,,,,,,,,,,,,,,,,,,・座標精度：番地号一致
131229,1.31E+11,葛飾区,子ども未来プラザ鎌倉,,,,,,,131229,,東京都葛飾区鎌倉1-7-3子ども未来プラザ鎌倉,東京都,葛飾区,鎌倉1,7-3,子ども未来プラザ鎌倉,35.743686,139.877011,,,,,,,,1250053,,,,,,,,,,,,,,,,,,,,,,,,,,,,・座標精度：番地号一致
131229,1.31E+11,葛飾区,子ども未来プラザ西新小岩,,,,,,,131229,,東京都葛飾区西新小岩4-33-2子ども未来プラザ西新小岩,東京都,葛飾区,西新小岩4,33-2,子ども未来プラザ西新小岩,35.718841,139.853634,,,,,,,,1240025,,,,,,,,,,,,,,,,,,,,,,,,,,,,・座標精度：番地号一致
131229,1.31E+11,葛飾区,小松保育園,,,,,,,131229,,東京都葛飾区新小岩2-14-9小松保育園,東京都,葛飾区,新小岩2,14-9,小松保育園,35.715476,139.862585,,,,,,,,1240024,,,,,,,,,,,,,,,,,,,,,,,,,,,,・座標精度：番地号一致
131229,1.31E+11,葛飾区,白鷺保育園,,,,,,,131229,,東京都葛飾区柴又3-30-9白鷺保育園,東京都,葛飾区,柴又3,30-9,白鷺保育園,35.758754,139.875021,,,,,,,,1250052,,,,,,,,,,,,,,,,,,,,,,,,,,,,・座標精度：番地号一致
131229,1.31E+11,葛飾区,双葉保育園,,,,,,,131229,,東京都葛飾区東堀切1-15-16双葉保育園,東京都,葛飾区,東堀切1,15-16,双葉保育園,35.748829,139.835578,,,,,,,,1240004,,,,,,,,,,,,,,,,,,,,,,,,,,,,・座標精度：番地号一致
131229,1.31E+11,葛飾区,青戸保育園,,,,,,,131229,,東京都葛飾区青戸5-9-10青戸保育園,東京都,葛飾区,青戸5,9-10,青戸保育園,35.751929,139.853394,,,,,,,,1250062,,,,,,,,,,,,,,,,,,,,,,,,,,,,・座標精度：番地号一致
131229,1.31E+11,葛飾区,上平井保育園,,,,,,,131229,,東京都葛飾区西新小岩4-33-2上平井保育園,東京都,葛飾区,西新小岩4,33-2,上平井保育園,35.718841,139.853634,,,,,,,,1240025,,,,,,,,,,,,,,,,,,,,,,,,,,,,・座標精度：番地号一致
131229,1.31E+11,葛飾区,四つ木保育園,,,,,,,131229,,東京都葛飾区四つ木3-5-6四つ木保育園,東京都,葛飾区,四つ木3,5-6,四つ木保育園,35.737719,139.830626,,,,,,,,1240011,,,,,,,,,,,,,,,,,,,,,,,,,,,,・座標精度：番地号一致
131229,1.31E+11,葛飾区,小合保育園,,,,,,,131229,,東京都葛飾区南水元3-3-11小合保育園,東京都,葛飾区,南水元3,3-11,小合保育園,35.776812,139.863516,,,,,,,,1250035,,,,,,,,,,,,,,,,,,,,,,,,,,,,・座標精度：番地号一致
131229,1.31E+11,葛飾区,木根川保育園,,,,,,,131229,,東京都葛飾区東四つ木1-18-12木根川保育園,東京都,葛飾区,東四つ木1,18-12,木根川保育園,35.728721,139.841926,,,,,,,,1240014,,,,,,,,,,,,,,,,,,,,,,,,,,,,・座標精度：番地号一致
131229,1.31E+11,葛飾区,半田保育園,,,,,,,131229,,東京都葛飾区東金町4-34-12半田保育園,東京都,葛飾区,東金町4,34-12,半田保育園,35.77623,139.875151,,,,,,,,1250041,,,,,,,,,,,,,,,,,,,,,,,,,,,,・座標精度：番地号一致
131229,1.31E+11,葛飾区,東新小岩保育園,,,,,,,131229,,東京都葛飾区東新小岩4-7-13東新小岩保育園,東京都,葛飾区,東新小岩4,7-13,東新小岩保育園,35.727841,139.861759,,,,,,,,1240023,,,,,,,,,,,,,,,,,,,,,,,,,,,,・座標精度：番地号一致
131229,1.31E+11,葛飾区,南堀切保育園,,,,,,,131229,,東京都葛飾区堀切1-23-3南堀切保育園,東京都,葛飾区,堀切1,23-3,南堀切保育園,35.74032,139.829559,,,,,,,,1240006,,,,,,,,,,,,,,,,,,,,,,,,,,,,・座標精度：番地号一致（同住所の別建物あり）
131229,1.31E+11,葛飾区,小菅保育園,,,,,,,131229,,東京都葛飾区小菅2-19-1　（仮園舎）小菅保育園,東京都,葛飾区,小菅2,19-1,（仮園舎）小菅保育園,35.750152,139.825747,,,,,,,,1240001,,,,,,,,,,,,,,,,,,,,,,,,,,,,・座標精度：番地号一致
131229,1.31E+11,葛飾区,宝保育園,,,,,,,131229,,東京都葛飾区宝町1-12-10宝保育園,東京都,葛飾区,宝町1,12-10,宝保育園,35.742233,139.837633,,,,,,,,1240005,,,,,,,,,,,,,,,,,,,,,,,,,,,,・座標精度：番地号一致
131229,1.31E+11,葛飾区,住吉保育園,,,,,,,131229,,東京都葛飾区高砂7-26-3住吉保育園,東京都,葛飾区,高砂7,26-3,住吉保育園,35.757,139.86714,,,,,,,,1250054,,,,,,,,,,,,,,,,,,,,,,,,,,,,・座標精度：番地号一致
131229,1.31E+11,葛飾区,梅田保育園,,,,,,,131229,,東京都葛飾区立石3-26-10梅田保育園,東京都,葛飾区,立石3,26-10,梅田保育園,35.741099,139.845385,,,,,,,,1240012,,,,,,,,,,,,,,,,,,,,,,,,,,,,・座標精度：番地号一致
131229,1.31E+11,葛飾区,白鳥保育園,,,,,,,131229,,東京都葛飾区西亀有1-18-6　（仮園舎）白鳥保育園,東京都,葛飾区,西亀有１,18-6,（仮園舎）白鳥保育園,35.758492,139.839035,,,,,,,,1250063,,,,,,,,,,,,,,,,,,,,,,,,,,,,・座標精度：番地号一致
131229,1.31E+11,葛飾区,渋江保育園,,,,,,,131229,,東京都葛飾区東四つ木2-15-11渋江保育園,東京都,葛飾区,東四つ木2,15-11,渋江保育園,35.730869,139.843964,,,,,,,,1240013,,,,,,,,,,,,,,,,,,,,,,,,,,,,・座標精度：番地号一致
131229,1.31E+11,葛飾区,細田保育園,,,,,,,131229,,東京都葛飾区細田4-19-5細田保育園,東京都,葛飾区,細田4,19-5,細田保育園,35.742877,139.871863,,,,,,,,1240021,,,,,,,,,,,,,,,,,,,,,,,,,,,,・座標精度：番地号一致
131229,1.31E+11,葛飾区,二上保育園,,,,,,,131229,,東京都葛飾区東新小岩7-17-3二上保育園,東京都,葛飾区,東新小岩7,17-3,二上保育園,35.724139,139.854465,,,,,,,,1240023,,,,,,,,,,,,,,,,,,,,,,,,,,,,・座標精度：番地号一致
131229,1.31E+11,葛飾区,南奥戸保育園,,,,,,,131229,,東京都葛飾区奥戸2-30-11南奥戸保育園,東京都,葛飾区,奥戸2,30-11,南奥戸保育園,35.733691,139.85987,,,,,,,,1240022,,,,,,,,,,,,,,,,,,,,,,,,,,,,・座標精度：番地号一致
131229,1.31E+11,葛飾区,南新宿保育園,,,,,,,131229,,東京都葛飾区新宿1-23-4南新宿保育園,東京都,葛飾区,新宿1,23-4,南新宿保育園,35.760474,139.860996,,,,,,,,1250051,,,,,,,,,,,,,,,,,,,,,,,,,,,,・座標精度：番地号一致
131229,1.31E+11,葛飾区,新水元保育園,,,,,,,131229,,東京都葛飾区東水元3-5-7新水元保育園,東京都,葛飾区,東水元3,5-7,新水元保育園,35.784169,139.866066,,,,,,,,1250033,,,,,,,,,,,,,,,,,,,,,,,,,,,,・座標精度：番地号一致
131229,1.31E+11,葛飾区,南鎌倉保育園,,,,,,,131229,,東京都葛飾区鎌倉1-7-3南鎌倉保育園,東京都,葛飾区,鎌倉1,7-3,南鎌倉保育園,35.743686,139.877011,,,,,,,,1250053,,,,,,,,,,,,,,,,,,,,,,,,,,,,・座標精度：番地号一致
131229,1.31E+11,葛飾区,幸田保育園,,,,,,,131229,,東京都葛飾区西水元2-16-10幸田保育園,東京都,葛飾区,西水元2,16-10,幸田保育園,35.786054,139.851388,,,,,,,,1250031,,,,,,,,,,,,,,,,,,,,,,,,,,,,・座標精度：番地号一致
131229,1.31E+11,葛飾区,堀切保育園,,,,,,,131229,,東京都葛飾区堀切1-9-18堀切保育園,東京都,葛飾区,堀切1,9-18,堀切保育園,35.740109,139.828047,,,,,,,,1240006,,,,,,,,,,,,,,,,,,,,,,,,,,,,・座標精度：番地号一致
131229,1.31E+11,葛飾区,道上保育園,,,,,,,131229,,東京都葛飾区亀有4-24-11道上保育園,東京都,葛飾区,亀有4,24-11,道上保育園,35.762262,139.843214,,,,,,,,1250061,,,,,,,,,,,,,,,,,,,,,,,,,,,,・座標精度：番地号一致
131229,1.31E+11,葛飾区,小菅東保育園,,,,,,,131229,,東京都葛飾区小菅3-10-32小菅東保育園,東京都,葛飾区,小菅3,10-32,小菅東保育園,35.755126,139.8248,,,,,,,,1240001,,,,,,,,,,,,,,,,,,,,,,,,,,,,・座標精度：番地号一致（同住所の別建物あり）
131229,1.31E+11,葛飾区,会野保育園,,,,,,,131229,,東京都葛飾区奥戸5-23-7会野保育園,東京都,葛飾区,奥戸5,23-7,会野保育園,35.730485,139.865059,,,,,,,,1240022,,,,,,,,,,,,,,,,,,,,,,,,,,,,・座標精度：番地号一致
131229,1.31E+11,葛飾区,西新小岩保育園,,,,,,,131229,,東京都葛飾区西新小岩3-21-7西新小岩保育園,東京都,葛飾区,西新小岩3,21-7,西新小岩保育園,35.721121,139.848589,,,,,,,,1240025,,,,,,,,,,,,,,,,,,,,,,,,,,,,・座標精度：番地号一致
131229,1.31E+11,葛飾区,東堀切保育園,,,,,,,131229,,東京都葛飾区東堀切2-20-8東堀切保育園,東京都,葛飾区,東堀切2,20-8,東堀切保育園,35.75149,139.83508,,,,,,,,1240004,,,,,,,,,,,,,,,,,,,,,,,,,,,,・座標精度：番地号一致
131229,1.31E+11,葛飾区,花の木保育園,,,,,,,131229,,東京都葛飾区南水元3-7-2花の木保育園,東京都,葛飾区,南水元3,7-2,花の木保育園,35.773953,139.865964,,,,,,,,,,,,,,,,,,,,,,,,,,,,,,,,,,,,・座標精度：街区代表点
131229,1.31E+11,葛飾区,中青戸保育園,,,,,,,131229,,東京都葛飾区青戸3-8-8中青戸保育園,東京都,葛飾区,青戸3,8-8,中青戸保育園,35.746619,139.848147,,,,,,,,1250062,,,,,,,,,,,,,,,,,,,,,,,,,,,,・座標精度：番地号一致
131229,1.31E+11,葛飾区,東半田保育園,,,,,,,131229,,東京都葛飾区東金町5-28-1東半田保育園,東京都,葛飾区,東金町5,28-1,東半田保育園,35.777832,139.877772,,,,,,,,1250041,,,,,,,,,,,,,,,,,,,,,,,,,,,,・座標精度：番地号一致（同住所の別建物あり）
131229,1.31E+11,葛飾区,たつみ保育園,,,,,,,131229,,東京都葛飾区西新小岩2-1-3たつみ保育園,東京都,葛飾区,西新小岩2,1-3,たつみ保育園,35.717718,139.850097,,,,,,,,1240025,,,,,,,,,,,,,,,,,,,,,,,,,,,,・座標精度：番地号一致（同住所の別建物あり）
131229,1.31E+11,葛飾区,南白鳥保育園,,,,,,,131229,,東京都葛飾区白鳥3-2-1南白鳥保育園,東京都,葛飾区,白鳥3,2-1,南白鳥保育園,35.750855,139.843035,,,,,,,,1250063,,,,,,,,,,,,,,,,,,,,,,,,,,,,・座標精度：番地号一致
131229,1.31E+11,葛飾区,小谷野しょうぶ保育園,,,,,,,131229,,東京都葛飾区堀切4-60-1小谷野しょうぶ保育園,東京都,葛飾区,堀切4,60-1,小谷野しょうぶ保育園,35.749549,139.826274,,,,,,,,1240006,,,,,,,,,,,,,,,,,,,,,,,,,,,,・座標精度：番地号一致（同住所の別建物あり）
131229,1.31E+11,葛飾区,新高砂保育園,,,,,,,131229,,東京都葛飾区高砂4-1-49新高砂保育園,東京都,葛飾区,高砂4,1-49,新高砂保育園,35.745357,139.871401,,,,,,,,1250054,,,,,,,,,,,,,,,,,,,,,,,,,,,,・座標精度：番地号一致
131229,1.31E+11,葛飾区,青戸もも保育園,,,,,,,131229,,東京都葛飾区青戸4-23-1青戸もも保育園,東京都,葛飾区,青戸4,23-1,青戸もも保育園,35.7491,139.851974,,,,,,,,1250062,,,,,,,,,,,,,,,,,,,,,,,,,,,,・座標精度：番地号一致
131229,1.31E+11,葛飾区,そあ保育園,,,,,,,131229,,東京都葛飾区水元3-13-20そあ保育園,東京都,葛飾区,水元3,13-20,そあ保育園,35.782392,139.864607,,,,,,,,1250032,,,,,,,,,,,,,,,,,,,,,,,,,,,,・座標精度：番地号一致
131229,1.31E+11,葛飾区,金町ひまわり保育園,,,,,,,131229,,東京都葛飾区東金町1-3-1金町ひまわり保育園,東京都,葛飾区,東金町1,3-1,金町ひまわり保育園,35.770446,139.865215,,,,,,,,1250041,,,,,,,,,,,,,,,,,,,,,,,,,,,,・座標精度：番地号一致
131229,1.31E+11,葛飾区,青戸ひだまり保育園,,,,,,,131229,,東京都葛飾区青戸3-10-5青戸ひだまり保育園,東京都,葛飾区,青戸3,10-5,青戸ひだまり保育園,35.746305,139.848827,,,,,,,,1250062,,,,,,,,,,,,,,,,,,,,,,,,,,,,・座標精度：番地号一致
131229,1.31E+11,葛飾区,新小岩保育室「結」,,,,,,,131229,,東京都葛飾区東新小岩5-16-2新小岩保育室「結」,東京都,葛飾区,東新小岩5,16-2,新小岩保育室「結」,35.722556,139.855654,,,,,,,,1240023,,,,,,,,,,,,,,,,,,,,,,,,,,,,・座標精度：番地号一致
131229,1.31E+11,葛飾区,白鳥児童館,,,,,,,131229,,東京都葛飾区西亀有1-18-6（仮園舎）白鳥児童館,東京都,葛飾区,西亀有１,18-6,（仮園舎）白鳥児童館,35.755425,139.844396,,,,,,,,1250063,,,,,,,,,,,,,,,,,,,,,,,,,,,,・座標精度：番地号一致
131229,1.31E+11,葛飾区,東堀切児童館,,,,,,,131229,,東京都葛飾区東堀切2-20-8東堀切児童館,東京都,葛飾区,東堀切2,20-8,東堀切児童館,35.75149,139.83508,,,,,,,,1240004,,,,,,,,,,,,,,,,,,,,,,,,,,,,・座標精度：番地号一致
131229,1.31E+11,葛飾区,西奥戸児童館,,,,,,,131229,,東京都葛飾区奥戸1-12-1西奥戸児童館,東京都,葛飾区,奥戸1,12-1,西奥戸児童館,35.728564,139.854201,,,,,,,,1240022,,,,,,,,,,,,,,,,,,,,,,,,,,,,・座標精度：番地号一致
131229,1.31E+11,葛飾区,東奥戸児童館,,,,,,,131229,,東京都葛飾区奥戸4-20-11東奥戸児童館,東京都,葛飾区,奥戸4,20-11,東奥戸児童館,35.728862,139.867926,,,,,,,,1240022,,,,,,,,,,,,,,,,,,,,,,,,,,,,・座標精度：番地号一致（同住所の別建物あり）
131229,1.31E+11,葛飾区,南奥戸児童館,,,,,,,131229,,東京都葛飾区奥戸2-30-11南奥戸児童館,東京都,葛飾区,奥戸2,30-11,南奥戸児童館,35.733691,139.85987,,,,,,,,1240022,,,,,,,,,,,,,,,,,,,,,,,,,,,,・座標精度：番地号一致
131229,1.31E+11,葛飾区,亀有児童館,,,,,,,131229,,東京都葛飾区亀有1-17-5亀有児童館,東京都,葛飾区,亀有1,17-5,亀有児童館,35.759176,139.846017,,,,,,,,1250061,,,,,,,,,,,,,,,,,,,,,,,,,,,,・座標精度：番地号一致
131229,1.31E+11,葛飾区,西亀有児童館,,,,,,,131229,,東京都葛飾区西亀有4-24-1西亀有児童館,東京都,葛飾区,西亀有4,24-1,西亀有児童館,35.764831,139.843628,,,,,,,,1250002,,,,,,,,,,,,,,,,,,,,,,,,,,,,・座標精度：番地号一致
131229,1.31E+11,葛飾区,鎌倉児童館,,,,,,,131229,,東京都葛飾区鎌倉2-6-20鎌倉児童館,東京都,葛飾区,鎌倉2,6-20,鎌倉児童館,35.745298,139.874531,,,,,,,,1250053,,,,,,,,,,,,,,,,,,,,,,,,,,,,・座標精度：番地号一致
131229,1.31E+11,葛飾区,高砂児童館,,,,,,,131229,,東京都葛飾区高砂5-6-7高砂児童館,東京都,葛飾区,高砂5,6-7,高砂児童館,35.751404,139.865224,,,,,,,,1250054,,,,,,,,,,,,,,,,,,,,,,,,,,,,・座標精度：番地号一致
131229,1.31E+11,葛飾区,柴又児童館,,,,,,,131229,,東京都葛飾区柴又2-4-5柴又児童館,東京都,葛飾区,柴又2,4-5,柴又児童館,35.75801,139.870133,,,,,,,,1250052,,,,,,,,,,,,,,,,,,,,,,,,,,,,・座標精度：番地号一致
131229,1.31E+11,葛飾区,新柴又児童館,,,,,,,131229,,東京都葛飾区柴又5-33-8新柴又児童館,東京都,葛飾区,柴又5,33-8,新柴又児童館,35.753682,139.881852,,,,,,,,1250052,,,,,,,,,,,,,,,,,,,,,,,,,,,,・座標精度：番地号一致
131229,1.31E+11,葛飾区,末広児童館,,,,,,,131229,,東京都葛飾区金町5-4-1末広児童館,東京都,葛飾区,金町5,4-1,末広児童館,35.765954,139.866389,,,,,,,,1250042,,,,,,,,,,,,,,,,,,,,,,,,,,,,・座標精度：番地号一致
131229,1.31E+11,葛飾区,南新宿児童館,,,,,,,131229,,東京都葛飾区新宿1-23-4南新宿児童館,東京都,葛飾区,新宿1,23-4,南新宿児童館,35.760474,139.860996,,,,,,,,1250051,,,,,,,,,,,,,,,,,,,,,,,,,,,,・座標精度：番地号一致
131229,1.31E+11,葛飾区,新水元児童館,,,,,,,131229,,東京都葛飾区東水元3-5-7新水元児童館,東京都,葛飾区,東水元3,5-7,新水元児童館,35.784169,139.866066,,,,,,,,1250033,,,,,,,,,,,,,,,,,,,,,,,,,,,,・座標精度：番地号一致
131229,1.31E+11,葛飾区,花の木児童館,,,,,,,131229,,東京都葛飾区南水元3-7-1花の木児童館,東京都,葛飾区,南水元3,7-1,花の木児童館,35.77392,139.865868,,,,,,,,1250035,,,,,,,,,,,,,,,,,,,,,,,,,,,,・座標精度：番地号一致
131229,1.31E+11,葛飾区,幸田児童館,,,,,,,131229,,東京都葛飾区西水元2-16-10幸田児童館,東京都,葛飾区,西水元2,16-10,幸田児童館,35.786054,139.851388,,,,,,,,1250031,,,,,,,,,,,,,,,,,,,,,,,,,,,,・座標精度：番地号一致
131229,1.31E+11,葛飾区,青戸児童館,,,,,,,131229,,東京都葛飾区青戸3-10-5青戸児童館,東京都,葛飾区,青戸3,10-5,青戸児童館,35.746305,139.848827,,,,,,,,1250062,,,,,,,,,,,,,,,,,,,,,,,,,,,,・座標精度：番地号一致
131229,1.31E+11,葛飾区,青戸中央児童館,,,,,,,131229,,東京都葛飾区青戸6-16-12青戸中央児童館,東京都,葛飾区,青戸6,16-12,青戸中央児童館,35.752986,139.85712,,,,,,,,1250062,,,,,,,,,,,,,,,,,,,,,,,,,,,,・座標精度：番地号一致
131229,1.31E+11,葛飾区,東金町児童館,,,,,,,131229,,東京都葛飾区東金町5-22-18東金町児童館,東京都,葛飾区,東金町5,22-18,東金町児童館,35.779296,139.877945,,,,,,,,1250041,,,,,,,,,,,,,,,,,,,,,,,,,,,,・座標精度：番地号一致
131229,1.31E+11,葛飾区,子ども未来プラザ東四つ木,,,,,,,131229,,東京都葛飾区東四つ木2-15-11子ども未来プラザ東四つ木,東京都,葛飾区,東四つ木2,15-11,子ども未来プラザ東四つ木,35.728891,139.840693,,,,,,,,1240014,,,,,,,,,,,,,,,,,,,,,,,,,,,,・座標精度：番地号一致
131229,1.31E+11,葛飾区,小菅児童館,,,,,,,131229,,東京都葛飾区 小菅2-19-1（仮園舎）小菅児童館,東京都,葛飾区,小菅2,19-1,（仮園舎）小菅児童館,35.750152,139.825747,,,,,,,,1240001,,,,,,,,,,,,,,,,,,,,,,,,,,,,・座標精度：番地号一致
131229,1.31E+11,葛飾区,中道児童館,,,,,,,131229,,東京都葛飾区西亀有1-2-7中道児童館,東京都,葛飾区,西亀有1,2-7,中道児童館,35.756812,139.837079,,,,,,,,1240002,,,,,,,,,,,,,,,,,,,,,,,,,,,,・座標精度：番地号一致
131229,1.31E+11,葛飾区,宝町児童館,,,,,,,131229,,東京都葛飾区宝町1-5-1宝町児童館,東京都,葛飾区,宝町1,5-1,宝町児童館,35.742291,139.835399,,,,,,,,1240005,,,,,,,,,,,,,,,,,,,,,,,,,,,,・座標精度：番地号一致
131229,1.31E+11,葛飾区,堀切児童館,,,,,,,131229,,東京都葛飾区堀切1-9-18堀切児童館,東京都,葛飾区,堀切1,9-18,堀切児童館,35.740109,139.828047,,,,,,,,1240006,,,,,,,,,,,,,,,,,,,,,,,,,,,,・座標精度：番地号一致
131229,1.31E+11,葛飾区,梅田児童館,,,,,,,131229,,東京都葛飾区立石3-26-10梅田児童館,東京都,葛飾区,立石3,26-10,梅田児童館,35.741099,139.845385,,,,,,,,1240012,,,,,,,,,,,,,,,,,,,,,,,,,,,,・座標精度：番地号一致
131229,1.31E+11,葛飾区,青戸学童保育クラブ,,,,,,,131229,,東京都葛飾区青戸3-10-5青戸学童保育クラブ,東京都,葛飾区,青戸3,10-5,青戸学童保育クラブ,35.746305,139.848827,,,,,,,,1250062,,,,,,,,,,,,,,,,,,,,,,,,,,,,・座標精度：番地号一致
131229,1.31E+11,葛飾区,青戸中央学童保育クラブ,,,,,,,131229,,東京都葛飾区青戸6-16-12青戸中央学童保育クラブ,東京都,葛飾区,青戸6,16-12,青戸中央学童保育クラブ,35.752986,139.85712,,,,,,,,1250062,,,,,,,,,,,,,,,,,,,,,,,,,,,,・座標精度：番地号一致
131229,1.31E+11,葛飾区,西奥戸学童保育クラブ,,,,,,,131229,,東京都葛飾区奥戸1-12-1西奥戸学童保育クラブ,東京都,葛飾区,奥戸1,12-1,西奥戸学童保育クラブ,35.728564,139.854201,,,,,,,,1240022,,,,,,,,,,,,,,,,,,,,,,,,,,,,・座標精度：番地号一致
131229,1.31E+11,葛飾区,東奥戸学童保育クラブ,,,,,,,131229,,東京都葛飾区奥戸4-20-11東奥戸学童保育クラブ,東京都,葛飾区,奥戸4,20-11,東奥戸学童保育クラブ,35.728862,139.867926,,,,,,,,1240022,,,,,,,,,,,,,,,,,,,,,,,,,,,,・座標精度：番地号一致（同住所の別建物あり）
131229,1.31E+11,葛飾区,南奥戸学童保育クラブ,,,,,,,131229,,東京都葛飾区奥戸2-30-11南奥戸学童保育クラブ,東京都,葛飾区,奥戸2,30-11,南奥戸学童保育クラブ,35.733691,139.85987,,,,,,,,1240022,,,,,,,,,,,,,,,,,,,,,,,,,,,,・座標精度：番地号一致
131229,1.31E+11,葛飾区,東堀切学童保育クラブ,,,,,,,131229,,東京都葛飾区東堀切2-20-8東堀切学童保育クラブ,東京都,葛飾区,東堀切2,20-8,東堀切学童保育クラブ,35.75149,139.83508,,,,,,,,1240004,,,,,,,,,,,,,,,,,,,,,,,,,,,,・座標精度：番地号一致
131229,1.31E+11,葛飾区,末広学童保育クラブ,,,,,,,131229,,東京都葛飾区金町5-4-1末広学童保育クラブ,東京都,葛飾区,金町5,4-1,末広学童保育クラブ,35.765954,139.866389,,,,,,,,1250042,,,,,,,,,,,,,,,,,,,,,,,,,,,,・座標精度：番地号一致
131229,1.31E+11,葛飾区,花の木学童保育クラブ,,,,,,,131229,,東京都葛飾区南水元3-7-1花の木学童保育クラブ,東京都,葛飾区,南水元3,7-1,花の木学童保育クラブ,35.77392,139.865868,,,,,,,,1250035,,,,,,,,,,,,,,,,,,,,,,,,,,,,・座標精度：番地号一致
131229,1.31E+11,葛飾区,亀有学童保育クラブ,,,,,,,131229,,東京都葛飾区亀有1-17-5亀有学童保育クラブ,東京都,葛飾区,亀有1,17-5,亀有学童保育クラブ,35.759176,139.846017,,,,,,,,1250061,,,,,,,,,,,,,,,,,,,,,,,,,,,,・座標精度：番地号一致
131229,1.31E+11,葛飾区,西亀有学童保育クラブ,,,,,,,131229,,東京都葛飾区西亀有4-24-1西亀有学童保育クラブ,東京都,葛飾区,西亀有4,24-1,西亀有学童保育クラブ,35.764831,139.843628,,,,,,,,1250002,,,,,,,,,,,,,,,,,,,,,,,,,,,,・座標精度：番地号一致
131229,1.31E+11,葛飾区,柴又学童保育クラブ,,,,,,,131229,,東京都葛飾区柴又2-4-5柴又学童保育クラブ,東京都,葛飾区,柴又2,4-5,柴又学童保育クラブ,35.75801,139.870133,,,,,,,,1250052,,,,,,,,,,,,,,,,,,,,,,,,,,,,・座標精度：番地号一致
131229,1.31E+11,葛飾区,新柴又学童保育クラブ,,,,,,,131229,,東京都葛飾区柴又5-33-8新柴又学童保育クラブ,東京都,葛飾区,柴又5,33-8,新柴又学童保育クラブ,35.753682,139.881852,,,,,,,,1250052,,,,,,,,,,,,,,,,,,,,,,,,,,,,・座標精度：番地号一致
131229,1.31E+11,葛飾区,鎌倉学童保育クラブ,,,,,,,131229,,東京都葛飾区鎌倉2-6-20鎌倉学童保育クラブ,東京都,葛飾区,鎌倉2,6-20,鎌倉学童保育クラブ,35.745298,139.874531,,,,,,,,1250053,,,,,,,,,,,,,,,,,,,,,,,,,,,,・座標精度：番地号一致
131229,1.31E+11,葛飾区,高砂学童保育クラブ,,,,,,,131229,,東京都葛飾区高砂5-6-7高砂学童保育クラブ,東京都,葛飾区,高砂5,6-7,高砂学童保育クラブ,35.751404,139.865224,,,,,,,,1250054,,,,,,,,,,,,,,,,,,,,,,,,,,,,・座標精度：番地号一致
131229,1.31E+11,葛飾区,梅田学童保育クラブ,,,,,,,131229,,東京都葛飾区立石3-26-10梅田学童保育クラブ,東京都,葛飾区,立石3,26-10,梅田学童保育クラブ,35.741099,139.845385,,,,,,,,1240012,,,,,,,,,,,,,,,,,,,,,,,,,,,,・座標精度：番地号一致
131229,1.31E+11,葛飾区,幸田学童保育クラブ,,,,,,,131229,,東京都葛飾区西水元2-16-10幸田学童保育クラブ,東京都,葛飾区,西水元2,16-10,幸田学童保育クラブ,35.786054,139.851388,,,,,,,,1250031,,,,,,,,,,,,,,,,,,,,,,,,,,,,・座標精度：番地号一致
131229,1.31E+11,葛飾区,東金町学童保育クラブ,,,,,,,131229,,東京都葛飾区東金町5-22-18東金町学童保育クラブ,東京都,葛飾区,東金町5,22-18,東金町学童保育クラブ,35.779296,139.877945,,,,,,,,1250041,,,,,,,,,,,,,,,,,,,,,,,,,,,,・座標精度：番地号一致
131229,1.31E+11,葛飾区,宝町学童保育クラブ,,,,,,,131229,,東京都葛飾区宝町1-5-1宝町学童保育クラブ,東京都,葛飾区,宝町1,5-1,宝町学童保育クラブ,35.742291,139.835399,,,,,,,,1240005,,,,,,,,,,,,,,,,,,,,,,,,,,,,・座標精度：番地号一致
131229,1.31E+11,葛飾区,堀切学童保育クラブ,,,,,,,131229,,東京都葛飾区堀切1-9-18堀切学童保育クラブ,東京都,葛飾区,堀切1,9-18,堀切学童保育クラブ,35.740109,139.828047,,,,,,,,1240006,,,,,,,,,,,,,,,,,,,,,,,,,,,,・座標精度：番地号一致
131229,1.31E+11,葛飾区,中道学童保育クラブ,,,,,,,131229,,東京都葛飾区西亀有1-2-7中道学童保育クラブ,東京都,葛飾区,西亀有1,2-7,中道学童保育クラブ,35.756812,139.837079,,,,,,,,1240002,,,,,,,,,,,,,,,,,,,,,,,,,,,,・座標精度：番地号一致
131229,1.31E+11,葛飾区,葛飾学園半田学童保育クラブ,,,,,,,131229,,東京都葛飾区東金町5-16-1葛飾学園半田学童保育クラブ,東京都,葛飾区,東金町5,16-1,葛飾学園半田学童保育クラブ,35.777527,139.876563,,,,,,,,1250041,,,,,,,,,,,,,,,,,,,,,,,,,,,,・座標精度：番地号一致（同住所の別建物あり）
131229,1.31E+11,葛飾区,葛飾学園上千葉学童保育クラブ,,,,,,,131229,,東京都葛飾区東堀切3-26-2葛飾学園上千葉学童保育クラブ,東京都,葛飾区,東堀切3,26-2,葛飾学園上千葉学童保育クラブ,35.753939,139.839198,,,,,,,,1240004,,,,,,,,,,,,,,,,,,,,,,,,,,,,・座標精度：番地号一致
131229,1.31E+11,葛飾区,奥戸小学童保育クラブ,,,,,,,131229,,東京都葛飾区奥戸8-20-17奥戸小学童保育クラブ,東京都,葛飾区,奥戸8,20-17,奥戸小学童保育クラブ,35.738859,139.865015,,,,,,,,1240022,,,,,,,,,,,,,,,,,,,,,,,,,,,,・座標精度：番地号一致
131229,1.31E+11,葛飾区,松上・第二松上学童保育クラブ,,,,,,,131229,,東京都葛飾区西新小岩2-1-6松上・第二松上学童保育クラブ,東京都,葛飾区,西新小岩2,1-6,松上・第二松上学童保育クラブ,35.717573,139.853884,,,,,,,,1240025,,,,,,,,,,,,,,,,,,,,,,,,,,,,・座標精度：番地号一致
131229,1.31E+11,葛飾区,高砂小第一・第二学童保育クラブ,,,,,,,131229,,東京都葛飾区高砂3-30-1高砂小第一・第二学童保育クラブ,東京都,葛飾区,高砂3,30-1,高砂小第一・第二学童保育クラブ,35.746708,139.869743,,,,,,,,1250054,,,,,,,,,,,,,,,,,,,,,,,,,,,,・座標精度：番地号一致（同住所の別建物あり）
131229,1.31E+11,葛飾区,中青戸・中青戸第二・中青戸第三学童保育クラブ,,,,,,,131229,,東京都葛飾区青戸4-24-1中青戸・中青戸第二・中青戸第三学童保育クラブ,東京都,葛飾区,青戸4,24-1,中青戸・中青戸第二・中青戸第三学童保育クラブ,35.750759,139.851814,,,,,,,,1250062,,,,,,,,,,,,,,,,,,,,,,,,,,,,・座標精度：番地号一致
131229,1.31E+11,葛飾区,こひつじ本田学童保育クラブ,,,,,,,131229,,東京都葛飾区立石1-7-23こひつじ本田学童保育クラブ,東京都,葛飾区,立石1,7-23,こひつじ本田学童保育クラブ,35.737269,139.844987,,,,,,,,1240012,,,,,,,,,,,,,,,,,,,,,,,,,,,,・座標精度：番地号一致
131229,1.31E+11,葛飾区,木根川学童保育クラブ,,,,,,,131229,,東京都葛飾区東四つ木1-10-2木根川学童保育クラブ,東京都,葛飾区,東四つ木1,10-2,木根川学童保育クラブ,35.727424,139.840679,,,,,,,,1240014,,,,,,,,,,,,,,,,,,,,,,,,,,,,・座標精度：番地号一致
131229,1.31E+11,葛飾区,小松南らる学童保育クラブ,,,,,,,131229,,東京都葛飾区新小岩2-25-1小松南らる学童保育クラブ,東京都,葛飾区,新小岩2,25-1,小松南らる学童保育クラブ,35.716649,139.863482,,,,,,,,1240024,,,,,,,,,,,,,,,,,,,,,,,,,,,,・座標精度：番地号一致
131229,1.31E+11,葛飾区,こひつじ川端学童保育クラブ,,,,,,,131229,,東京都葛飾区東立石1-2-2こひつじ川端学童保育クラブ,東京都,葛飾区,東立石1,2-2,こひつじ川端学童保育クラブ,35.731736,139.846139,,,,,,,,1240013,,,,,,,,,,,,,,,,,,,,,,,,,,,,・座標精度：街区代表点
131229,1.31E+11,葛飾区,葛飾学園幸田小学童保育クラブ,,,,,,,131229,,東京都葛飾区西水元3-24-12葛飾学園幸田小学童保育クラブ,東京都,葛飾区,西水元3,24-12,葛飾学園幸田小学童保育クラブ,35.788687,139.849988,,,,,,,,1250031,,,,,,,,,,,,,,,,,,,,,,,,,,,,・座標精度：番地号一致（同住所の別建物あり）
131229,1.31E+11,葛飾区,水元第一・第二学童保育クラブ,,,,,,,131229,,東京都葛飾区水元4-17-14水元第一・第二学童保育クラブ,東京都,葛飾区,水元4,17-14,水元第一・第二学童保育クラブ,35.787563,139.863121,,,,,,,,1250032,,,,,,,,,,,,,,,,,,,,,,,,,,,,・座標精度：番地号一致
131229,1.31E+11,葛飾区,にいじゅくみらい第一・第二学童保育クラブ,,,,,,,131229,,東京都葛飾区南水元3-2-3にいじゅくみらい第一・第二学童保育クラブ,東京都,葛飾区,南水元3,2-3,にいじゅくみらい第一・第二学童保育クラブ,35.773564,139.864294,,,,,,,,1250035,,,,,,,,,,,,,,,,,,,,,,,,,,,,・座標精度：番地号一致
131229,1.31E+11,葛飾区,北野第一学童保育クラブ,,,,,,,131229,,東京都葛飾区柴又3-10-3北野第一学童保育クラブ,東京都,葛飾区,柴又3,10-3,北野第一学童保育クラブ,35.759186,139.872513,,,,,,,,1250052,,,,,,,,,,,,,,,,,,,,,,,,,,,,・座標精度：番地号一致
131229,1.31E+11,葛飾区,北野第二学童保育クラブ,,,,,,,131229,,東京都葛飾区柴又3-10-2北野第二学童保育クラブ,東京都,葛飾区,柴又3,10-2,北野第二学童保育クラブ,35.759309,139.871378,,,,,,,,1250052,,,,,,,,,,,,,,,,,,,,,,,,,,,,・座標精度：番地号一致
131229,1.31E+11,葛飾区,すまいる亀青学童保育クラブ,,,,,,,131229,,東京都葛飾区亀有1-10-13-105すまいる亀青学童保育クラブ,東京都,葛飾区,亀有1,10-13-105,すまいる亀青学童保育クラブ,35.756806,139.848448,,,,,,,,1250061,,,,,,,,,,,,,,,,,,,,,,,,,,,,・座標精度：番地号一致
131229,1.31E+11,葛飾区,上小松学童保育クラブ,,,,,,,131229,,東京都葛飾区奥戸4-1-4上小松学童保育クラブ,東京都,葛飾区,奥戸4,1-4,上小松学童保育クラブ,35.728196,139.862893,,,,,,,,1240022,,,,,,,,,,,,,,,,,,,,,,,,,,,,・座標精度：番地号一致（同住所の別建物あり）
131229,1.31E+11,葛飾区,鎌倉小学童保育クラブ,,,,,,,131229,,東京都葛飾区鎌倉4-24-2鎌倉小学童保育クラブ,東京都,葛飾区,鎌倉4,24-2,鎌倉小学童保育クラブ,35.746623,139.882994,,,,,,,,1250053,,,,,,,,,,,,,,,,,,,,,,,,,,,,・座標精度：番地号一致
131229,1.31E+11,葛飾区,そあ学童保育クラブ,,,,,,,131229,,東京都葛飾区水元3-13-20そあ学童保育クラブ,東京都,葛飾区,水元3,13-20,そあ学童保育クラブ,35.782392,139.864607,,,,,,,,1250032,,,,,,,,,,,,,,,,,,,,,,,,,,,,・座標精度：番地号一致
131229,1.31E+11,葛飾区,葛飾学園東綾瀬小学童保育クラブ,,,,,,,131229,,東京都葛飾区堀切6-21-1葛飾学園東綾瀬小学童保育クラブ,東京都,葛飾区,堀切6,21-1,葛飾学園東綾瀬小学童保育クラブ,35.753798,139.832049,,,,,,,,1240006,,,,,,,,,,,,,,,,,,,,,,,,,,,,・座標精度：番地号一致
131229,1.31E+11,葛飾区,葛飾学園南綾瀬小学童保育クラブ,,,,,,,131229,,東京都葛飾区堀切6-1-1葛飾学園南綾瀬小学童保育クラブ,東京都,葛飾区,堀切6,1-1,葛飾学園南綾瀬小学童保育クラブ,35.7517,139.828057,,,,,,,,1240006,,,,,,,,,,,,,,,,,,,,,,,,,,,,・座標精度：番地号一致
131229,1.31E+11,葛飾区,こひつじ本田第二学童保育クラブ,,,,,,,131229,,東京都葛飾区立石1-7-23こひつじ本田第二学童保育クラブ,東京都,葛飾区,立石1,7-23,こひつじ本田第二学童保育クラブ,35.737269,139.844987,,,,,,,,1240012,,,,,,,,,,,,,,,,,,,,,,,,,,,,・座標精度：番地号一致
131229,1.31E+11,葛飾区,東水元学童保育クラブ,,,,,,,131229,,東京都葛飾区東水元5-38-2東水元学童保育クラブ,東京都,葛飾区,東水元5,38-2,東水元学童保育クラブ,35.790796,139.867617,,,,,,,,1250033,,,,,,,,,,,,,,,,,,,,,,,,,,,,・座標精度：街区代表点
131229,1.31E+11,葛飾区,原田小学童保育クラブ,,,,,,,131229,,東京都葛飾区東金町2-16-2原田小学童保育クラブ,東京都,葛飾区,東金町2,16-2,原田小学童保育クラブ,35.772784,139.867384,,,,,,,,1250041,,,,,,,,,,,,,,,,,,,,,,,,,,,,・座標精度：番地号一致
131229,1.31E+11,葛飾区,東金町小ひよどり学童保育クラブ,,,,,,,131229,,東京都葛飾区東金町1-33-1東金町小ひよどり学童保育クラブ,東京都,葛飾区,東金町1,33-1,東金町小ひよどり学童保育クラブ,35.773362,139.870235,,,,,,,,1250041,,,,,,,,,,,,,,,,,,,,,,,,,,,,・座標精度：番地号一致
131229,1.31E+11,葛飾区,東・ひかり学童保育クラブ,,,,,,,131229,,東京都葛飾区柴又5-12-15東・ひかり学童保育クラブ,東京都,葛飾区,柴又5,12-15,東・ひかり学童保育クラブ,35.751888,139.880438,,,,,,,,1250052,,,,,,,,,,,,,,,,,,,,,,,,,,,,・座標精度：番地号一致（同住所の別建物あり）
131229,1.31E+11,葛飾区,細田小学童保育クラブ,,,,,,,131229,,東京都葛飾区細田3-20-2細田小学童保育クラブ,東京都,葛飾区,細田3,20-2,細田小学童保育クラブ,35.741272,139.868467,,,,,,,,1240021,,,,,,,,,,,,,,,,,,,,,,,,,,,,・座標精度：街区代表点
131229,1.31E+11,葛飾区,南奥戸小第一・第二学童保育クラブ,,,,,,,131229,,東京都葛飾区奥戸3-6-20南奥戸小第一・第二学童保育クラブ,東京都,葛飾区,奥戸3,6-20,南奥戸小第一・第二学童保育クラブ,35.732044,139.860272,,,,,,,,1240022,,,,,,,,,,,,,,,,,,,,,,,,,,,,・座標精度：番地号一致
131229,1.31E+11,葛飾区,すまいる中之台学童保育クラブ,,,,,,,131229,,東京都葛飾区亀有5-2-21すまいる中之台学童保育クラブ,東京都,葛飾区,亀有5,2-21,すまいる中之台学童保育クラブ,35.765815,139.843032,,,,,,,,1250061,,,,,,,,,,,,,,,,,,,,,,,,,,,,・座標精度：番地号一致（同住所の別建物あり）
131229,1.31E+11,葛飾区,新宿学童保育クラブ,,,,,,,131229,,東京都葛飾区新宿2-26-2新宿学童保育クラブ,東京都,葛飾区,新宿2,26-2,新宿学童保育クラブ,35.762676,139.858822,,,,,,,,1250051,,,,,,,,,,,,,,,,,,,,,,,,,,,,・座標精度：番地号一致
131229,1.31E+11,葛飾区,ふたば・第二ふたば学童保育クラブ,,,,,,,131229,,東京都葛飾区白鳥3-29-16ふたば・第二ふたば学童保育クラブ,東京都,葛飾区,白鳥3,29-16,ふたば・第二ふたば学童保育クラブ,35.75401,139.844817,,,,,,,,1250063,,,,,,,,,,,,,,,,,,,,,,,,,,,,・座標精度：番地号一致（同住所の別建物あり）
131229,1.31E+11,葛飾区,梅田小・梅田小第二学童保育クラブ,,,,,,,131229,,東京都葛飾区立石3-24-2梅田小・梅田小第二学童保育クラブ,東京都,葛飾区,立石3,24-2,梅田小・梅田小第二学童保育クラブ,35.741425,139.844354,,,,,,,,1240012,,,,,,,,,,,,,,,,,,,,,,,,,,,,・座標精度：街区代表点
131229,1.31E+11,葛飾区,金町学童保育クラブ,,,,,,,131229,,東京都葛飾区東金町1-33-15金町学童保育クラブ,東京都,葛飾区,東金町1,33-15,金町学童保育クラブ,35.774139,139.870981,,,,,,,,1250041,,,,,,,,,,,,,,,,,,,,,,,,,,,,・座標精度：番地号一致
131229,1.31E+11,葛飾区,葛飾学園西亀有小学童保育クラブ,,,,,,,131229,,東京都葛飾区西亀有2-42-2葛飾学園西亀有小学童保育クラブ,東京都,葛飾区,西亀有2,42-2,葛飾学園西亀有小学童保育クラブ,35.76077,139.835133,,,,,,,,1240002,,,,,,,,,,,,,,,,,,,,,,,,,,,,・座標精度：街区代表点
131229,1.31E+11,葛飾区,こひつじ渋江学童保育クラブ,,,,,,,131229,,東京都葛飾区東四つ木2-13-1こひつじ渋江学童保育クラブ,東京都,葛飾区,東四つ木2,13-1,こひつじ渋江学童保育クラブ,35.730545,139.842416,,,,,,,,1240014,,,,,,,,,,,,,,,,,,,,,,,,,,,,・座標精度：番地号一致
131229,1.31E+11,葛飾区,こひつじ川端第二学童保育クラブ,,,,,,,131229,,東京都葛飾区東立石1-2-1こひつじ川端第二学童保育クラブ,東京都,葛飾区,東立石1,2-1,こひつじ川端第二学童保育クラブ,35.731816,139.845859,,,,,,,,1240013,,,,,,,,,,,,,,,,,,,,,,,,,,,,・座標精度：番地号一致（同住所の別建物あり）
131229,1.31E+11,葛飾区,飯塚第一・第二・第三学童保育クラブ,,,,,,,131229,,東京都葛飾区南水元1-13-1飯塚第一・第二・第三学童保育クラブ,東京都,葛飾区,南水元1,13-1,飯塚第一・第二・第三学童保育クラブ,35.776558,139.857831,,,,,,,,1250035,,,,,,,,,,,,,,,,,,,,,,,,,,,,・座標精度：番地号一致（同住所の別建物あり）
131229,1.31E+11,葛飾区,青戸小・青戸小第二・青戸小第三学童保育クラブ,,,,,,,131229,,東京都葛飾区青戸6-18-1青戸小・青戸小第二・青戸小第三学童保育クラブ,東京都,葛飾区,青戸6,18-1,青戸小・青戸小第二・青戸小第三学童保育クラブ,35.751351,139.857784,,,,,,,,1250062,,,,,,,,,,,,,,,,,,,,,,,,,,,,・座標精度：番地号一致
131229,1.31E+11,葛飾区,れいめい堀切第一・第二学童保育クラブ,,,,,,,131229,,東京都葛飾区堀切2-42-3れいめい堀切第一・第二学童保育クラブ,東京都,葛飾区,堀切2,42-3,れいめい堀切第一・第二学童保育クラブ,35.744031,139.828505,,,,,,,,1240006,,,,,,,,,,,,,,,,,,,,,,,,,,,,・座標精度：街区代表点
131229,1.31E+11,葛飾区,西新小岩あや第一・第二学童保育クラブ,,,,,,,131229,,東京都葛飾区西新小岩4-21-12西新小岩あや第一・第二学童保育クラブ,東京都,葛飾区,西新小岩4,21-12,西新小岩あや第一・第二学童保育クラブ,35.721697,139.852214,,,,,,,,1240025,,,,,,,,,,,,,,,,,,,,,,,,,,,,・座標精度：番地号一致（同住所の別建物あり）
131229,1.31E+11,葛飾区,清和小学童保育クラブ,,,,,,,131229,,東京都葛飾区立石6-1-1清和小学童保育クラブ,東京都,葛飾区,立石6,1-1,清和小学童保育クラブ,35.742574,139.849378,,,,,,,,1240012,,,,,,,,,,,,,,,,,,,,,,,,,,,,・座標精度：番地号一致
131229,1.31E+11,葛飾区,つばさ学童保育クラブ,,,,,,,131229,,東京都葛飾区金町3-43-8つばさ学童保育クラブ,東京都,葛飾区,金町3,43-8,つばさ学童保育クラブ,35.765866,139.878252,,,,,,,,1250042,,,,,,,,,,,,,,,,,,,,,,,,,,,,・座標精度：番地号一致
131229,1.31E+11,葛飾区,かつしか風の子学童保育クラブ,,,,,,,131229,,東京都葛飾区立石8-18-7かつしか風の子学童保育クラブ,東京都,葛飾区,立石8,18-7,かつしか風の子学童保育クラブ,,,,,,,,,,1240012,,,,,,,,,,,,,,,,,,,,,,,,,,,,
131229,1.31E+11,葛飾区,れいめい宝学童保育クラブ,,,,,,,131229,,東京都葛飾区宝町2-6-19れいめい宝学童保育クラブ,東京都,葛飾区,宝町2,6-19,れいめい宝学童保育クラブ,,,,,,,,,,1240005,,,,,,,,,,,,,,,,,,,,,,,,,,,,
131229,1.31E+11,葛飾区,こひつじ東四つ木学童保育クラブ,,,,,,,131229,,東京都葛飾区東四つ木1-9-12こひつじ東四つ木学童保育クラブ,東京都,葛飾区,東四つ木1,9-12,こひつじ東四つ木学童保育クラブ,,,,,,,,,,1240014,,,,,,,,,,,,,,,,,,,,,,,,,,,,
131229,1.31E+11,葛飾区,るりたつみ学童保育クラブ,,,,,,,131229,,東京都葛飾区西新小岩2-1-4るりたつみ学童保育クラブ,東京都,葛飾区,西新小岩2,1-4,るりたつみ学童保育クラブ,,,,,,,,,,1240025,,,,,,,,,,,,,,,,,,,,,,,,,,,,
131229,1.31E+11,葛飾区,ひかり学童保育クラブ,,,,,,,131229,,東京都葛飾区柴又6-19-2ひかり学童保育クラブ,東京都,葛飾区,柴又6,19-2,ひかり学童保育クラブ,,,,,,,,,,1250052,,,,,,,,,,,,,,,,,,,,,,,,,,,,
131229,1.31E+11,葛飾区,こひつじ四つ木学童保育クラブ,,,,,,,131229,,東京都葛飾区四つ木4-10-12こひつじ四つ木学童保育クラブ,東京都,葛飾区,四つ木4,10-12,こひつじ四つ木学童保育クラブ,,,,,,,,,,1240011,,,,,,,,,,,,,,,,,,,,,,,,,,,,
131229,1.31E+11,葛飾区,ひまわり学童保育クラブ,,,,,,,131229,,東京都葛飾区細田3-9-26ひまわり学童保育クラブ,東京都,葛飾区,細田3,9-26,ひまわり学童保育クラブ,,,,,,,,,,1240021,,,,,,,,,,,,,,,,,,,,,,,,,,,,
131229,1.31E+11,葛飾区,道上こどもの森学童クラブ,,,,,,,131229,,東京都葛飾区亀有4-33-17道上こどもの森学童クラブ,東京都,葛飾区,亀有4,33-17,道上こどもの森学童クラブ,,,,,,,,,,1250061,,,,,,,,,,,,,,,,,,,,,,,,,,,,
131229,1.31E+11,葛飾区,金町学童保育クラブ,,,,,,,131229,,東京都葛飾区東金町1-33-15金町学童保育クラブ,東京都,葛飾区,東金町1,33-15,金町学童保育クラブ,,,,,,,,,,1250041,,,,,,,,,,,,,,,,,,,,,,,,,,,,
131229,1.31E+11,葛飾区,小松南らる第二学童保育クラブ,,,,,,,131229,,東京都葛飾区新小岩4-14-7-1Ｆ小松南らる第二学童保育クラブ,東京都,葛飾区,新小岩4,14-7-1Ｆ,小松南らる第二学童保育クラブ,,,,,,,,,,1240024,,,,,,,,,,,,,,,,,,,,,,,,,,,,
131229,1.31E+11,葛飾区,葛飾学園小菅学童保育クラブ,,,,,,,131229,,東京都葛飾区小菅3-6-1葛飾学園小菅学童保育クラブ,東京都,葛飾区,小菅3,6-1,葛飾学園小菅学童保育クラブ,,,,,,,,,,1240001,,,,,,,,,,,,,,,,,,,,,,,,,,,,
131229,1.31E+11,葛飾区,柴原学童保育クラブ,,,,,,,131229,,東京都葛飾区金町1-10-2柴原学童保育クラブ,東京都,葛飾区,金町1,10-2,柴原学童保育クラブ,,,,,,,,,,1250042,,,,,,,,,,,,,,,,,,,,,,,,,,,,
131229,1.31E+11,葛飾区,第二上小松学童保育クラブ,,,,,,,131229,,東京都葛飾区奥戸4-11-2第二上小松学童保育クラブ,東京都,葛飾区,奥戸4,11-2,第二上小松学童保育クラブ,,,,,,,,,,1240022,,,,,,,,,,,,,,,,,,,,,,,,,,,,
131229,1.31E+11,葛飾区,葛飾学園西小菅小学童保育クラブ,,,,,,,131229,,東京都葛飾区小菅1-25-1葛飾学園西小菅小学童保育クラブ,東京都,葛飾区,小菅1,25-1,葛飾学園西小菅小学童保育クラブ,,,,,,,,,,1240001,,,,,,,,,,,,,,,,,,,,,,,,,,,,
131229,1.31E+11,葛飾区,れいめい白鳥学童保育クラブ,,,,,,,131229,,東京都葛飾区白鳥3-4-1れいめい白鳥学童保育クラブ,東京都,葛飾区,白鳥3,4-1,れいめい白鳥学童保育クラブ,,,,,,,,,,1250063,,,,,,,,,,,,,,,,,,,,,,,,,,,,
131229,1.31E+11,葛飾区,colors新小岩学童保育クラブ,,,,,,,131229,,東京都葛飾区新小岩2-3-11colors新小岩学童保育クラブ,東京都,葛飾区,新小岩2,3-11,colors新小岩学童保育クラブ,,,,,,,,,,1240024,,,,,,,,,,,,,,,,,,,,,,,,,,,,
131229,1.31E+11,葛飾区,西亀有二丁目第9アパート4号棟,,,,,,,131229,,東京都葛飾区西亀有2-26-4西亀有二丁目第9アパート4号棟,東京都,葛飾区,西亀有2,26-4,西亀有二丁目第9アパート4号棟,35.761312,139.833273,,,,,,,,1240002,,,,,,,,,,,,,,,,,,,,,,,,,,,,・座標精度：番地号一致
131229,1.31E+11,葛飾区,西亀有二丁目第9アパート10号棟,,,,,,,131229,,東京都葛飾区西亀有2-26-10西亀有二丁目第9アパート10号棟,東京都,葛飾区,西亀有2,26-10,西亀有二丁目第9アパート10号棟,35.76116,139.833742,,,,,,,,1240002,,,,,,,,,,,,,,,,,,,,,,,,,,,,・座標精度：番地号一致
131229,1.31E+11,葛飾区,金町四丁目第3アパート,,,,,,,131229,,東京都葛飾区金町4-13-1金町四丁目第3アパート,東京都,葛飾区,金町4,13-1,金町四丁目第3アパート,35.764255,139.864399,,,,,,,,1250042,,,,,,,,,,,,,,,,,,,,,,,,,,,,・座標精度：番地号一致
131229,1.31E+11,葛飾区,コージュ奥戸,,,,,,,131229,,東京都葛飾区奥戸5-19-2コージュ奥戸,東京都,葛飾区,奥戸5,19-2,コージュ奥戸,35.730428,139.867827,,,,,,,,1240022,,,,,,,,,,,,,,,,,,,,,,,,,,,,・座標精度：番地号一致
131229,1.31E+11,葛飾区,コージュお花茶屋,,,,,,,131229,,東京都葛飾区お花茶屋3-3-17コージュお花茶屋,東京都,葛飾区,お花茶屋3,3-17,コージュお花茶屋,35.754719,139.840618,,,,,,,,1240003,,,,,,,,,,,,,,,,,,,,,,,,,,,,・座標精度：番地号一致
131229,1.31E+11,葛飾区,コージュ柴又,,,,,,,131229,,東京都葛飾区柴又7-5-31コージュ柴又,東京都,葛飾区,柴又7,5-31,コージュ柴又,35.758302,139.87638,,,,,,,,1250052,,,,,,,,,,,,,,,,,,,,,,,,,,,,・座標精度：番地号一致
131229,1.31E+11,葛飾区,コージュ鎌倉,,,,,,,131229,,東京都葛飾区鎌倉3-57-1コージュ鎌倉,東京都,葛飾区,鎌倉3,57-1,コージュ鎌倉,35.744722,139.880664,,,,,,,,1250053,,,,,,,,,,,,,,,,,,,,,,,,,,,,・座標精度：番地号一致（同住所の別建物あり）
131229,1.31E+11,葛飾区,コージュ第2鎌倉,,,,,,,131229,,東京都葛飾区鎌倉3-39-17コージュ第2鎌倉,東京都,葛飾区,鎌倉3,39-17,コージュ第2鎌倉,35.747549,139.879618,,,,,,,,1250053,,,,,,,,,,,,,,,,,,,,,,,,,,,,・座標精度：番地号一致（同住所の別建物あり）
131229,1.31E+11,葛飾区,コージュ高砂,,,,,,,131229,,東京都葛飾区高砂2-6-4コージュ高砂,東京都,葛飾区,高砂2,6-4,コージュ高砂,35.747124,139.863839,,,,,,,,1250054,,,,,,,,,,,,,,,,,,,,,,,,,,,,・座標精度：番地号一致
131229,1.31E+11,葛飾区,コージュ細田,,,,,,,131229,,東京都葛飾区細田4-33-6コージュ細田,東京都,葛飾区,細田4,33-6,コージュ細田,35.744942,139.871677,,,,,,,,1240021,,,,,,,,,,,,,,,,,,,,,,,,,,,,・座標精度：番地号一致
131229,1.31E+11,葛飾区,コージュ立石,,,,,,,131229,,東京都葛飾区立石8-43-8コージュ立石,東京都,葛飾区,立石8,43-8,コージュ立石,35.739637,139.857435,,,,,,,,1240012,,,,,,,,,,,,,,,,,,,,,,,,,,,,・座標精度：番地号一致
131229,1.31E+11,葛飾区,コージュ南水元,,,,,,,131229,,東京都葛飾区南水元2-11-20コージュ南水元,東京都,葛飾区,南水元2,11-20,コージュ南水元,35.778402,139.854723,,,,,,,,1250035,,,,,,,,,,,,,,,,,,,,,,,,,,,,・座標精度：番地号一致（同住所の別建物あり）
131229,1.31E+11,葛飾区,コージュ東金町,,,,,,,131229,,東京都葛飾区東金町5-17-12コージュ東金町,東京都,葛飾区,東金町5,17-12,コージュ東金町,35.777933,139.876532,,,,,,,,1250041,,,,,,,,,,,,,,,,,,,,,,,,,,,,・座標精度：番地号一致
131229,1.31E+11,葛飾区,コージュ堀切,,,,,,,131229,,東京都葛飾区堀切2-44-13コージュ堀切,東京都,葛飾区,堀切2,44-13,コージュ堀切,35.743114,139.829538,,,,,,,,1240006,,,,,,,,,,,,,,,,,,,,,,,,,,,,・座標精度：番地号一致（同住所の別建物あり）
131229,1.31E+11,葛飾区,コージュ小菅,,,,,,,131229,,東京都葛飾区小菅4-5-12コージュ小菅,東京都,葛飾区,小菅4,5-12,コージュ小菅,35.759583,139.824529,,,,,,,,1240001,,,,,,,,,,,,,,,,,,,,,,,,,,,,・座標精度：番地号一致
131229,1.31E+11,葛飾区,コージュ第2堀切,,,,,,,131229,,東京都葛飾区堀切7-22-28コージュ第2堀切,東京都,葛飾区,堀切7,22-28,コージュ第2堀切,35.755239,139.831143,,,,,,,,1240006,,,,,,,,,,,,,,,,,,,,,,,,,,,,・座標精度：番地号一致
131229,1.31E+11,葛飾区,コージュ西亀有,,,,,,,131229,,東京都葛飾区西亀有1-17-6コージュ西亀有,東京都,葛飾区,西亀有1,17-6,コージュ西亀有,35.757761,139.838657,,,,,,,,1240002,,,,,,,,,,,,,,,,,,,,,,,,,,,,・座標精度：番地号一致
131229,1.31E+11,葛飾区,コージュ四つ木,,,,,,,131229,,東京都葛飾区四つ木3-4-31コージュ四つ木,東京都,葛飾区,四つ木3,4-31,コージュ四つ木,35.737036,139.83,,,,,,,,1240011,,,,,,,,,,,,,,,,,,,,,,,,,,,,・座標精度：番地号一致（同住所の別建物あり）
131229,1.31E+11,葛飾区,白鳥区民住宅,,,,,,,131229,,東京都葛飾区白鳥4-8-1白鳥区民住宅,東京都,葛飾区,白鳥4,8-1,白鳥区民住宅,35.752358,139.846395,,,,,,,,1250063,,,,,,,,,,,,,,,,,,,,,,,,,,,,・座標精度：番地号一致
131229,1.31E+11,葛飾区,東四つ木コミュニティ住宅,,,,,,,131229,,東京都葛飾区東四つ木4-38-19東四つ木コミュニティ住宅,東京都,葛飾区,東四つ木4,38-19,東四つ木コミュニティ住宅,35.733394,139.839655,,,,,,,,1240014,,,,,,,,,,,,,,,,,,,,,,,,,,,,・座標精度：番地号一致
131229,1.31E+11,葛飾区,金町南駐車場,,,,,,,131229,,東京都葛飾区金町6-2-1金町南駐車場,東京都,葛飾区,金町6,2-1,金町南駐車場,35.767944,139.871387,,,,,,,,1250042,,,,,,,,,,,,,,,,,,,,,,,,,,,,・座標精度：番地号一致
131229,1.31E+11,葛飾区,亀有南駐車場,,,,,,,131229,,東京都葛飾区亀有3-26-3亀有南駐車場,東京都,葛飾区,亀有3,26-3,亀有南駐車場,35.766861,139.849456,,,,,,,,1250061,,,,,,,,,,,,,,,,,,,,,,,,,,,,・座標精度：番地号一致
131229,1.31E+11,葛飾区,亀有駅南口公園下自転車駐車場,,,,,,,131229,,東京都葛飾区亀有3-25-1亀有駅南口公園下自転車駐車場,東京都,葛飾区,亀有3,25-1,亀有駅南口公園下自転車駐車場,35.766233,139.847414,,,,,,,,1250061,,,,,,,,,,,,,,,,,,,,,,,,,,,,・座標精度：番地号一致（同住所の別建物あり）
131229,1.31E+11,葛飾区,新小岩駅南口自転車駐車場,,,,,,,131229,,東京都葛飾区新小岩1-29-1新小岩駅南口自転車駐車場,東京都,葛飾区,新小岩1,29-1,新小岩駅南口自転車駐車場,35.716101,139.857463,,,,,,,,1240024,,,,,,,,,,,,,,,,,,,,,,,,,,,,・座標精度：番地号一致
131229,1.31E+11,葛飾区,新小岩駅北口自転車駐車場,,,,,,,131229,,東京都葛飾区西新小岩1-6-6新小岩駅北口自転車駐車場,東京都,葛飾区,西新小岩1,6-6,新小岩駅北口自転車駐車場,35.718486,139.856343,,,,,,,,1240025,,,,,,,,,,,,,,,,,,,,,,,,,,,,・座標精度：番地号一致
131229,1.31E+11,葛飾区,新小岩東北自転車駐車場,,,,,,,131229,,東京都葛飾区東新小岩1-18新小岩東北自転車駐車場,東京都,葛飾区,東新小岩1,-18,新小岩東北自転車駐車場,35.720569,139.862142,,,,,,,,,,,,,,,,,,,,,,,,,,,,,,,,,,,,・座標精度：街区代表点
131229,1.31E+11,葛飾区,西井堀せせらぎパーク自転車駐車場,,,,,,,131229,,東京都葛飾区東新小岩5-1-12西井堀せせらぎパーク自転車駐車場,東京都,葛飾区,東新小岩5,1-12,西井堀せせらぎパーク自転車駐車場,35.71968,139.857052,,,,,,,,,,,,,,,,,,,,,,,,,,,,,,,,,,,,・座標精度：街区代表点
131229,1.31E+11,葛飾区,お花茶屋地下自転車駐車場,,,,,,,131229,,東京都葛飾区白鳥2-1-1お花茶屋地下自転車駐車場,東京都,葛飾区,白鳥2,1-1,お花茶屋地下自転車駐車場,35.747819,139.841323,,,,,,,,1250063,,,,,,,,,,,,,,,,,,,,,,,,,,,,・座標精度：番地号一致（同住所の別建物あり）
131229,1.31E+11,葛飾区,高砂自転車駐車場,,,,,,,131229,,東京都葛飾区高砂5-6-7高砂自転車駐車場,東京都,葛飾区,高砂5,6-7,高砂自転車駐車場,35.751404,139.865224,,,,,,,,1250054,,,,,,,,,,,,,,,,,,,,,,,,,,,,・座標精度：番地号一致
131229,1.31E+11,葛飾区,静観亭,,,,,,,131229,,東京都葛飾区堀切2-19-1静観亭,東京都,葛飾区,堀切2,19-1,静観亭,35.742622,139.825825,,,,,,,,1240006,,,,,,,,,,,,,,,,,,,,,,,,,,,,・座標精度：番地号一致
131229,1.31E+11,葛飾区,和楽亭,,,,,,,131229,,東京都葛飾区西新小岩1-1-3和楽亭,東京都,葛飾区,西新小岩1,1-3,和楽亭,35.716127,139.854746,,,,,,,,1240025,,,,,,,,,,,,,,,,,,,,,,,,,,,,・座標精度：番地号一致
131229,1.31E+11,葛飾区,水元小合溜水質浄化センター,,,,,,,131229,,東京都葛飾区水元公園8-3水元小合溜水質浄化センター,東京都,葛飾区,水元公園8,-3,水元小合溜水質浄化センター,35.794547,139.861329,,,,,,,,1250034,,,,,,,,,,,,,,,,,,,,,,,,,,,,・座標精度：番地号一致
131229,1.31E+11,葛飾区,お花茶屋防災研修室,,,,,,,131229,,東京都葛飾区お花茶屋1-22-1お花茶屋防災研修室,東京都,葛飾区,お花茶屋1,22-1,お花茶屋防災研修室,35.748974,139.840644,,,,,,,,1240003,,,,,,,不可,否,否,無,無,無,無,無,無,無,無,無,無,無,無,否,無,無,,,,・座標精度：番地号一致
131229,1.31E+11,葛飾区,西亀有防災研修室,,,,,,,131229,,東京都葛飾区西亀有1-26-11西亀有防災研修室,東京都,葛飾区,西亀有1,26-11,西亀有防災研修室,35.757106,139.842887,,,,,,,,1240002,,,,,,,不可,否,否,無,無,無,無,無,無,無,無,無,無,無,無,否,無,無,,,,・座標精度：番地号一致
131229,1.31E+11,葛飾区,柴又防災研修室,,,,,,,131229,,東京都葛飾区柴又6-22-19柴又防災研修室,東京都,葛飾区,柴又6,22-19,柴又防災研修室,35.757211,139.880515,,,,,,,,1250052,,,,,,,不可,否,否,無,無,無,無,無,無,無,無,無,無,無,無,否,無,無,,,,・座標精度：番地号一致（同住所の別建物あり）
131229,1.31E+11,葛飾区,水元飯塚防災研修室,,,,,,,131229,,東京都葛飾区西水元1-2-12水元飯塚防災研修室,東京都,葛飾区,西水元1,2-12,水元飯塚防災研修室,35.78013,139.85079,,,,,,,,1250031,,,,,,,不可,否,否,無,無,無,無,無,無,無,無,無,無,無,無,否,無,無,,,,・座標精度：番地号一致
131229,1.31E+11,葛飾区,小菅防災研修室,,,,,,,131229,,東京都葛飾区小菅4-15-1小菅防災研修室,東京都,葛飾区,小菅4,15-1,小菅防災研修室,35.760623,139.825754,,,,,,,,1240001,,,,,,,不可,否,否,無,無,無,無,無,無,無,無,無,無,無,無,否,無,無,,,,・座標精度：番地号一致
131229,1.31E+11,葛飾区,立石防災研修室,,,,,,,131229,,東京都葛飾区立石5-17立石防災研修室,東京都,葛飾区,立石,5-17,立石防災研修室,35.744098,139.84462,,,,,,,,,,,,,,,不可,否,否,無,無,無,無,無,無,無,無,無,無,無,無,否,無,無,,,,・座標精度：街区代表点
131229,1.31E+11,葛飾区,消費生活センター,,,,,,,131229,,東京都葛飾区立石5-27-1消費生活センター,東京都,葛飾区,立石5,27-1,消費生活センター,35.745828,139.846272,,,,,,,,1240012,,産業観光部産業経済課消費生活センター,月火水木金土日（年末年始・メンテナンス休館日を除く）,9:00,"平日・土曜日は21:30
日曜日・祝日は17:30",詳細はホームページをご確認ください。,,可,有,無,有,有,可,無,無,無,有,有,有,有,有,有,無,有,,,,・座標精度：番地号一致
131229,1.31E+11,葛飾区,かつしかエコライフプラザ,,,,,,,131229,,東京都葛飾区立石1-9-1かつしかエコライフプラザ,東京都,葛飾区,立石1,9-1,かつしかエコライフプラザ,35.73719,139.845691,,,,,,,,1240012,,,,,,,,,,,,,,,,,,,,,,,,,,,,・座標精度：番地号一致
131229,1.31E+11,葛飾区,リサイクルセンター,,,,,,,131229,,東京都葛飾区堀切4-6-12リサイクルセンター,東京都,葛飾区,堀切4,6-12,リサイクルセンター,35.745676,139.824591,,,,,,,,1240006,,,,,,,,,,,,,,,,,,,,,,,,,,,,・座標精度：番地号一致（同住所の別建物あり）
131229,1.31E+11,葛飾区,本田小学校,,,,,,,131229,,東京都葛飾区立石1-7-23本田小学校,東京都,葛飾区,立石1,7-23,本田小学校,35.737269,139.844987,,,,,,,,1240012,,,,,,,,,,,,,,,,,,,,,,,,,,,,・座標精度：番地号一致
131229,1.31E+11,葛飾区,葛飾小学校,,,,,,,131229,,東京都葛飾区青戸1-3-1葛飾小学校,東京都,葛飾区,青戸1,3-1,葛飾小学校,35.742261,139.854798,,,,,,,,1250062,,,,,,,,,,,,,,,,,,,,,,,,,,,,・座標精度：番地号一致
131229,1.31E+11,葛飾区,梅田小学校,,,,,,,131229,,東京都葛飾区立石3-24-1梅田小学校,東京都,葛飾区,立石3,24-1,梅田小学校,35.74164,139.84436,,,,,,,,1240012,,,,,,,,,,,,,,,,,,,,,,,,,,,,・座標精度：番地号一致
131229,1.31E+11,葛飾区,渋江小学校,,,,,,,131229,,東京都葛飾区東四つ木2-13-1渋江小学校,東京都,葛飾区,東四つ木2,13-1,渋江小学校,35.730545,139.842416,,,,,,,,1240014,,,,,,,,,,,,,,,,,,,,,,,,,,,,・座標精度：番地号一致
131229,1.31E+11,葛飾区,南綾瀬小学校,,,,,,,131229,,東京都葛飾区堀切6-1-1南綾瀬小学校,東京都,葛飾区,堀切6,1-1,南綾瀬小学校,35.7517,139.828057,,,,,,,,1240006,,,,,,,,,,,,,,,,,,,,,,,,,,,,・座標精度：番地号一致
131229,1.31E+11,葛飾区,上千葉小学校,,,,,,,131229,,東京都葛飾区東堀切3-26-1上千葉小学校,東京都,葛飾区,東堀切3,26-1,上千葉小学校,35.753939,139.838186,,,,,,,,1240004,,,,,,,,,,,,,,,,,,,,,,,,,,,,・座標精度：番地号一致
131229,1.31E+11,葛飾区,堀切小学校,,,,,,,131229,,東京都葛飾区堀切2-42-1堀切小学校,東京都,葛飾区,堀切2,42-1,堀切小学校,35.74433,139.82852,,,,,,,,1240006,,,,,,,,,,,,,,,,,,,,,,,,,,,,・座標精度：番地号一致
131229,1.31E+11,葛飾区,奥戸小学校,,,,,,,131229,,東京都葛飾区奥戸8-20-17奥戸小学校,東京都,葛飾区,奥戸8,20-17,奥戸小学校,35.738859,139.865015,,,,,,,,1240022,,,,,,,,,,,,,,,,,,,,,,,,,,,,・座標精度：番地号一致
131229,1.31E+11,葛飾区,上平井小学校,,,,,,,131229,,東京都葛飾区西新小岩4-22-1上平井小学校,東京都,葛飾区,西新小岩4,22-1,上平井小学校,35.722598,139.8515,,,,,,,,1240025,,,,,,,,,,,,,,,,,,,,,,,,,,,,・座標精度：番地号一致
131229,1.31E+11,葛飾区,二上小学校,,,,,,,131229,,東京都葛飾区東新小岩7-18-1二上小学校,東京都,葛飾区,東新小岩7,18-1,二上小学校,35.724704,139.854933,,,,,,,,1240023,,,,,,,,,,,,,,,,,,,,,,,,,,,,・座標精度：番地号一致
131229,1.31E+11,葛飾区,小松南小学校,,,,,,,131229,,東京都葛飾区新小岩2-25-1小松南小学校,東京都,葛飾区,新小岩2,25-1,小松南小学校,35.716649,139.863482,,,,,,,,1240024,,,,,,,,,,,,,,,,,,,,,,,,,,,,・座標精度：番地号一致
131229,1.31E+11,葛飾区,高砂小学校,,,,,,,131229,,東京都葛飾区高砂3-30-1高砂小学校,東京都,葛飾区,高砂3,30-1,高砂小学校,35.746708,139.869743,,,,,,,,1250054,,,,,,,,,,,,,,,,,,,,,,,,,,,,・座標精度：番地号一致（同住所の別建物あり）
131229,1.31E+11,葛飾区,新宿小学校,,,,,,,131229,,東京都葛飾区新宿2-26-1新宿小学校,東京都,葛飾区,新宿2,26-1,新宿小学校,35.762856,139.858104,,,,,,,,1250051,,,,,,,,,,,,,,,,,,,,,,,,,,,,・座標精度：番地号一致
131229,1.31E+11,葛飾区,住吉小学校,,,,,,,131229,,東京都葛飾区高砂8-14-1住吉小学校,東京都,葛飾区,高砂8,14-1,住吉小学校,35.75445,139.86667,,,,,,,,1250054,,,,,,,,,,,,,,,,,,,,,,,,,,,,・座標精度：番地号一致
131229,1.31E+11,葛飾区,亀青小学校,,,,,,,131229,,東京都葛飾区青戸8-17-1亀青小学校,東京都,葛飾区,青戸8,17-1,亀青小学校,35.758599,139.852531,,,,,,,,1250062,,,,,,,,,,,,,,,,,,,,,,,,,,,,・座標精度：番地号一致
131229,1.31E+11,葛飾区,道上小学校,,,,,,,131229,,東京都葛飾区亀有4-35-1道上小学校,東京都,葛飾区,亀有4,35-1,道上小学校,35.763717,139.845589,,,,,,,,1250061,,,,,,,,,,,,,,,,,,,,,,,,,,,,・座標精度：番地号一致
131229,1.31E+11,葛飾区,金町小学校,,,,,,,131229,,東京都葛飾区金町3-44-1金町小学校,東京都,葛飾区,金町3,44-1,金町小学校,35.766549,139.877409,,,,,,,,1250042,,,,,,,,,,,,,,,,,,,,,,,,,,,,・座標精度：番地号一致
131229,1.31E+11,葛飾区,末広小学校,,,,,,,131229,,東京都葛飾区金町4-21-1末広小学校,東京都,葛飾区,金町4,21-1,末広小学校,35.766634,139.865429,,,,,,,,1250042,,,,,,,,,,,,,,,,,,,,,,,,,,,,・座標精度：番地号一致
131229,1.31E+11,葛飾区,柴又小学校,,,,,,,131229,,東京都葛飾区柴又4-30-1柴又小学校,東京都,葛飾区,柴又4,30-1,柴又小学校,35.753054,139.877218,,,,,,,,1250052,,,,,,,,,,,,,,,,,,,,,,,,,,,,・座標精度：番地号一致
131229,1.31E+11,葛飾区,鎌倉小学校,,,,,,,131229,,東京都葛飾区鎌倉4-24-1鎌倉小学校,東京都,葛飾区,鎌倉4,24-1,鎌倉小学校,35.746933,139.882321,,,,,,,,1250053,,,,,,,,,,,,,,,,,,,,,,,,,,,,・座標精度：番地号一致
131229,1.31E+11,葛飾区,水元小学校,,,,,,,131229,,東京都葛飾区水元4-21-1水元小学校,東京都,葛飾区,水元4,21-1,水元小学校,35.78727,139.864274,,,,,,,,1250032,,,,,,,,,,,,,,,,,,,,,,,,,,,,・座標精度：番地号一致（同住所の別建物あり）
131229,1.31E+11,葛飾区,こすげ小学校,,,,,,,131229,,東京都葛飾区小菅3-8-1こすげ小学校,東京都,葛飾区,小菅3,8-1,こすげ小学校,35.754255,139.823981,,,,,,,,1240001,,,,,,,,,,,,,,,,,,,,,,,,,,,,・座標精度：番地号一致
131229,1.31E+11,葛飾区,半田小学校,,,,,,,131229,,東京都葛飾区東金町5-16-1半田小学校,東京都,葛飾区,東金町5,16-1,半田小学校,35.777527,139.876563,,,,,,,,1250041,,,,,,,,,,,,,,,,,,,,,,,,,,,,・座標精度：番地号一致（同住所の別建物あり）
131229,1.31E+11,葛飾区,宝木塚小学校,,,,,,,131229,,東京都葛飾区宝町2-29-23宝木塚小学校,東京都,葛飾区,宝町2,29-23,宝木塚小学校,35.744658,139.838238,,,,,,,,1240005,,,,,,,,,,,,,,,,,,,,,,,,,,,,・座標精度：番地号一致
131229,1.31E+11,葛飾区,青戸小学校,,,,,,,131229,,東京都葛飾区青戸6-18-1青戸小学校,東京都,葛飾区,青戸6,18-1,青戸小学校,35.751351,139.857784,,,,,,,,1250062,,,,,,,,,,,,,,,,,,,,,,,,,,,,・座標精度：番地号一致
131229,1.31E+11,葛飾区,清和小学校,,,,,,,131229,,東京都葛飾区立石6-2-1清和小学校,東京都,葛飾区,立石6,2-1,清和小学校,35.743109,139.848984,,,,,,,,1240012,,,,,,,,,,,,,,,,,,,,,,,,,,,,・座標精度：番地号一致
131229,1.31E+11,葛飾区,木根川小学校,,,,,,,131229,,東京都葛飾区東四つ木1-10-1木根川小学校,東京都,葛飾区,東四つ木1,10-1,木根川小学校,35.728012,139.840364,,,,,,,,1240014,,,,,,,,,,,,,,,,,,,,,,,,,,,,・座標精度：番地号一致
131229,1.31E+11,葛飾区,中之台小学校,,,,,,,131229,,東京都葛飾区亀有5-2-1中之台小学校,東京都,葛飾区,亀有5,2-1,中之台小学校,35.766219,139.842671,,,,,,,,1250061,,,,,,,,,,,,,,,,,,,,,,,,,,,,・座標精度：番地号一致
131229,1.31E+11,葛飾区,綾南小学校,,,,,,,131229,,東京都葛飾区堀切1-22-1綾南小学校,東京都,葛飾区,堀切1,22-1,綾南小学校,35.739969,139.830593,,,,,,,,1240006,,,,,,,,,,,,,,,,,,,,,,,,,,,,・座標精度：番地号一致
131229,1.31E+11,葛飾区,川端小学校,,,,,,,131229,,東京都葛飾区東立石1-2-1川端小学校,東京都,葛飾区,東立石1,2-1,川端小学校,35.731816,139.845859,,,,,,,,1240013,,,,,,,,,,,,,,,,,,,,,,,,,,,,・座標精度：番地号一致（同住所の別建物あり）
131229,1.31E+11,葛飾区,北野小学校,,,,,,,131229,,東京都葛飾区柴又3-10-1北野小学校,東京都,葛飾区,柴又3,10-1,北野小学校,35.759654,139.87153,,,,,,,,1250052,,,,,,,,,,,,,,,,,,,,,,,,,,,,・座標精度：番地号一致
131229,1.31E+11,葛飾区,白鳥小学校,,,,,,,131229,,東京都葛飾区白鳥3-4-1白鳥小学校,東京都,葛飾区,白鳥3,4-1,白鳥小学校,35.750416,139.843591,,,,,,,,1250063,,,,,,,,,,,,,,,,,,,,,,,,,,,,・座標精度：番地号一致
131229,1.31E+11,葛飾区,松上小学校,,,,,,,131229,,東京都葛飾区西新小岩2-1-1松上小学校,東京都,葛飾区,西新小岩2,1-1,松上小学校,35.716624,139.851516,,,,,,,,1240025,,,,,,,,,,,,,,,,,,,,,,,,,,,,・座標精度：番地号一致（同住所の別建物あり）
131229,1.31E+11,葛飾区,西小菅小学校,,,,,,,131229,,東京都葛飾区小菅1-25-1西小菅小学校,東京都,葛飾区,小菅1,25-1,西小菅小学校,35.755966,139.8174,,,,,,,,1240001,,,,,,,,,,,,,,,,,,,,,,,,,,,,・座標精度：番地号一致
131229,1.31E+11,葛飾区,柴原小学校,,,,,,,131229,,東京都葛飾区金町1-15-1柴原小学校,東京都,葛飾区,金町1,15-1,柴原小学校,35.762671,139.867515,,,,,,,,1250042,,,,,,,,,,,,,,,,,,,,,,,,,,,,・座標精度：番地号一致
131229,1.31E+11,葛飾区,中青戸小学校,,,,,,,131229,,東京都葛飾区青戸4-24-1中青戸小学校,東京都,葛飾区,青戸4,24-1,中青戸小学校,35.750759,139.851814,,,,,,,,1250062,,,,,,,,,,,,,,,,,,,,,,,,,,,,・座標精度：番地号一致
131229,1.31E+11,葛飾区,南奥戸小学校,,,,,,,131229,,東京都葛飾区奥戸3-5-1南奥戸小学校,東京都,葛飾区,奥戸3,5-1,南奥戸小学校,35.731424,139.859544,,,,,,,,1240022,,,,,,,,,,,,,,,,,,,,,,,,,,,,・座標精度：番地号一致（同住所の別建物あり）
131229,1.31E+11,葛飾区,東綾瀬小学校,,,,,,,131229,,東京都葛飾区堀切6-21-1東綾瀬小学校,東京都,葛飾区,堀切6,21-1,東綾瀬小学校,35.753798,139.832049,,,,,,,,1240006,,,,,,,,,,,,,,,,,,,,,,,,,,,,・座標精度：番地号一致
131229,1.31E+11,葛飾区,原田小学校,,,,,,,131229,,東京都葛飾区東金町2-16-1原田小学校,東京都,葛飾区,東金町2,16-1,原田小学校,35.773256,139.868289,,,,,,,,1250041,,,,,,,,,,,,,,,,,,,,,,,,,,,,・座標精度：番地号一致
131229,1.31E+11,葛飾区,東柴又小学校,,,,,,,131229,,東京都葛飾区柴又5-12-15東柴又小学校,東京都,葛飾区,柴又5,12-15,東柴又小学校,35.751888,139.880438,,,,,,,,1250052,,,,,,,,,,,,,,,,,,,,,,,,,,,,・座標精度：番地号一致（同住所の別建物あり）
131229,1.31E+11,葛飾区,飯塚小学校,,,,,,,131229,,東京都葛飾区南水元1-13-1飯塚小学校,東京都,葛飾区,南水元1,13-1,飯塚小学校,35.776558,139.857831,,,,,,,,1250035,,,,,,,,,,,,,,,,,,,,,,,,,,,,・座標精度：番地号一致（同住所の別建物あり）
131229,1.31E+11,葛飾区,西亀有小学校,,,,,,,131229,,東京都葛飾区西亀有2-42-1西亀有小学校,東京都,葛飾区,西亀有2,42-1,西亀有小学校,35.760698,139.834679,,,,,,,,1240002,,,,,,,,,,,,,,,,,,,,,,,,,,,,・座標精度：番地号一致
131229,1.31E+11,葛飾区,花の木小学校,,,,,,,131229,,東京都葛飾区南水元3-2-1花の木小学校,東京都,葛飾区,南水元3,2-1,花の木小学校,35.774237,139.86421,,,,,,,,1250035,,,,,,,,,,,,,,,,,,,,,,,,,,,,・座標精度：番地号一致
131229,1.31E+11,葛飾区,上小松小学校,,,,,,,131229,,東京都葛飾区奥戸4-1-4上小松小学校,東京都,葛飾区,奥戸4,1-4,上小松小学校,35.728196,139.862893,,,,,,,,1240022,,,,,,,,,,,,,,,,,,,,,,,,,,,,・座標精度：番地号一致（同住所の別建物あり）
131229,1.31E+11,葛飾区,幸田小学校,,,,,,,131229,,東京都葛飾区西水元3-24-12幸田小学校,東京都,葛飾区,西水元3,24-12,幸田小学校,35.788687,139.849988,,,,,,,,1250031,,,,,,,,,,,,,,,,,,,,,,,,,,,,・座標精度：番地号一致（同住所の別建物あり）
131229,1.31E+11,葛飾区,細田小学校,,,,,,,131229,,東京都葛飾区細田3-20-1細田小学校,東京都,葛飾区,細田3,20-1,細田小学校,35.741496,139.868099,,,,,,,,1240021,,,,,,,,,,,,,,,,,,,,,,,,,,,,・座標精度：番地号一致
131229,1.31E+11,葛飾区,東金町小学校,,,,,,,131229,,東京都葛飾区東金町1-33-1東金町小学校,東京都,葛飾区,東金町1,33-1,東金町小学校,35.773362,139.870235,,,,,,,,1250041,,,,,,,,,,,,,,,,,,,,,,,,,,,,・座標精度：番地号一致
131229,1.31E+11,葛飾区,東水元小学校,,,,,,,131229,,東京都葛飾区東水元5-38-1東水元小学校,東京都,葛飾区,東水元5,38-1,東水元小学校,35.790841,139.867743,,,,,,,,1250033,,,,,,,,,,,,,,,,,,,,,,,,,,,,・座標精度：番地号一致
131229,1.31E+11,葛飾区,よつぎ小学校,,,,,,,131229,,東京都葛飾区四つ木4-8-1よつぎ小学校,東京都,葛飾区,四つ木4,8-1,よつぎ小学校,35.736928,139.833984,,,,,,,,1240011,,,,,,,,,,,,,,,,,,,,,,,,,,,,・座標精度：番地号一致
131229,1.31E+11,葛飾区,本田中学校,,,,,,,131229,,東京都葛飾区東立石4-7-1本田中学校,東京都,葛飾区,東立石4,7-1,本田中学校,35.731828,139.852368,,,,,,,,1240013,,,,,,,,,,,,,,,,,,,,,,,,,,,,・座標精度：番地号一致
131229,1.31E+11,葛飾区,金町中学校,,,,,,,131229,,東京都葛飾区南水元3-1-1金町中学校,東京都,葛飾区,南水元3,1-1,金町中学校,35.773926,139.865223,,,,,,,,1250035,,,,,,,,,,,,,,,,,,,,,,,,,,,,・座標精度：番地号一致
131229,1.31E+11,葛飾区,水元中学校,,,,,,,131229,,東京都葛飾区水元3-20-1水元中学校,東京都,葛飾区,水元3,20-1,水元中学校,35.782438,139.864898,,,,,,,,1250032,,,,,,,,,,,,,,,,,,,,,,,,,,,,・座標精度：番地号一致
131229,1.31E+11,葛飾区,新宿中学校,,,,,,,131229,,東京都葛飾区新宿3-20-10新宿中学校,東京都,葛飾区,新宿3,20-10,新宿中学校,35.761153,139.863248,,,,,,,,1250051,,,,,,,,,,,,,,,,,,,,,,,,,,,,・座標精度：番地号一致
131229,1.31E+11,葛飾区,奥戸中学校,,,,,,,131229,,東京都葛飾区細田1-6-1奥戸中学校,東京都,葛飾区,細田1,6-1,奥戸中学校,35.736861,139.870998,,,,,,,,1240021,,,,,,,,,,,,,,,,,,,,,,,,,,,,・座標精度：番地号一致
131229,1.31E+11,葛飾区,綾瀬中学校,,,,,,,131229,,東京都葛飾区小菅2-12-1綾瀬中学校,東京都,葛飾区,小菅2,12-1,綾瀬中学校,35.753293,139.824179,,,,,,,,1240001,,,,,,,,,,,,,,,,,,,,,,,,,,,,・座標精度：番地号一致
131229,1.31E+11,葛飾区,上平井中学校,,,,,,,131229,,東京都葛飾区東新小岩4-2-1上平井中学校,東京都,葛飾区,東新小岩4,2-1,上平井中学校,35.724869,139.860393,,,,,,,,1240023,,,,,,,,,,,,,,,,,,,,,,,,,,,,・座標精度：番地号一致
131229,1.31E+11,葛飾区,中川中学校,,,,,,,131229,,東京都葛飾区東四つ木1-3-1中川中学校,東京都,葛飾区,東四つ木1,3-1,中川中学校,35.725982,139.841487,,,,,,,,1240014,,,,,,,,,,,,,,,,,,,,,,,,,,,,・座標精度：番地号一致
131229,1.31E+11,葛飾区,桜道中学校,,,,,,,131229,,東京都葛飾区柴又4-3-1桜道中学校,東京都,葛飾区,柴又4,3-1,桜道中学校,35.752641,139.873064,,,,,,,,1250052,,,,,,,,,,,,,,,,,,,,,,,,,,,,・座標精度：番地号一致
131229,1.31E+11,葛飾区,堀切中学校,,,,,,,131229,,東京都葛飾区堀切1-36-1堀切中学校,東京都,葛飾区,堀切1,36-1,堀切中学校,35.741426,139.832855,,,,,,,,1240006,,,,,,,,,,,,,,,,,,,,,,,,,,,,・座標精度：番地号一致
131229,1.31E+11,葛飾区,双葉中学校,,,,,,,131229,,東京都葛飾区お花茶屋1-10-1双葉中学校,東京都,葛飾区,お花茶屋1,10-1,双葉中学校,35.750118,139.838521,,,,,,,,1240003,,,,,,,,,,,,,,,,,,,,,,,,,,,,・座標精度：番地号一致
131229,1.31E+11,葛飾区,大道中学校,,,,,,,131229,,東京都葛飾区四つ木5-22-1大道中学校,東京都,葛飾区,四つ木5,22-1,大道中学校,35.744527,139.842811,,,,,,,,1240011,,,,,,,,,,,,,,,,,,,,,,,,,,,,・座標精度：番地号一致
131229,1.31E+11,葛飾区,四ツ木中学校,,,,,,,131229,,東京都葛飾区四つ木4-22-1四ツ木中学校,東京都,葛飾区,四つ木4,22-1,四ツ木中学校,35.738943,139.835004,,,,,,,,1240011,,,,,,,,,,,,,,,,,,,,,,,,,,,,・座標精度：番地号一致
131229,1.31E+11,葛飾区,小松中学校,,,,,,,131229,,東京都葛飾区新小岩4-30-1小松中学校,東京都,葛飾区,新小岩4,30-1,小松中学校,35.72037,139.864338,,,,,,,,1240024,,,,,,,,,,,,,,,,,,,,,,,,,,,,・座標精度：番地号一致
131229,1.31E+11,葛飾区,亀有中学校,,,,,,,131229,,東京都葛飾区亀有1-23-1亀有中学校,東京都,葛飾区,亀有1,23-1,亀有中学校,35.760086,139.84722,,,,,,,,1250061,,,,,,,,,,,,,,,,,,,,,,,,,,,,・座標精度：番地号一致
131229,1.31E+11,葛飾区,立石中学校,,,,,,,131229,,東京都葛飾区立石6-3-1立石中学校,東京都,葛飾区,立石6,3-1,立石中学校,35.743942,139.848613,,,,,,,,1240012,,,,,,,,,,,,,,,,,,,,,,,,,,,,・座標精度：番地号一致
131229,1.31E+11,葛飾区,常盤中学校,,,,,,,131229,,東京都葛飾区金町2-11-1常盤中学校,東京都,葛飾区,金町2,11-1,常盤中学校,35.763037,139.870227,,,,,,,,1250042,,,,,,,,,,,,,,,,,,,,,,,,,,,,・座標精度：番地号一致
131229,1.31E+11,葛飾区,一之台中学校,,,,,,,131229,,東京都葛飾区西亀有4-1-1一之台中学校,東京都,葛飾区,西亀有4,1-1,一之台中学校,35.764253,139.838111,,,,,,,,1250002,,,,,,,,,,,,,,,,,,,,,,,,,,,,・座標精度：番地号一致
131229,1.31E+11,葛飾区,青戸中学校,,,,,,,131229,,東京都葛飾区青戸5-10-1青戸中学校,東京都,葛飾区,青戸5,10-1,青戸中学校,35.751016,139.853241,,,,,,,,1250062,,,,,,,,,,,,,,,,,,,,,,,,,,,,・座標精度：番地号一致
131229,1.31E+11,葛飾区,青葉中学校,,,,,,,131229,,東京都葛飾区堀切8-12-1青葉中学校,東京都,葛飾区,堀切8,12-1,青葉中学校,35.756859,139.833812,,,,,,,,1240006,,,,,,,,,,,,,,,,,,,,,,,,,,,,・座標精度：番地号一致
131229,1.31E+11,葛飾区,高砂中学校,,,,,,,131229,,東京都葛飾区高砂3-30-1高砂中学校,東京都,葛飾区,高砂3,30-1,高砂中学校,35.746708,139.869743,,,,,,,,1250054,,,,,,,,,,,,,,,,,,,,,,,,,,,,・座標精度：番地号一致（同住所の別建物あり）
131229,1.31E+11,葛飾区,東金町中学校,,,,,,,131229,,東京都葛飾区東金町5-3-1東金町中学校,東京都,葛飾区,東金町5,3-1,東金町中学校,35.778081,139.873609,,,,,,,,1250041,,,,,,,,,,,,,,,,,,,,,,,,,,,,・座標精度：番地号一致
131229,1.31E+11,葛飾区,葛美中学校,,,,,,,131229,,東京都葛飾区水元2-17-1葛美中学校,東京都,葛飾区,水元2,17-1,葛美中学校,35.784967,139.857782,,,,,,,,1250032,,,,,,,,,,,,,,,,,,,,,,,,,,,,・座標精度：番地号一致
131229,1.31E+11,葛飾区,新小岩中学校,,,,,,,131229,,東京都葛飾区西新小岩2-1-2新小岩中学校,東京都,葛飾区,西新小岩2,1-2,新小岩中学校,35.7178,139.852187,,,,,,,,1240025,,,,,,,,,,,,,,,,,,,,,,,,,,,,・座標精度：番地号一致
131229,1.31E+11,葛飾区,保田しおさい学校,,,,,,,124630,,千葉県安房郡鋸南町大六180-2保田しおさい学校,千葉県,安房郡鋸南町,大六,180-2,保田しおさい学校,35.12281,139.836371,,,,,,,,2991909,,,,,,,,,,,,,,,,,,,,,,,,,,,,・座標精度：番地号一致
131229,1.31E+11,葛飾区,北住吉幼稚園,,,,,,,131229,,東京都葛飾区柴又2-1-10北住吉幼稚園,東京都,葛飾区,柴又2,1-10,北住吉幼稚園,35.756873,139.868812,,,,,,,,1250052,,,,,,,,,,,,,,,,,,,,,,,,,,,,・座標精度：番地号一致
131229,1.31E+11,葛飾区,水元幼稚園,,,,,,,131229,,東京都葛飾区水元1-16-22水元幼稚園,東京都,葛飾区,水元1,16-22,水元幼稚園,35.783378,139.857295,,,,,,,,1250032,,,,,,,,,,,,,,,,,,,,,,,,,,,,・座標精度：番地号一致
131229,1.31E+11,葛飾区,日光林間学園,,,,,,,92061,,栃木県日光市花石町2067-1日光林間学園,栃木県,日光市,花石,2067-1,日光林間学園,36.75416,139.58523,,,,,,,,3211435,,,,,,,,,,,,,,,,,,,,,,,,,,,,・座標精度：番地号一致
131229,1.31E+11,葛飾区,総合教育センター（旧明石小学校）,,,,,,,131229,,東京都葛飾区鎌倉2-12-1総合教育センター（旧明石小学校）,東京都,葛飾区,鎌倉2,12-1,総合教育センター（旧明石小学校）,35.747971,139.874546,,,,,,,,1250053,,,,,,,,,,,,,,,,,,,,,,,,,,,,・座標精度：番地号一致（同住所の別建物あり）
131229,1.31E+11,葛飾区,科学教育センター未来わくわく館,カガクキョウイクセンターミライワクワクカン,Science Education Center,未来わくわく館,,,,131229,27006,東京都葛飾区新宿6-3-2東京理科大学葛飾キャンパス内科学教育センター未来わくわく館,東京都,葛飾区,新宿6,3-2,東京理科大学葛飾キャンパス内科学教育センター未来わくわく館,35.770431,139.862181,階数,1,(03)3695-1111,2758,281000@city.katsushika.lg.jp ,,,1250051,,葛飾区,月火水木金土日,9:00,17:00,休館日：毎月第３月曜日（事業により異なる場合あり）・年末年始（12/28〜1/4）,可,可,有,無,有,無,有,無,有,有,有,無,有,無,有,否,無,有,https://www.city.katsushika.lg.jp/institution/1030224/1006933.html,,,・座標精度：番地号一致（同住所の別建物あり）
131229,1.31E+11,葛飾区,郷土と天文の博物館,,,,,,,131229,,東京都葛飾区白鳥3-25-1郷土と天文の博物館,東京都,葛飾区,白鳥3,25-1,郷土と天文の博物館,35.752874,139.843357,,,,,,,,1250063,,,,,,,,,,,,,,,,,,,,,,,,,,,,・座標精度：番地号一致
131229,1.31E+11,葛飾区,中央図書館,,,,,,,131229,,東京都葛飾区金町6-2-1中央図書館,東京都,葛飾区,金町6,2-1,中央図書館,35.767944,139.871387,,,,,,,,1250042,,,,,,,,,,,,,,,,,,,,,,,,,,,,・座標精度：番地号一致
131229,1.31E+11,葛飾区,お花茶屋図書館,,,,,,,131229,,東京都葛飾区お花茶屋2-1-15お花茶屋図書館,東京都,葛飾区,お花茶屋2,1-15,お花茶屋図書館,35.751195,139.838694,,,,,,,,1240003,,,,,,,,,,,,,,,,,,,,,,,,,,,,・座標精度：番地号一致
131229,1.31E+11,葛飾区,上小松図書館,,,,,,,131229,,東京都葛飾区東新小岩3-12-1上小松図書館,東京都,葛飾区,東新小岩3,12-1,上小松図書館,35.72298,139.86185,,,,,,,,1240023,,,,,,,,,,,,,,,,,,,,,,,,,,,,・座標精度：番地号一致
131229,1.31E+11,葛飾区,亀有図書館,,,,,,,131229,,東京都葛飾区亀有1-17-5亀有図書館,東京都,葛飾区,亀有1,17-5,亀有図書館,35.759176,139.846017,,,,,,,,1250061,,,,,,,,,,,,,,,,,,,,,,,,,,,,・座標精度：番地号一致
131229,1.31E+11,葛飾区,水元図書館,,,,,,,131229,,東京都葛飾区東水元1-7-3水元図書館,東京都,葛飾区,東水元1,7-3,水元図書館,35.778843,139.867535,,,,,,,,1250033,,,,,,,,,,,,,,,,,,,,,,,,,,,,・座標精度：番地号一致
131229,1.31E+11,葛飾区,鎌倉図書館,,,,,,,131229,,東京都葛飾区鎌倉2-4-5鎌倉図書館,東京都,葛飾区,鎌倉2,4-5,鎌倉図書館,35.745251,139.875347,,,,,,,,1250053,,,,,,,,,,,,,,,,,,,,,,,,,,,,・座標精度：番地号一致
131229,1.31E+11,葛飾区,立石図書館,,,,,,,131229,,東京都葛飾区立石1-9-1立石図書館,東京都,葛飾区,立石1,9-1,立石図書館,35.73719,139.845691,,,,,,,,1240012,,,,,,,,,,,,,,,,,,,,,,,,,,,,・座標精度：番地号一致
131229,1.31E+11,葛飾区,四つ木地区図書館,,,,,,,131229,,東京都葛飾区四つ木4-8-1四つ木地区図書館,東京都,葛飾区,四つ木4,8-1,四つ木地区図書館,35.736928,139.833984,,,,,,,,1240011,,,,,,,,,,,,,,,,,,,,,,,,,,,,・座標精度：番地号一致
131229,1.31E+11,葛飾区,西水元地区図書館,,,,,,,131229,,東京都葛飾区西水元2-2-8西水元地区図書館,東京都,葛飾区,西水元2,2-8,西水元地区図書館,35.784966,139.849081,,,,,,,,1250031,,,,,,,,,,,,,,,,,,,,,,,,,,,,・座標精度：番地号一致
131229,1.31E+11,葛飾区,青戸地区図書館,,,,,,,131229,,東京都葛飾区青戸5-20-6青戸地区図書館,東京都,葛飾区,青戸5,20-6,青戸地区図書館,35.750122,139.854345,,,,,,,,1250062,,,,,,,,,,,,,,,,,,,,,,,,,,,,・座標精度：番地号一致
131229,1.31E+11,葛飾区,奥戸地区図書館,,,,,,,131229,,東京都葛飾区奥戸3-5-1奥戸地区図書館,東京都,葛飾区,奥戸3,5-1,奥戸地区図書館,35.731424,139.859544,,,,,,,,1240022,,,,,,,,,,,,,,,,,,,,,,,,,,,,・座標精度：番地号一致（同住所の別建物あり）
131229,1.31E+11,葛飾区,こすげ地区図書館,,,,,,,131229,,東京都葛飾区小菅3-8-22こすげ地区図書館,東京都,葛飾区,小菅3,8-22,こすげ地区図書館,35.753787,139.824825,,,,,,,,1240001,,,,,,,,,,,,,,,,,,,,,,,,,,,,・座標精度：番地号一致
131229,1.31E+11,葛飾区,にいじゅく地区図書館,,,,,,,131229,,東京都葛飾区新宿3-7-1にいじゅく地区図書館,東京都,葛飾区,新宿3,7-1,にいじゅく地区図書館,35.761396,139.862627,,,,,,,,1250051,,,,,,,,,,,,,,,,,,,,,,,,,,,,・座標精度：番地号一致
131229,1.31E+11,葛飾区,リリオ亀有図書サービスカウンター,,,,,,,131229,,東京都葛飾区亀有3-26-1リリオ亀有図書サービスカウンター,東京都,葛飾区,亀有3,26-1,リリオ亀有図書サービスカウンター,35.766574,139.848735,,,,,,,,1250061,,,,,,,,,,,,,,,,,,,,,,,,,,,,・座標精度：番地号一致
131229,1.31E+11,葛飾区,新小岩図書サービスカウンター,,,,,,,131229,,東京都葛飾区新小岩1-45-1（JR新小岩南口ビル６階えきにこわ内）新小岩図書サービスカウンター,東京都,葛飾区,新小岩1,45-1,新小岩図書サービスカウンター,35.71687,139.85824,,,,,,,,1240024,,,,,,,,,,,,,,,,,,,,,,,,,,,,・（同住所に新小岩区民事務所あり）
131229,1.31E+11,葛飾区,水元スポーツセンター公園子ども動物広場（ポニースクールかつしか）,,,,,,,131229,,東京都葛飾区水元1ー19水元スポーツセンター公園子ども動物広場（ポニースクールかつしか）,東京都,葛飾区,水元,1ー19,水元スポーツセンター公園子ども動物広場（ポニースクールかつしか）,35.781985,139.856478,,,,,,,,,,,,,,,,,,,,,,,,,,,,,,,,,,,,・座標精度：街区代表点
131229,1.31E+11,葛飾区,奥戸総合スポーツセンター（体育館・陸上競技場）,,,,,,,131229,,東京都葛飾区奥戸7-17-1奥戸総合スポーツセンター（体育館・陸上競技場）,東京都,葛飾区,奥戸7,17-1,奥戸総合スポーツセンター（体育館・陸上競技場）,35.737574,139.86223,,,,,,,,1240022,,,,,,,,,,,,,,,,,,,,,,,,,,,,・座標精度：番地号一致
131229,1.31E+11,葛飾区,奥戸総合スポーツセンター（温水プール館・エイトホール）,,,,,,,131229,,東京都葛飾区高砂1-2-1奥戸総合スポーツセンター（温水プール館・エイトホール）,東京都,葛飾区,高砂1,2-1,奥戸総合スポーツセンター（温水プール館・エイトホール）,35.740851,139.863714,,,,,,,,1250054,,,,,,,,,,,,,,,,,,,,,,,,,,,,・座標精度：番地号一致
131229,1.31E+11,葛飾区,水元総合スポーツセンター,,,,,,,131229,,東京都葛飾区水元1-23-1水元総合スポーツセンター,東京都,葛飾区,水元1,23-1,水元総合スポーツセンター,35.781794,139.858666,,,,,,,,1250032,,,,,,,,,,,,,,,,,,,,,,,,,,,,・座標精度：番地号一致
131229,1.31E+11,葛飾区,こやのエンジョイくらぶクラブハウス,,,,,,,131229,,東京都葛飾区堀切4-60-18こやのエンジョイくらぶクラブハウス,東京都,葛飾区,堀切4,60-18,こやのエンジョイくらぶクラブハウス,35.749322,139.825962,,,,,,,,,,,,,,,,,,,,,,,,,,,,,,,,,,,,・座標精度：街区代表点
131229,1.31E+11,葛飾区,葛飾にいじゅくみらい公園管理棟,,,,,,,131229,,東京都葛飾区新宿6-3-20葛飾にいじゅくみらい公園管理棟,東京都,葛飾区,新宿6,3-20,葛飾にいじゅくみらい公園管理棟,35.772116,139.865075,,,,,,,,1250051,,,,,,,,,,,,,,,,,,,,,,,,,,,,・座標精度：番地号一致
131229,1.31E+11,葛飾区,金町公園プール,,,,,,,131229,,東京都葛飾区柴又3-24-1金町公園プール,東京都,葛飾区,柴又3,24-1,金町公園プール,35.761155,139.873485,,,,,,,,1250052,,,,,,,,,,,,,,,,,,,,,,,,,,,,・座標精度：番地号一致
131229,1.31E+11,葛飾区,渋江公園管理事務所,,,,,,,131229,,東京都葛飾区東立石3-3-1渋江公園管理事務所,東京都,葛飾区,東立石3,3-1,渋江公園管理事務所,35.735947,139.843054,,,,,,,,1240013,,,,,,,,,,,,,,,,,,,,,,,,,,,,・座標精度：番地号一致
131229,1.31E+11,葛飾区,小菅西公園管理棟,,,,,,,131229,,東京都葛飾区小菅1-2-1小菅西公園管理棟,東京都,葛飾区,小菅1,2-1,小菅西公園管理棟,35.753643,139.819359,,,,,,,,1240001,,,,,,,,,,,,,,,,,,,,,,,,,,,,・座標精度：番地号一致（同住所の別建物あり）
131229,1.31E+11,葛飾区,上千葉公園少年野球場管理事務所,,,,,,,131229,,東京都葛飾区東堀切3-25-1上千葉公園少年野球場管理事務所,東京都,葛飾区,東堀切3,25-1,上千葉公園少年野球場管理事務所,35.754958,139.83906,,,,,,,,1240004,,,,,,,,,,,,,,,,,,,,,,,,,,,,・座標精度：番地号一致（同住所の別建物あり）
131229,1.31E+11,葛飾区,東金町運動場管理事務所,,,,,,,131229,,東京都葛飾区東金町8-27-1東金町運動場管理事務所,東京都,葛飾区,東金町8,27-1,東金町運動場管理事務所,35.781027,139.887611,,,,,,,,1250041,,,,,,,,,,,,,,,,,,,,,,,,,,,,・座標精度：番地号一致（同住所の別建物あり）
131229,1.31E+11,葛飾区,東金町運動場スポーツクライミングセンター,,,,,,,131229,,東京都葛飾区東金町8-31-1東金町運動場スポーツクライミングセンター,東京都,葛飾区,東金町8,31-1,東金町運動場スポーツクライミングセンター,35.782793,139.885169,,,,,,,,1250041,,,,,,,,,,,,,,,,,,,,,,,,,,,,・座標精度：番地号一致
131229,1.31E+11,葛飾区,東新小岩運動場,,,,,,,131229,,葛飾区東新小岩1-18-1　東新小岩運動場,東京都,葛飾区,東新小岩1,18-１,東新小岩運動場,35.719048,139.860184,,,,,,,,1250041,,,,,,,,,,,,,,,,,,,,,,,,,,,,・座標精度：番地号一致
131229,1.31E+11,葛飾区,総合庁舎,,,,,,,131229,,東京都葛飾区立石5-13-1総合庁舎,東京都,葛飾区,立石5,13-1,総合庁舎,35.743191,139.846626,,,,,,,,1240012,,,,,,,,,,,,,,,,,,,,,,,,,,,,・座標精度：番地号一致（同住所の別建物あり）
131229,1.31E+11,葛飾区,金町区民事務所,,,,,,,131229,,東京都葛飾区東金町1-22-1金町区民事務所,東京都,葛飾区,東金町1,22-1,金町区民事務所,35.769725,139.868832,,,,,,,,1250041,,,,,,水曜のみ19時まで,,可,無,無,地区センターと同一のため回答省略,地区センターと同一のため回答省略,無,無,無,無,有,無,地区センターと同一のため回答省略,地区センターと同一のため回答省略,地区センターと同一のため回答省略,否,地区センターと同一のため回答省略,有,,,,・座標精度：番地号一致
131229,1.31E+11,葛飾区,亀有区民事務所,,,,,,,131229,,東京都葛飾区亀有3-26-1亀有区民事務所,東京都,葛飾区,亀有3,26-1,亀有区民事務所,35.766574,139.848735,,,,,,,,1250061,,,,,,水曜のみ19時まで,,可,無,無,地区センターと同一のため回答省略,地区センターと同一のため回答省略,無,無,無,無,有,無,地区センターと同一のため回答省略,地区センターと同一のため回答省略,地区センターと同一のため回答省略,否,地区センターと同一のため回答省略,有,,,,・座標精度：番地号一致
131229,1.31E+11,葛飾区,新小岩区民事務所,,,,,,,131229,,東京都葛飾区新小岩1-45-1（ＪＲ新小岩南口ビル６階　えきにこわ内）新小岩区民事務所,東京都,葛飾区,新小岩1,45-1,新小岩区民事務所,35.71687,139.85824,,,,,,,,1240024,,,,,,土日祝及び月末は17時まで、第３土日は閉庁,,可,無,無,有,エレベーターは有,無,無,無,無,有,無,有,有,有,否,無,有,,,,
131229,1.31E+11,葛飾区,高砂区民事務所,,,,,,,131229,,東京都葛飾区高砂3-1-39高砂区民事務所,東京都,葛飾区,高砂3,1-39,高砂区民事務所,35.745949,139.868386,,,,,,,,1250054,,,,,,水曜のみ19時まで,,可,無,無,地区センターと同一のため回答省略,地区センターと同一のため回答省略,無,無,無,無,有,無,地区センターと同一のため回答省略,地区センターと同一のため回答省略,地区センターと同一のため回答省略,否,地区センターと同一のため回答省略,有,,,,・座標精度：番地号一致
131229,1.31E+11,葛飾区,堀切区民事務所,,,,,,,131229,,東京都葛飾区堀切3-8-5堀切区民事務所,東京都,葛飾区,堀切3,8-5,堀切区民事務所,35.74724,139.828075,,,,,,,,1240006,,,,,,水曜のみ19時まで,,可,無,無,地区センターと同一のため回答省略,地区センターと同一のため回答省略,無,無,無,無,有,無,地区センターと同一のため回答省略,地区センターと同一のため回答省略,地区センターと同一のため回答省略,否,地区センターと同一のため回答省略,有,,,,・座標精度：番地号一致
131229,1.31E+11,葛飾区,水元区民事務所,,,,,,,131229,,東京都葛飾区水元3-13-22水元区民事務所,東京都,葛飾区,水元3,13-22,水元区民事務所,35.782358,139.864306,,,,,,,,1250032,,,,,,水曜のみ19時まで,,可,無,無,地区センターと同一のため回答省略,地区センターと同一のため回答省略,無,無,無,無,有,無,地区センターと同一のため回答省略,地区センターと同一のため回答省略,地区センターと同一のため回答省略,否,地区センターと同一のため回答省略,有,,,,・座標精度：番地号一致
131229,1.31E+11,葛飾区,柴又区民サービスコーナー,,,,,,,131229,,東京都葛飾区柴又1-38-2柴又区民サービスコーナー,東京都,葛飾区,柴又1,38-2,柴又区民サービスコーナー,35.75571,139.872692,,,,,,,,1250052,,,,,,,,可,無,無,地区センターと同一のため回答省略,地区センターと同一のため回答省略,無,無,無,無,有,無,地区センターと同一のため回答省略,地区センターと同一のため回答省略,地区センターと同一のため回答省略,否,地区センターと同一のため回答省略,有,,,,・座標精度：番地号一致
131229,1.31E+11,葛飾区,四ツ木駅区民サービスコーナー,,,,,,,131229,,東京都葛飾区四つ木1-15-1四ツ木駅区民サービスコーナー,東京都,葛飾区,四つ木1,15-1,四ツ木駅区民サービスコーナー,35.732509,139.835424,,,,,,,,1240011,,,,,,,,可,無,無,有,無,無,無,無,無,有,無,無,無,無,否,無,有,,,,
131229,1.31E+11,葛飾区,南綾瀬区民サービスコーナー,,,,,,,131229,,東京都葛飾区堀切6-28-5南綾瀬区民サービスコーナー,東京都,葛飾区,堀切6,28-5,南綾瀬区民サービスコーナー,35.753693,139.830118,,,,,,,,1240006,,,,,,,,可,無,無,地区センターと同一のため回答省略,地区センターと同一のため回答省略,無,無,無,無,有,無,地区センターと同一のため回答省略,地区センターと同一のため回答省略,地区センターと同一のため回答省略,否,地区センターと同一のため回答省略,有,,,,
131229,1.31E+11,葛飾区,新小岩北区民サービススポット,,,,,,,131229,,東京都葛飾区東新小岩6-21-1新小岩北区民サービススポット,東京都,葛飾区,東新小岩6,21-1,新小岩北区民サービススポット,35.72402,139.85885,,,,,,,,1240023,,,,,,,,可,無,無,地区センターと同一のため回答省略,地区センターと同一のため回答省略,無,無,無,無,有,無,地区センターと同一のため回答省略,地区センターと同一のため回答省略,地区センターと同一のため回答省略,否,地区センターと同一のため回答省略,有,,,,
131229,1.31E+11,葛飾区,清掃事務所,,,,,,,131229,,東京都葛飾区立石5-13-1清掃事務所,東京都,葛飾区,立石5,13-1,清掃事務所,35.743191,139.846626,,,,,,,,1240012,,,,,,,,,,,,,,,,,,,,,,,,,,,,・座標精度：番地号一致（同住所の別建物あり）
131229,1.31E+11,葛飾区,新宿分室,,,,,,,131229,,東京都葛飾区新宿3-17-5新宿分室,東京都,葛飾区,新宿3,17-5,新宿分室,35.759496,139.864492,,,,,,,,1250051,,,,,,,,,,,,,,,,,,,,,,,,,,,,・座標精度：番地号一致
131229,1.31E+11,葛飾区,奥戸分室,,,,,,,131229,,東京都葛飾区高砂1-1-1奥戸分室,東京都,葛飾区,高砂1,1-1,奥戸分室,35.740506,139.862311,,,,,,,,1250054,,,,,,,,,,,,,,,,,,,,,,,,,,,,・座標精度：番地号一致（同住所の別建物あり）
131229,1.31E+11,葛飾区,コンテナ中継所,,,,,,,131229,,東京都葛飾区高砂1-1-1コンテナ中継所,東京都,葛飾区,高砂1,1-1,コンテナ中継所,35.740506,139.862311,,,,,,,,1250054,,,,,,,,,,,,,,,,,,,,,,,,,,,,・座標精度：番地号一致（同住所の別建物あり）
131229,1.31E+11,葛飾区,福祉事務所東庁舎,,,,,,,131229,,東京都葛飾区金町1-6-24福祉事務所東庁舎,東京都,葛飾区,金町1,6-24,福祉事務所東庁舎,35.761952,139.865832,,,,,,,,1250042,,,,,,,,,,,,,,,,,,,,,,,,,,,,・座標精度：番地号一致
131229,1.31E+11,葛飾区,施設維持課庁舎,,,,,,,131229,,東京都葛飾区東新小岩8-9-18施設維持課庁舎,東京都,葛飾区,東新小岩8,9-18,施設維持課庁舎,35.728365,139.850513,,,,,,,,1240023,,,,,,,,,,,,,,,,,,,,,,,,,,,,・座標精度：番地号一致（同住所の別建物あり）
131229,1.31E+11,葛飾区,道路補修課・道路保全事務所,,,,,,,131229,,東京都葛飾区立石4-34-4道路補修課・道路保全事務所,東京都,葛飾区,立石4,34-4,道路補修課・道路保全事務所,35.741954,139.847499,,,,,,,,1240012,,,,,,,,可,無,無,有,有,有,無,有,無,有,有,無,無,有,否,無,有,,,,・座標精度：番地号一致
131229,1.31E+11,葛飾区,公園課・公園管理所,,,,,,,131229,,東京都葛飾区立石6-9-1公園課・公園管理所,東京都,葛飾区,立石6,9-1,公園課・公園管理所,35.744972,139.849512,,,,,,,,1240012,,,,,,,,,,,,,,,,,,,,,,,,,,,,・座標精度：番地号一致（同住所の別建物あり）
131229,1.31E+11,葛飾区,すぐやる課分室,,,,,,,131229,,東京都葛飾区白鳥3-32-11すぐやる課分室,東京都,葛飾区,白鳥3,32-11,すぐやる課分室,35.756207,139.844212,,,,,,,,1250063,,,,,,,,,,,,,,,,,,,,,,,,,,,,・座標精度：番地号一致
131229,1.31E+11,葛飾区,立石駅周辺地区街づくり事務所,,,,,,,131229,,東京都葛飾区立石7-7-2立石駅周辺地区街づくり事務所,東京都,葛飾区,立石7,7-2,立石駅周辺地区街づくり事務所,35.740827,139.849589,,,,,,,,1240012,,,,,,,,,,,,,,,,,,,,,,,,,,,,・座標精度：街区代表点
131229,1.31E+11,葛飾区,政策企画課分室,,,,,,,131229,,東京都葛飾区亀有5-15-15政策企画課分室,東京都,葛飾区,亀有5,15-15,政策企画課分室,35.766169,139.846232,,,,,,,,1250061,,,,,,,,,,,,,,,,,,,,,,,,,,,,・座標精度：番地号一致（同住所の別建物あり）
131229,1.31E+11,葛飾区,葛飾区児童相談所,,,,,,,131229,,東京都葛飾区立石2-30-1,東京都,葛飾区,立石2,30-1,,35.740181,139.841522,,,,,,,,"1250062
1240012",,,,,,,,可,有,無,有,エレベータ有,有,,有,,有,有,有,有,有,,,有,,,,・座標精度：番地号一致
131229,1.31E+11,葛飾区,学校施設開放分室,,,,,,,131229,,東京都葛飾区金町4-18-19学校施設開放分室,東京都,葛飾区,金町4,18-19,学校施設開放分室,35.764663,139.865093,,,,,,,,1250042,,,,,,,,,,,,,,,,,,,,,,,,,,,,・座標精度：番地号一致
131229,1.31E+11,葛飾区,職員人材育成センター,,,,,,,131229,,東京都葛飾区立石5-27-1職員人材育成センター,東京都,葛飾区,立石5,27-1,職員人材育成センター,35.745828,139.846272,,,,,,,,1240012,,,,,,,,,,,,,,,,,,,,,,,,,,,,・座標精度：番地号一致
131229,1.31E+11,葛飾区,立石職員寮,,,,,,,131229,,東京都葛飾区立石6-9-1立石職員寮,東京都,葛飾区,立石6,9-1,立石職員寮,35.744972,139.849512,,,,,,,,1240012,,,,,,,,,,,,,,,,,,,,,,,,,,,,・座標精度：番地号一致（同住所の別建物あり）
131229,1.31E+11,葛飾区,男女平等推進センター,ﾀﾞﾝｼﾞｮﾋﾞｮｳﾄﾞｳｽｲｼﾝｾﾝﾀｰ,,ウィメンズパル,,,,131229,,東京都葛飾区立石5-27-1男女平等推進センター,東京都,葛飾区,立石5,27-1,男女平等推進センター,35.745686,139.845673,階,4,(03)5698-2211,,031200@city.katsushika.lg.jp,,,1240012,,葛飾区,日月火水木金土,900,2130,月から土曜日は、９時から２１時３０分、日曜日・祝日は、９時から１７時３０分,,可,有,無,有,有,有,有,可,,可,有,有,有,有,可,無,可,https://www.city.katsushika.lg.jp/institution/1030224/1000097/1006913.html,,,
131229,1.31E+11,葛飾区,旧松南小学校,,,,,,,131229,,東京都葛飾区新小岩3-25-1旧松南小学校,東京都,葛飾区,新小岩3,25-1,旧松南小学校,35.713619,139.865837,,,,,,,,1240024,,,,,,,,,,,,,,,,,,,,,,,,,,,,・座標精度：番地号一致（同住所の別建物あり）
131229,1.31E+11,葛飾区,旧小谷野小学校,,,,,,,131229,,東京都葛飾区堀切4-60-1旧小谷野小学校,東京都,葛飾区,堀切4,60-1,旧小谷野小学校,35.749549,139.826274,,,,,,,,1240006,,,,,,,,,,,,,,,,,,,,,,,,,,,,・座標精度：番地号一致（同住所の別建物あり）
131229,1.31E+11,葛飾区,旧西渋江小学校,,,,,,,131229,,東京都葛飾区四つ木1-6-5旧西渋江小学校,東京都,葛飾区,四つ木1,6-5,旧西渋江小学校,35.733067,139.833576,,,,,,,,1240011,,,,,,,,,,,,,,,,,,,,,,,,,,,,・座標精度：番地号一致（同住所の別建物あり）
131229,1.31E+11,葛飾区,旧東堀切小学校（体育館）,,,,,,,131229,,東京都葛飾区堀切3-34-1旧東堀切小学校（体育館）,東京都,葛飾区,堀切3,34-1,旧東堀切小学校（体育館）,35.744359,139.834538,,,,,,,,1240006,,,,,,,,,,,,,,,,,,,,,,,,,,,,・座標精度：番地号一致（同住所の別建物あり）
