"全国地方公共団体コード","ID","地方公共団体名","名称","名称_カナ","名称_英字","名称_通称","POIコード","外部識別子","外部識別子の値","所在地_全国地方公共団体コード","町字ID","所在地_連結表記","所在地_都道府県","所在地_市区町村","所在地_町字","所在地_番地以下","建物名等(方書)","緯度","経度","高度の種別","高度の値","電話番号","内線番号","連絡先メールアドレス","連絡先FormURL","連絡先備考（その他、SNSなど）","郵便番号","法人番号","団体名","利用可能曜日","開始時間","終了時間","利用可能時間特記事項","説明","車椅子可","車椅子貸出","ツエ貸出","バリアフリートイレ","スロープ、エレベータ、エスカレータ","点字ブロック等の移動支援","点字や読上による支援","盲導犬・介助犬、聴導犬同伴","字幕","筆談対応","優先駐車場","オストメイト対応トイレ","授乳室","おむつ替えコーナー","飲食可否","ベビーカー貸出","ベビーカー利用","URL","画像","画像_ライセンス","備考"
"131202","131202000001","練馬区","練馬区役所","ネリマクヤクショ","","","1302","","","131202","0018006","東京都練馬区豊玉北6-12-1","東京都","練馬区","豊玉北6丁目","12-1","","35.735789","139.651534","","","(03)3993-1111","","","","","1760012","","","月火水木金","08:30","17:00","祝休日、年末年始(12/29～1/3)は閉庁。一部業務(戸籍の届出・証明、住民票、印鑑証明など)については、月曜日～金曜日の17時以降などに時間外窓口サービスを行っています。","","","","","","","","","","","","","","","","","","","","","",""
"131202","131202000002","練馬区","石神井庁舎","シャクジイチョウシャ","","","1304","","","131202","0039003","東京都練馬区石神井町3-30-26","東京都","練馬区","石神井町3丁目","30-26","","35.743473","139.602553","","","(03)3995-1101","","","","","1770041","","","","","","庁舎内の各窓口により利用日、利用時間が異なります。","","","","","","","","","","","","","","","","","","","","","",""
"131202","131202000003","練馬区","中村橋区民センター","ナカムラバシクミンセンター","","","1399","","","131202","0030001","東京都練馬区貫井1-9-1","東京都","練馬区","貫井1丁目","9-1","","35.738505","139.635556","","","","","","","","1760021","","","","","","区民センター内の各施設により利用日、利用時間が異なります。","","","","","","","","","","","","","","","","","","","","","",""
"131202","131202000004","練馬区","光が丘区民センター","ヒカリガオカクミンセンター","","","1399","","","131202","0012002","東京都練馬区光が丘2-9-6","東京都","練馬区","光が丘2丁目","9-6","","35.759534","139.629297","","","","","","","","1790072","","","","08:30","21:30","区民センター内の各施設により利用日、利用時間が異なります。","","","","","","","","","","","","","","","","","","","","","",""
"131202","131202000005","練馬区","関区民センター","セキクミンセンター","","","1399","","","131202","0037001","東京都練馬区関町北1-7-2","東京都","練馬区","関町北1丁目","7-2","","35.724633","139.577505","","","","","","","","1770051","","","","08:30","21:30","区民センター内の各施設により利用日、利用時間が異なります。","","","","","","","","","","","","","有","","","","","","","","",""
"131202","131202000006","練馬区","光が丘区民事務所","ヒカリガオカクミンジムショ","","","1304","","","131202","0012002","東京都練馬区光が丘2-9-6","東京都","練馬区","光が丘2丁目","9-6","","35.75938","139.629299","","","(03)5997-7711","","","","","1790072","","","月火水木金","08:30","19:00","祝休日、年末年始(12/29～1/3)は閉庁。","","","","","","","","","","","","","","","","","","","","","",""
"131202","131202000007","練馬区","練馬区民事務所","ネリマクミンジムショ","","","1304","","","131202","0018006","東京都練馬区豊玉北6-12-1","東京都","練馬区","豊玉北6丁目","12-1","","35.735652","139.651533","","","(03)3993-1111","","","","","1760012","","","月火水木金土","08:30","19:00","土曜日は17時まで。祝休日、年末年始(12/29～1/3)、土曜日と祝休日が重なった場合は閉庁。","","","","","","","","","","","","","","","","","","","","","",""
"131202","131202000008","練馬区","石神井区民事務所","シャクジイクミンジムショ","","","1304","","","131202","0039003","東京都練馬区石神井町3-30-26","東京都","練馬区","石神井町3丁目","30-26","","35.743478","139.602737","","","(03)3995-1103","","","","","1770041","","","月火水木金","08:30","19:00","祝休日、年末年始(12/29～1/3)は閉庁。","","","","","","","","","","","","","","","","","","","","","",""
"131202","131202000009","練馬区","大泉区民事務所","オオイズミクミンジムショ","","","1304","","","131202","0014001","東京都練馬区東大泉1-28-1リズモ大泉学園4階","東京都","練馬区","東大泉1丁目","28-1","リズモ大泉学園4階","35.749884","139.587601","","","(03)3922-1171","","","","","1780063","","","月火水木金","08:30","19:00","祝休日、年末年始(12/29～1/3)は閉庁。","","","","","","","","","","","","","","","","","","","","","",""
"131202","131202000010","練馬区","関区民事務所","セキクミンジムショ","","","1304","","","131202","0037001","東京都練馬区関町北1-7-2","東京都","練馬区","関町北1丁目","7-2","","35.72464","139.577998","","","(03)3928-3046","","","","","1770051","","","月火水木金","08:30","19:00","祝休日、年末年始(12/29～1/3)は閉庁。","","","","","","","","","","","","","","","","","","","","","",""
"131202","131202000011","練馬区","早宮区民事務所","ハヤミヤクミンジムショ","","","1304","","","131202","0007001","東京都練馬区早宮1-44-19","東京都","練馬区","早宮1丁目","44-19","","35.754166","139.658812","","","(03)3994-6705","","","","","1790085","","","月火水木金","08:30","19:00","祝休日、年末年始(12/29～1/3)は閉庁。","","","","","","","","","","","","","","","","","","","","","",""
"131202","131202000012","練馬区","東部土木出張所","トウブドボクシュッチョウジョ","","","1304","","","131202","0020003","東京都練馬区豊玉中3-28-8","東京都","練馬区","豊玉中3丁目","28-8","","35.731263","139.652717","","","(03)3994-0083","","","","","1760013","","","月火水木金","08:30","17:15","祝休日、年末年始(12/29～1/3)は閉所","","","","","","","","","","","","","","","","","","","","","",""
"131202","131202000013","練馬区","西部土木出張所","セイブドボクシュッチョウジョ","","","1304","","","131202","0039003","東京都練馬区石神井町3-30-26","東京都","練馬区","石神井町3丁目","30-26","","35.743133","139.602758","","","(03)3995-0083","","","","","1770041","","","月火水木金","08:30","17:15","祝休日、年末年始(12/29～1/3)は閉所","","","","","","","","","","","","","","","","","","","","","",""
"131202","131202000014","練馬区","練馬総合福祉事務所","ネリマソウゴウフクシジムショ","","","1407","","","131202","0018006","東京都練馬区豊玉北6-12-1西庁舎2F","東京都","練馬区","豊玉北6丁目","12-1","西庁舎2F","35.736093","139.65135","","","(03)3993-1111","","","","","1760012","","","月火水木金","08:30","17:15","祝休日、年末年始(12/29～1/3)は閉庁。","","","","","","","","","","","","","","","","","","","","","",""
"131202","131202000015","練馬区","光が丘総合福祉事務所","ヒカリガオカソウゴウフクシジムショ","","","1407","","","131202","0012002","東京都練馬区光が丘2-9-6光が丘区民センター2F","東京都","練馬区","光が丘2丁目","9-6","光が丘区民センター2F","35.759534","139.629476","","","(03)5997-7713","","","","","1790072","","","月火水木金","08:30","17:15","祝休日、年末年始(12/29～1/3)は閉庁。","","","","","","","","","","","","","","","","","","","","","",""
"131202","131202000016","練馬区","石神井総合福祉事務所","シャクジイソウゴウフクシジムショ","","","1407","","","131202","0039003","東京都練馬区石神井町3-30-26石神井庁舎3・4F","東京都","練馬区","石神井町3丁目","30-26","石神井庁舎3・4F","35.743319","139.602552","","","(03)5393-2801","","","","","1770041","","","月火水木金","08:30","17:15","祝休日、年末年始(12/29～1/3)は閉庁。","","","","","","","","","","","","","","","","","","","","","",""
"131202","131202000017","練馬区","大泉総合福祉事務所","オオイズミソウゴウフクシジムショ","","","1407","","","131202","0014001","東京都練馬区東大泉1-29-1ゆめりあ1内4・9F","東京都","練馬区","東大泉1丁目","29-1","ゆめりあ1内4・9F","35.75026","139.585572","","","(03)5905-5262","","","","","1780063","","","月火水木金","08:30","17:15","祝休日、年末年始(12/29～1/3)は閉庁。","","","","","","","","","","","","","","","","","","","","","",""
"131202","131202000018","練馬区","練馬区保健所","ネリマクホケンジョ","","","1606","","","131202","0018006","東京都練馬区豊玉北6-12-1","東京都","練馬区","豊玉北6丁目","12-1","","35.735516","139.652374","","","(03)3993-1111","","","","","1760012","","","月火水木金","08:30","17:00","祝休日、年末年始(12/29～1/3)は閉庁。","","","","","","","","","","","","","","","","","","","","","",""
"131202","131202000019","練馬区","光が丘保健相談所","ヒカリガオカホケンソウダンショ","","","1399","","","131202","0012002","東京都練馬区光が丘2-9-6","東京都","練馬区","光が丘2丁目","9-6","","35.759387","139.629472","","","(03)5997-7722","","","","","1790072","","","月火水木金","08:30","17:00","祝休日、年末年始(12/29～1/3)は閉庁。","","","","","","","","","","","","","","","","","","","","","",""
"131202","131202000020","練馬区","石神井保健相談所","シャクジイホケンソウダンショ","","","1399","","","131202","0039007","東京都練馬区石神井町7-3-28","東京都","練馬区","石神井町7丁目","3-28","","35.744607","139.601338","","","(03)3996-0634","","","","","1770041","","","月火水木金","08:30","17:00","祝休日、年末年始(12/29～1/3)は閉庁。","","","","","","","","","","","","","","","","","","","","","",""
"131202","131202000021","練馬区","大泉保健相談所","オオイズミホケンソウダンショ","","","1399","","","131202","0045005","東京都練馬区大泉学園町5-8-8","東京都","練馬区","大泉学園町5丁目","8-8","","35.767095","139.586492","","","(03)3921-0217","","","","","1780061","","","月火水木金","08:30","17:00","祝休日、年末年始(12/29～1/3)は閉庁。","","","","","","","","","","","","","","","","","","","","","",""
"131202","131202000022","練馬区","豊玉保健相談所","トヨタマホケンソウダンショ","","","1399","","","131202","0018005","東京都練馬区豊玉北5-15-19","東京都","練馬区","豊玉北5丁目","15-19","","35.735889","139.654992","","","(03)3992-1188","","","","","1760012","","","月火水木金","08:30","17:00","祝休日、年末年始(12/29～1/3)は閉庁。","","","","","","","","","","","","","","","","","","","","","",""
"131202","131202000023","練馬区","関保健相談所","セキホケンソウダンショ","","","1399","","","131202","0036001","東京都練馬区関町東1-27-4","東京都","練馬区","関町東1丁目","27-4","","35.726414","139.581385","","","(03)3929-5381","","","","","1770052","","","月火水木金","08:30","17:00","祝休日、年末年始(12/29～1/3)は閉庁。","","","","","","","","","","","","","","","","","","","","","",""
"131202","131202000024","練馬区","北保健相談所","キタホケンソウダンショ","","","1399","","","131202","0042006","東京都練馬区北町6-35-7","東京都","練馬区","北町6丁目","35-7","","35.757224","139.649632","","","(03)3931-1347","","","","","1790081","","","月火水木金","08:30","17:00","祝休日、年末年始(12/29～1/3)は閉庁。","","","","","","","","","","","","","","","","","","","","","",""
"131202","131202000025","練馬区","練馬区保健所生活衛生課石神井分室","ネリマクホケンジョセイカツエイセイカシャクジイブンシツ","","","1399","","","131202","0039007","東京都練馬区石神井町7-3-28","東京都","練馬区","石神井町7丁目","3-28","","35.74471","139.601228","","","(03)3996-0633","","","","","1770041","","","月火水木金","08:30","17:00","祝休日、年末年始(12/29～1/3)は閉庁。","","","","","","","","","","","","","","","","","","","","","",""
"131202","131202000026","練馬区","厚生文化会館","コウセイブンカカイカン","","","1499","","","131202","0028004","東京都練馬区練馬4-2-3","東京都","練馬区","練馬4丁目","2-3","","35.740217","139.650256","","","(03)3991-3080","","","","","1760001","","","月火水木金土日","09:00","21:30","厚生文化会館内の各部屋により休館日、利用時間が異なります。","","","","","","","","","","","","","","","","","","","","","",""
"131202","131202000027","練馬区","練馬区社会福祉協議会","ネリマクシャカイフクシキョウギカイ","","","1399","","","131202","0018005","東京都練馬区豊玉北5-14-6","東京都","練馬区","豊玉北5丁目","14-6","","35.735559","139.652313","","","(03)3992-5600","","","","","1760012","","","月火水木金","08:30","17:15","祝休日、年末年始(12/29～1/3)は閉庁。","","","","","","","","","","","","","","","","","","","","","",""
"131202","131202000028","練馬区","権利擁護センター ほっとサポートねりま","ケンリヨウゴセンター ホットサポートネリマ","","","1399","","","131202","0018005","東京都練馬区豊玉北5-14-6","東京都","練馬区","豊玉北5丁目","14-6","","35.735418","139.652182","","","(03)5912-4022","","","","","1760012","","","月火水木金","09:00","17:00","祝休日、年末年始(12/29～1/3)は閉庁。","","","","","","","","","","","","","","","","","","","","","",""
"131202","131202000029","練馬区","練馬区社会福祉事業団","ネリマクシャカイフクシジギョウダン","","","1399","","","131202","0012006","東京都練馬区光が丘6-4-1","東京都","練馬区","光が丘6丁目","4-1","","35.760202","139.623233","","","(03)6758-0140","","","","","1790072","","","月火水木金","09:00","17:00","祝休日、年末年始(12/29～1/3)は閉所。","","","","","","","","","","","","","","","","","","","","","",""
"131202","131202000030","練馬区","練馬区シルバー人材センター","ネリマクシルバージンザイセンター","","","1399","","","131202","0018005","東京都練馬区豊玉北5-29-8","東京都","練馬区","豊玉北5丁目","29-8","","35.735973","139.652886","","","(03)3993-7168","","","","","1760012","","","月火水木金","08:30","17:15","祝休日、年末年始(12/29～1/3)は閉所。","","","","","","","","","","","","","","","","","","","","","",""
"131202","131202000031","練馬区","はつらつセンター光が丘","ハツラツセンターヒカリガオカ","","","1499","","","131202","0012002","東京都練馬区光が丘2-9-6","東京都","練馬区","光が丘2丁目","9-6","","35.759474","139.630185","","","(03)5997-7717","","","","","1790072","","","月火水木金土","09:00","17:00","祝休日(敬老の日にあたるときは開館)、年末年始(12/29～1/3)は休館。","","","","","","","","","","","","","","","","","","","","","",""
"131202","131202000032","練馬区","はつらつセンター関","ハツラツセンターセキ","","","1499","","","131202","0037001","東京都練馬区関町北1-7-2","東京都","練馬区","関町北1丁目","7-2","","35.724479","139.577796","","","(03)3928-1987","","","","","1770051","","","月火水木金土","09:00","17:00","祝休日(敬老の日にあたるときは開館)、年末年始(12/29～1/3)は休館。","","","","","","","","","","","","","","","","","","","","","",""
"131202","131202000033","練馬区","はつらつセンター豊玉","ハツラツセンタートヨタマ","","","1499","","","131202","0020003","東京都練馬区豊玉中3-3-12","東京都","練馬区","豊玉中3丁目","3-12","","35.732151","139.65534","","","(03)5912-6401","","","","","1760013","","","月火水木金土日","09:00","21:30","年末年始(12/29～1/3)は休館。毎月第３日曜日は午後５時閉館。","","","","","","","","","","","","","","","","","","","","","",""
"131202","131202000034","練馬区","はつらつセンター大泉","ハツラツセンターオオイズミ","","","1499","","","131202","0045001","東京都練馬区大泉学園町1-34-20","東京都","練馬区","大泉学園町1丁目","34-20","","35.763472","139.589173","","","(03)3867-3180","","","","","1780061","","","月火水木金土日","09:00","21:30","年末年始(12/29～1/3)は休館。毎月第３日曜日は午後５時閉館。","","","","","","","","","","","","","","","","","","","","","",""
"131202","131202000035","練馬区","栄町敬老館","サカエチョウケイロウカン","","","1499","","","131202","0023000","東京都練馬区栄町40-7","東京都","練馬区","栄町","40-7","","35.73946","139.671363","","","(03)3994-3286","","","","","1760006","","","月火水木金土","09:00","17:00","祝休日(敬老の日にあたるときは開館)、年末年始(12/29～1/3)は休館。","","","","","","","","","","","","","","","","","","","","","",""
"131202","131202000037","練馬区","南田中敬老館","ミナミタナカケイロウカン","","","1499","","","131202","0003005","東京都練馬区南田中5-15-25","東京都","練馬区","南田中5丁目","15-25","","35.73778","139.611508","","","(03)3995-5538","","","","","1770035","","","月火水木金土","09:00","17:00","祝休日(敬老の日にあたるときは開館)、年末年始(12/29～1/3)は休館。","","","","","","","","","","","","","","","","","","","","","",""
"131202","131202000038","練馬区","三原台敬老館","ミハラダイケイロウカン","","","1499","","","131202","0013002","東京都練馬区三原台2-11-29","東京都","練馬区","三原台2丁目","11-29","","35.757321","139.606341","","","(03)3924-8834","","","","","1770031","","","月火水木金土","09:00","17:00","祝休日(敬老の日にあたるときは開館)、年末年始(12/29～1/3)は休館。","","","","","","","","","","","","","","","","","","","","","",""
"131202","131202000039","練馬区","石神井敬老館","シャクジイケイロウカン","","","1499","","","131202","0039007","東京都練馬区石神井町7-28-21","東京都","練馬区","石神井町7丁目","28-21","","35.744792","139.598138","","","(03)3996-2900","","","","","1770041","","","月火水木金土","09:00","17:00","祝休日(敬老の日にあたるときは開館)、年末年始(12/29～1/3)は休館。","","","","","","","","","","","","","","","","","","","","","",""
"131202","131202000040","練馬区","石神井台敬老館","シャクジイダイケイロウカン","","","1499","","","131202","0038002","東京都練馬区石神井台2-18-13","東京都","練馬区","石神井台2丁目","18-13","","35.735428","139.589647","","","(03)3995-8270","","","","","1770045","","","月火水木金土","09:00","17:00","祝休日(敬老の日にあたるときは開館)、年末年始(12/29～1/3)は休館。","","","","","","","","","","","","","","","","","","","","","",""
"131202","131202000042","練馬区","西大泉敬老館","ニシオオイズミケイロウカン","","","1499","","","131202","0016003","東京都練馬区西大泉3-21-16","東京都","練馬区","西大泉3丁目","21-16","","35.759402","139.578866","","","(03)3924-9545","","","","","1780065","","","月火水木金土","09:00","17:00","祝休日(敬老の日にあたるときは開館)、年末年始(12/29～1/3)は休館。","","","","","","","","","","","","","","","","","","","","","",""
"131202","131202000043","練馬区","大泉北敬老館","オオイズミキタケイロウカン","","","1499","","","131202","0045004","東京都練馬区大泉学園町4-21-1","東京都","練馬区","大泉学園町4丁目","21-1","","35.765476","139.588368","","","(03)3925-7105","","","","","1780061","","","月火水木金土","09:00","17:00","祝休日(敬老の日にあたるときは開館)、年末年始(12/29～1/3)は休館。","","","","","","","","","","","","","","","","","","","","","",""
"131202","131202000045","練馬区","上石神井敬老館","カミシャクジイケイロウカン","","","1499","","","131202","0034001","東京都練馬区上石神井1-6-16","東京都","練馬区","上石神井1丁目","6-16","","35.725235","139.59234","","","(03)3928-8623","","","","","1770044","","","月火水木金土","09:00","17:00","祝休日(敬老の日にあたるときは開館)、年末年始(12/29～1/3)は休館。","","","","","","","","","","","","","","","","","","","","","",""
"131202","131202000046","練馬区","練馬デイサービスセンター","ネリマデイサービスセンター","","","1409","","","131202","0028002","東京都練馬区練馬2-24-3","東京都","練馬区","練馬2丁目","24-3","","35.74412","139.65413","","","(03)5984-1701","","","","","1760001","","","月火水木金土","08:30","17:30","年末年始(12/31～1/3)は休業。","","","","","","","","","","","","","","","","","","","","","",""
"131202","131202000047","練馬区","錦デイサービスセンター","ニシキデイサービスセンター","","","1409","","","131202","0041002","東京都練馬区錦2-6-14","東京都","練馬区","錦2丁目","6-14","","35.761711","139.666103","","","(03)3937-5031","","","","","1790082","","","月火水木金土","08:30","17:30","年末年始(12/31～1/3)は休業。","","","","","","","","","","","","","","","","","","","","","",""
"131202","131202000048","練馬区","光が丘デイサービスセンター","ヒカリガオカデイサービスセンター","","","1409","","","131202","0012002","東京都練馬区光が丘2-9-6","東京都","練馬区","光が丘2丁目","9-6","","35.75939","139.629647","","","(03)5997-7706","","","","","1790072","","","月火水木金土","08:30","17:00","年末年始(12/29～1/3)は休業。","","","","","","","","","","","","","","","","","","","","","",""
"131202","131202000049","練馬区","東大泉デイサービスセンター","ヒガシオオイズミデイサービスセンター","","","1409","","","131202","0014005","東京都練馬区東大泉5-15-2","東京都","練馬区","東大泉5丁目","15-2","","35.743687","139.589414","","","(03)5387-1021","","","","","1780063","","","月火水木金土","08:30","17:30","年末年始(12/31～1/3)は休業。","","","","","","","","","","","","","","","","","","","","","",""
"131202","131202000050","練馬区","土支田デイサービスセンター","ドシダデイサービスセンター","","","1409","","","131202","0043002","東京都練馬区土支田2-40-18","東京都","練馬区","土支田2丁目","40-18","","35.764291","139.611332","","","(03)5387-6760","","","","","1790076","","","月火水木金土","08:30","17:30","年末年始(12/31～1/3)は休業。","","","","","","","","","","","","","","","","","","","","","",""
"131202","131202000051","練馬区","高松デイサービスセンター","タカマツデイサービスセンター","","","1409","","","131202","0001006","東京都練馬区高松6-3-24","東京都","練馬区","高松6丁目","3-24","","35.757037","139.619625","","","(03)3995-5107","","","","","1790075","","","月火水木金土","08:30","17:30","年末年始(12/31～1/3)は休業。","","","","","","","","","","","","","","","","","","","","","",""
"131202","131202000052","練馬区","高野台デイサービスセンター","タカノダイデイサービスセンター","","","1409","","","131202","0004005","東京都練馬区高野台5-24-1","東京都","練馬区","高野台5丁目","24-1","","35.746598","139.609576","","","(03)5923-0831","","","","","1770033","","","月火水木金土","09:00","19:00","年末年始(12/29～1/3)は休業。","","","","","","","","","","","","","","","","","","","","","",""
"131202","131202000054","練馬区","豊玉デイサービスセンター","トヨタマデイサービスセンター","","","1409","","","131202","0017003","東京都練馬区豊玉南3-9-13","東京都","練馬区","豊玉南3丁目","9-13","","35.727699","139.652769","","","(03)3993-1341","","","","","1760014","","","月火水木金土","08:30","17:30","年末年始(12/31～1/3)は休業。","","","","","","","","","","","","","","","","","","","","","",""
"131202","131202000055","練馬区","中村橋福祉ケアセンター（心身障害者福祉センター）","ナカムラバシフクシケアセンター（シンシンショウガイシャフクシセンター）","","","1499","","","131202","0030001","東京都練馬区貫井1-9-1","東京都","練馬区","貫井1丁目","9-1","","35.738231","139.635557","","","(03)5984-1496","","","","","1760021","","","","","","","","","","","","","","","","","","","","","","","","","","","","令和６年４月から令和７年10月まで改修中"
"131202","131202000056","練馬区","こども発達支援センター","コドモハッタツシエンセンター","","","1499","","","131202","0012003","東京都練馬区光が丘3-1-1","東京都","練馬区","光が丘3丁目","1-1","","35.753996","139.630657","","","(03)3975-6251","","","","","1790072","","","月火水木金土","09:00","17:30","土曜日は17時まで。祝休日、年末年始(12/29～1/3)は閉庁。","","","","","","","","","","","","","","","","","","","","","",""
"131202","131202000057","練馬区","かたくり福祉作業所","カタクリフクシサギョウジョ","","","1499","","","131202","0044003","東京都練馬区大泉町3-27-10","東京都","練馬区","大泉町3丁目","27-10","","35.766973","139.598216","","","(03)5387-4610","","","","","1780062","","","","","","","","","","","","","","","","","","","","","","","","","","","",""
"131202","131202000059","練馬区","貫井福祉工房（就労サポートねりま）","ヌクイフクシコウボウ（シュウロウサポートネリマ）","","","1499","","","131202","0030002","東京都練馬区貫井2-16-12","東京都","練馬区","貫井2丁目","16-12","","35.738575","139.631068","","","(03)5987-0401","","","","","1760021","","","","","","","","","","","","","","","","","","","","","","","","","","","","令和８年１月から令和９年１月工事を予定"
"131202","131202000062","練馬区","氷川台福祉園","ヒカワダイフクシエン","","","1499","","","131202","0006002","東京都練馬区氷川台2-16-2","東京都","練馬区","氷川台2丁目","16-2","","35.756662","139.66782","","","(03)3931-0167","","","","","1790084","","","","","","","","","","","","","","","","","","","","","","","","","","","",""
"131202","131202000063","練馬区","光が丘福祉園","ヒカリガオカフクシエン","","","1499","","","131202","0012002","東京都練馬区光が丘2-4-10","東京都","練馬区","光が丘2丁目","4-10","","35.763969","139.633332","","","(03)3976-5100","","","","","1790072","","","","","","","","","","","","","","","","","","","","","","","","","","","",""
"131202","131202000065","練馬区","大泉町福祉園","オオイズミマチフクシエン","","","1499","","","131202","0044003","東京都練馬区大泉町3-29-20","東京都","練馬区","大泉町3丁目","29-20","","35.766984","139.597246","","","(03)5387-4681","","","","","1780062","","","","","","","","","","","","","","","","","","","","","","","","","","","",""
"131202","131202000066","練馬区","大泉学園町福祉園","オオイズミガクエンチョウフクシエン","","","1499","","","131202","0045003","東京都練馬区大泉学園町3-9-20","東京都","練馬区","大泉学園町3丁目","9-20","","35.761289","139.582012","","","(03)3923-8540","","","","","1780061","","","","","","","","","","","","","","","","","","","","","","","","","","","",""
"131202","131202000067","練馬区","関町福祉園","セキマチフクシエン","","","1499","","","131202","0031003","東京都練馬区関町南3-15-35","東京都","練馬区","関町南3丁目","15-35","","35.72247","139.579502","","","(03)3594-0217","","","","","1770053","","","","","","","","","","","","","","","","","","","","","","","","","","","",""
"131202","131202000068","練馬区","貫井福祉園","ヌクイフクシエン","","","1499","","","131202","0030002","東京都練馬区貫井2-16-12","東京都","練馬区","貫井2丁目","16-12","","35.738712","139.631068","","","(03)5987-0400","","","","","1760021","","","","","","","","","","","","","","","","","","","","","","","","","","","","令和８年１月から令和９年１月工事を予定"
"131202","131202000069","練馬区","豊玉障害者地域生活支援センターきらら","トヨタマショウガイシャチイキセイカツシエンセンターキララ","","","1499","","","131202","0018005","東京都練馬区豊玉北5-15-19-6階","東京都","練馬区","豊玉北5丁目","15-19","6階","35.73602","139.65499","","","(03)3557-9222","","","","","1760012","","","月火木金土日","","","祝休日、年末年始(12/29～1/3)は閉所。土日は12時から。","","","","","","","","","","","","","","","","","","","","","",""
"131202","131202000070","練馬区","光が丘障害者地域生活支援センターすてっぷ","ヒカリガオカショウガイシャチイキセイカツシエンセンターステップ","","","1499","","","131202","0012002","東京都練馬区光が丘2-9-6","東京都","練馬区","光が丘2丁目","9-6","","35.759237","139.629476","","","(03)5997-7858","","","","","1790072","","","月水木金土日","09:00","20:00","祝休日、年末年始(12/29～1/3)は閉所。土日は12時から。","","","","","","","","","","","","","","","","","","","","","",""
"131202","131202000071","練馬区","石神井障害者地域生活支援センターういんぐ","シャクジイショウガイシャチイキセイカツシエンセンターウイング","","","1499","","","131202","0039007","東京都練馬区石神井町7-3-28","東京都","練馬区","石神井町7丁目","3-28","","35.744605","139.601129","","","(03)3997-2181","","","","","1770041","","","月水木金土日","","","祝休日、年末年始(12/29～1/3)は閉所。土日は12時から。","","","","","","","","","","","","","","","","","","","","","",""
"131202","131202000072","練馬区","大泉障害者地域生活支援センターさくら","オオイズミショウガイシャチイキセイカツシエンセンターサクラ","","","1499","","","131202","0014005","東京都練馬区東大泉5-35-2","東京都","練馬区","東大泉5丁目","35-2","","35.747513","139.589614","","","(03)3925-7371","","","","","1780063","","","月火木金土日","09:00","20:00","祝休日、年末年始(12/29～1/3)は閉所。土日は12時から。","","","","","","","","","","","","","","","","","","","","","",""
"131202","131202000073","練馬区","しらゆり荘","シラユリソウ","","","1499","","","131202","0028003","東京都練馬区練馬3-20-7","東京都","練馬区","練馬3丁目","20-7","","35.739037","139.650005","","","(03)5946-9172","","","","","1760001","","","","","","","","","","","","","","","","","","","","","","","","","","","",""
"131202","131202000074","練馬区","心身障害者福祉集会所","シンシンショウガイシャフクシシュウカイジョ","","","1499","","","131202","0012002","東京都練馬区光が丘2-9-6","東京都","練馬区","光が丘2丁目","9-6","","35.759236","139.629831","","","(03)5997-9700","","","","","1790072","","","月火水木金土日","09:00","21:30","年末年始(12/29～1/3)は閉所。","","","","","","","","","","","","","","","","","","","","","",""
"131202","131202000075","練馬区","谷原フレンド","ヤハラフレンド","","","1499","","","131202","0005005","東京都練馬区谷原5-6-5","東京都","練馬区","谷原5丁目","6-5","","35.751203","139.61289","","","(03)5910-8488","","","","","1770032","","","","","","","","","","","","","","","","","","","","","","","","","","","",""
"131202","131202000076","練馬区","練馬区資源循環センター","ネリマクシゲンジュンカンセンター","","","2005","","","131202","0005001","東京都練馬区谷原1-2-20","東京都","練馬区","谷原1丁目","2-20","","35.748407","139.62367","","","(03)3995-6711","","","","","1770032","","","月火水木金土日","09:00","17:00","年末年始(12/29～1/3)は閉所。","","","","","","","","","","","","","","","","","","","","","",""
"131202","131202000077","練馬区","練馬区立春日町リサイクルセンター","ネリマクリツカスガチョウリサイクルセンター","","","2005","","","131202","0008002","東京都練馬区春日町2-14-16","東京都","練馬区","春日町2丁目","14-16","","35.756006","139.647893","","","(03)3926-2501","","","","","1790074","","","月火木金土日","09:00","17:00","水曜日が祝休日の場合は開館し、その直後の祝休日でない日が休館。年末年始(12/29～1/3)は休館。","","","","","","","","","","","","","","","","","","","","","",""
"131202","131202000078","練馬区","練馬区立関町リサイクルセンター","ネリマクリツセキマチリサイクルセンター","","","2005","","","131202","0037001","東京都練馬区関町北1-7-14","東京都","練馬区","関町北1丁目","7-14","","35.725001","139.577948","","","(03)3594-5351","","","","","1770051","","","月火木金土日","09:00","17:00","水曜日が祝休日の場合は開館し、その直後の祝休日でない日が休館。年末年始(12/29～1/3)は休館。","","","","","","","","","","","","","","","","","","","","","",""
"131202","131202000079","練馬区","練馬区立豊玉リサイクルセンター","ネリマクリツトヨタマリサイクルセンター","","","2005","","","131202","0022002","東京都練馬区豊玉上2-22-15","東京都","練馬区","豊玉上2丁目","22-15","","35.737042","139.660298","","","(03)5999-3196","","","","","1760011","","","月火木金土日","09:00","17:00","水曜日が祝休日の場合は開館し、その直後の祝休日でない日が休館。年末年始(12/29～1/3)は休館。","","","","","","","","","","","","","","","","","","","","","",""
"131202","131202000080","練馬区","練馬区立大泉リサイクルセンター","ネリマクリツオオイズミリサイクルセンター","","","2005","","","131202","0045001","東京都練馬区大泉学園町1-34-10","東京都","練馬区","大泉学園町1丁目","34-10","","35.76307","139.590924","","","(03)3978-4030","","","","","1780061","","","月火木金土日","09:00","17:00","水曜日が祝休日の場合は開館し、その直後の祝休日でない日が休館。年末年始(12/29～1/3)は休館。","","","","","","","","","","","","","","","","","","","","","",""
"131202","131202000081","練馬区","練馬清掃事務所","ネリマセイソウジムショ","","","2099","","","131202","0022002","東京都練馬区豊玉上2-22-15","東京都","練馬区","豊玉上2丁目","22-15","","35.737044","139.660098","","","(03)3992-7141","","","","","1760011","","","月火水木金土","07:40","16:25","年末年始(12/29～1/3)は閉所。","","","","","","","","","","","","","","","","","","","","","",""
"131202","131202000082","練馬区","石神井清掃事務所","シャクジイセイソウジムショ","","","2099","","","131202","0034003","東京都練馬区上石神井3-34-25","東京都","練馬区","上石神井3丁目","34-25","","35.731192","139.590203","","","(03)3928-1353","","","","","1770044","","","月火水木金土","07:40","16:25","年末年始(12/29～1/3)は閉所。","","","","","","","","","","","","","","","","","","","","","",""
"131202","131202000083","練馬区","谷原清掃事業所","ヤハラセイソウジギョウショ","","","2099","","","131202","0005005","東京都練馬区谷原5-5-11","東京都","練馬区","谷原5丁目","5-11","","35.75172","139.611324","","","(03)5393-3001","","","","","1770032","","","","","","","","","","","","","","","","","","","","","","","","","","","",""
"131202","131202000084","練馬区","防災学習センター","ボウサイガクシュウセンター","","","1399","","","131202","0012006","東京都練馬区光が丘6-4-1","東京都","練馬区","光が丘6丁目","4-1","","35.76022","139.623022","","","(03)5997-6471","","","","","1790072","","","火水木金土日","10:00","18:00","研修室は9時～21時30分。月曜日が祝休日の場合は開館し、その直後の祝休日でない日が休館。年末年始(12/29～1/3)は閉館。研修室は年末年始のみ休館。","","","","","","","","","","","","","","","","","","","","","",""
"131202","131202000085","練馬区","子ども家庭支援センター","コドモカテイシエンセンター","","","1499","","","131202","0018005","東京都練馬区豊玉北5-28-3","東京都","練馬区","豊玉北5丁目","28-3","","35.734953","139.653331","","","(03)3993-8155","","","","","1760012","","","月火水木金土","08:30","19:00","土曜日は17時まで。祝休日、年末年始(12/29～1/3)は閉庁。","","","","","","","","","","","","","","","","","","","","","",""
"131202","131202000086","練馬区","子ども家庭支援センター（石神井）","コドモカテイシエンセンター（シャクジイ）","","","1499","","","131202","0039003","東京都練馬区石神井町3-30-26石神井庁舎4階","東京都","練馬区","石神井町3丁目","30-26","石神井庁舎4階","35.743405","139.602759","","","(03)3995-1108","","","","","1778509","","","月火水木金土","08:30","19:00","土曜日は17時まで。祝休日、年末年始(12/29～1/3)は閉庁。","","","","","","","","","","","","","","","","","","","","","",""
"131202","131202000087","練馬区","地域子ども家庭支援センター練馬","チイキコドモカテイシエンセンターネリマ","","","1499","","","131202","0028001","東京都練馬区練馬1-17-1ココネリ4階","東京都","練馬区","練馬1丁目","17-1","ココネリ4階","35.738081","139.653307","","","(03)6758-0141","","","","","1760001","","","月火水木金土","09:00","19:00","土曜日は17時まで。祝休日、年末年始(12/29～1/3)は休室。","","","","","","","","","","","","","","","","","","","","","",""
"131202","131202000089","練馬区","地域子ども家庭支援センター光が丘","チイキコドモカテイシエンセンターヒカリガオカ","","","1499","","","131202","0012002","東京都練馬区光が丘2-9-6光が丘区民センター6階","東京都","練馬区","光が丘2丁目","9-6","光が丘区民センター6階","35.759233","139.629303","","","(03)5997-7759","","","","","1790072","","","月火水木金土","09:00","17:00","祝休日、年末年始(12/29～1/3)は休室。","","","","","","","","","","","","","","","","","","","","","",""
"131202","131202000091","練馬区","地域子ども家庭支援センター貫井","チイキコドモカテイシエンセンターヌクイ","","","1499","","","131202","0030003","東京都練馬区貫井3-25-15","東京都","練馬区","貫井3丁目","25-15","","35.737344","139.627298","","","(03)3577-9820","","","","","1760021","","","月火水木金土","09:00","17:00","祝休日、年末年始(12/29～1/3)は休室。","","","","","","","","","","","","","","","","","","","","","",""
"131202","131202000092","練馬区","地域子ども家庭支援センター大泉","チイキコドモカテイシエンセンターオオイズミ","","","1499","","","131202","0014005","東京都練馬区東大泉5-35-1","東京都","練馬区","東大泉5丁目","35-1","","35.747579","139.589807","","","(03)3925-6713","","","","","1780063","","","月火水木金土","09:00","17:00","祝休日、年末年始(12/29～1/3)は休室。","","","","","","","","","","","","","","","","","","","","","",""
"131202","131202000093","練馬区","地域子ども家庭支援センター関","チイキコドモカテイシエンセンターセキ","","","1499","","","131202","0037001","東京都練馬区関町北1-21-15","東京都","練馬区","関町北1丁目","21-15","","35.726719","139.578657","","","(03)5927-5911","","","","","1770051","","","月火水木金土","09:00","17:00","祝休日、年末年始(12/29～1/3)は休室。","","","","","","","","","","","","","","","","","","","","","",""
"131202","131202000094","練馬区","練馬区ファミリーサポートセンター","ネリマクファミリーサポートセンター","","","1499","","","131202","0018005","東京都練馬区豊玉北5-18-12","東京都","練馬区","豊玉北5丁目","18-12","","35.737132","139.654348","","","(03)3993-4100","","","","","1760012","","","月火水木金土","09:00","17:00","祝休日、年末年始(12/29～1/3)は休室。","","","","","","","","","","","","","","","","","","","","","",""
"131202","131202000095","練馬区","光が丘ぴよぴよ（ひろば室）","ヒカリガオカピヨピヨ（ヒロバシツ）","","","1499","","","131202","0012005","東京都練馬区光が丘5-2-5-105","東京都","練馬区","光が丘5丁目","2-5-105","","35.7599","139.626794","","","(03)3979-8101","","","","","1790072","","","月火水木金土日","09:00","17:00","年末年始(12/29～1/3)は休室。","","","","","","","","","","","","","","","","","","","","","",""
"131202","131202000096","練馬区","西大泉ぴよぴよ","ニシオオイズミピヨピヨ","","","1499","","","131202","0016001","東京都練馬区西大泉4-9-1","東京都","練馬区","西大泉4丁目","9-1","","35.761641","139.577239","","","(03)5935-6886","","","","","1780065","","","月火水木金土","10:00","17:00","祝休日は休室。年末年始(12/29～1/3)は休室。","","","","","","","","","","","","","","","","","","","","","",""
"131202","131202000097","練馬区","練馬ぴよぴよ（ひろば室）","ネリマピヨピヨ（ヒロバシツ）","","","1499","","","131202","0018005","東京都練馬区豊玉北5-18-12","東京都","練馬区","豊玉北5丁目","18-12","","35.737042","139.654354","","","(03)3993-8200","","","","","1760012","","","月火水木金土日","09:00","16:00","年末年始(12/29～1/3)は休室。","","","","","","","","","","","","","","","","","","","","","",""
"131202","131202000098","練馬区","関ぴよぴよ","セキピヨピヨ","","","1499","","","131202","0037001","東京都練馬区関町北1-21-15","東京都","練馬区","関町北1丁目","21-15","","35.726587","139.578659","","","(03)5991-4711","","","","","1770051","","","月火木金土","09:00","17:00","年末年始(12/29～1/3)は休室。","","","","","","","","","","","","","","","","","","","","","",""
"131202","131202000099","練馬区","貫井ぴよぴよ","ヌクイピヨピヨ","","","1499","","","131202","0030003","東京都練馬区貫井3-25-15","東京都","練馬区","貫井3丁目","25-15","","35.737212","139.627398","","","(03)3577-9823","","","","","1760021","","","月火水金土","09:00","17:00","年末年始(12/29～1/3)は休室。","","","","","","","","","","","","","","","","","","","","","",""
"131202","131202000100","練馬区","大泉ぴよぴよ","オオイズミピヨピヨ","","","1499","","","131202","0014005","東京都練馬区東大泉5-35-1","東京都","練馬区","東大泉5丁目","35-1","","35.747462","139.589812","","","(03)3925-6716","","","","","1780063","","","月火木金土","09:00","17:00","年末年始(12/29～1/3)は休室。","","","","","","","","","","","","","","","","","","","","","",""
"131202","131202000101","練馬区","北大泉児童館ぴよぴよ","キタオオイズミジドウカンピヨピヨ","","","1499","","","131202","0044004","東京都練馬区大泉町4-15-15","東京都","練馬区","大泉町4丁目","15-15","","35.762799","139.600224","","","(03)3921-4856","","","","","1780062","","","月火水木金土","10:00","17:00","祝休日は休室。年末年始(12/29～1/3)は休室。","","","","","","","","","","","","","","","","","","","","","",""
"131202","131202000102","練馬区","光が丘児童館ぴよぴよ","ヒカリガオカジドウカンピヨピヨ","","","1499","","","131202","0012001","東京都練馬区光が丘1-3-1","東京都","練馬区","光が丘1丁目","3-1","","35.767643","139.6391","","","(03)3975-7137","","","","","1790072","","","月火水木金土","10:00","17:00","祝休日は休室。年末年始(12/29～1/3)は休室。","","","","","","","","","","","","","","","","","","","","","",""
"131202","131202000103","練馬区","立野地区区民館ぴよぴよ","タテノチククミンカンピヨピヨ","","","1499","","","131202","0035000","東京都練馬区立野町15-42","東京都","練馬区","立野町","15-42","","35.718618","139.582308","","","(03)3928-6217","","","","","1770054","","","月火水木金土","10:00","17:00","祝休日は休室。年末年始(12/29～1/3)は休室。","","","","","","","","","","","","","","","","","","","","","",""
"131202","131202000104","練馬区","田柄地区区民館ぴよぴよ","タガラチククミンカンピヨピヨ","","","1499","","","131202","0040003","東京都練馬区田柄3-28-13","東京都","練馬区","田柄3丁目","28-13","","35.762194","139.637243","","","(03)3926-4934","","","","","1790073","","","月火水木金土","10:00","17:00","祝休日は休室。年末年始(12/29～1/3)は休室。","","","","","","","","","","","","","","","","","","","","","",""
"131202","131202000105","練馬区","春日町南地区区民館ぴよぴよ","カスガチョウミナミチククミンカンピヨピヨ","","","1499","","","131202","0008005","東京都練馬区春日町5-20-25","東京都","練馬区","春日町5丁目","20-25","","35.74772","139.638523","","","(03)3926-4974","","","","","1790074","","","月火水木金土","10:00","17:00","祝休日は休室。年末年始(12/29～1/3)は休室。","","","","","","","","","","","","","","","","","","","","","",""
"131202","131202000106","練馬区","栄町保育園","サカエチョウホイクエン","","","1402","","","131202","0023000","東京都練馬区栄町40-7","東京都","練馬区","栄町","40-7","","35.739602","139.671041","","","(03)3994-3285","","","","","1760006","","","月火水木金土","07:30","18:30","祝休日、年末年始(12/29～1/3)は休園。","","","","","","","","","","","","","","","","","","","","","",""
"131202","131202000107","練馬区","豊玉第四保育園","トヨタマダイヨンホイクエン","","","1402","","","131202","0020001","東京都練馬区豊玉中1-9-11","東京都","練馬区","豊玉中1丁目","9-11","","35.730805","139.661396","","","(03)3948-2391","","","","","1760013","","","月火水木金土","07:30","18:30","祝休日、年末年始(12/29～1/3)は休園。","","","","","","","","","","","","","","","","","","","","","",""
"131202","131202000108","練馬区","豊玉保育園","トヨタマホイクエン","","","1402","","","131202","0020004","東京都練馬区豊玉中4-13-6","東京都","練馬区","豊玉中4丁目","13-6","","35.732631","139.65015","","","(03)3991-4484","","","","","1760013","","","月火水木金土","07:30","18:30","祝休日、年末年始(12/29～1/3)は休園。","","","","","","","","","","","","","","","","","","","","","",""
"131202","131202000109","練馬区","豊玉第三保育園","トヨタマダイサンホイクエン","","","1402","","","131202","0017003","東京都練馬区豊玉南3-32-37","東京都","練馬区","豊玉南3丁目","32-37","","35.729288","139.649508","","","(03)3991-6762","","","","","1760014","","","月火水木金土","07:30","18:30","祝休日、年末年始(12/29～1/3)は休園。","","","","","","","","","","","","","","","","","","","","","",""
"131202","131202000110","練馬区","豊玉第二保育園","トヨタマダイニホイクエン","","","1402","","","131202","0018006","東京都練馬区豊玉北6-17-9","東京都","練馬区","豊玉北6丁目","17-9","","35.735972","139.649932","","","(03)3992-3322","","","","","1760012","","","月火水木金土","07:30","18:30","祝休日、年末年始(12/29～1/3)は休園。","","","","","","","","","","","","","","","","","","","","","",""
"131202","131202000111","練馬区","桜台第二保育園","サクラダイダイニホイクエン","","","1402","","","131202","0024003","東京都練馬区桜台3-39-17","東京都","練馬区","桜台3丁目","39-17","","35.746037","139.663203","","","(03)3993-5126","","","","","1760002","","","月火水木金土","07:30","18:30","祝休日、年末年始(12/29～1/3)は休園。","","","","","","","","","","","","","","","","","","","","","",""
"131202","131202000112","練馬区","桜台保育園","サクラダイホイクエン","","","1402","","","131202","0024005","東京都練馬区桜台5-41-12","東京都","練馬区","桜台5丁目","41-12","","35.744381","139.657311","","","(03)3993-6735","","","","","1760002","","","月火水木金土","07:30","18:30","祝休日、年末年始(12/29～1/3)は休園。","","","","","","","","","","","","","","","","","","","","","",""
"131202","131202000113","練馬区","練馬保育園","ネリマホイクエン","","","1402","","","131202","0028002","東京都練馬区練馬2-13-3","東京都","練馬区","練馬2丁目","13-3","","35.742203","139.651417","","","(03)3991-5133","","","","","1760001","","","月火水木金土","07:30","18:30","祝休日、年末年始(12/29～1/3)は休園。","","","","","","","","","","","","","","","","","","","","","",""
"131202","131202000114","練馬区","向山保育園","コウヤマホイクエン","","","1402","","","131202","0026001","東京都練馬区向山1-5-7","東京都","練馬区","向山1丁目","5-7","","35.737819","139.6422","","","(03)3970-6088","","","","","1760022","","","月火水木金土日","07:30","18:30","年末年始(12/29～1/3)は休園。","","","","","","","","","","","","","","","","","","","","","",""
"131202","131202000115","練馬区","貫井第二保育園","ヌクイダイニホイクエン","","","1402","","","131202","0030004","東京都練馬区貫井4-13-4","東京都","練馬区","貫井4丁目","13-4","","35.740989","139.631464","","","(03)3990-8291","","","","","1760021","","","月火水木金土","07:30","18:30","祝休日、年末年始(12/29～1/3)は休園。","","","","","","","","","","","","","","","","","","","","","",""
"131202","131202000116","練馬区","貫井保育園","ヌクイホイクエン","","","1402","","","131202","0030004","東京都練馬区貫井4-24-9","東京都","練馬区","貫井4丁目","24-9","","35.742203","139.627389","","","(03)3990-3320","","","","","1760021","","","月火水木金土","07:30","18:30","祝休日、年末年始(12/29～1/3)は休園。","","","","","","","","","","","","","","","","","","","","","",""
"131202","131202000117","練馬区","氷川台第二保育園","ヒカワダイダイニホイクエン","","","1402","","","131202","0006002","東京都練馬区氷川台2-16-14","東京都","練馬区","氷川台2丁目","16-14","","35.756795","139.667328","","","(03)3932-6227","","","","","1790084","","","月火水木金土","07:30","18:30","祝休日、年末年始(12/29～1/3)は休園。","","","","","","","","","","","","","","","","","","","","","",""
"131202","131202000118","練馬区","氷川台保育園","ヒカワダイホイクエン","","","1402","","","131202","0006004","東京都練馬区氷川台4-47-12","東京都","練馬区","氷川台4丁目","47-12","","35.752752","139.664045","","","(03)3931-2603","","","","","1790084","","","月火水木金土日","07:30","18:30","年末年始(12/29～1/3)は休園。","","","","","","","","","","","","","","","","","","","","","",""
"131202","131202000119","練馬区","平和台保育園","ヘイワダイホイクエン","","","1402","","","131202","0010002","東京都練馬区平和台2-18-14","東京都","練馬区","平和台2丁目","18-14","","35.760215","139.661506","","","(03)3932-1484","","","","","1790083","","","月火水木金土","07:30","18:30","祝休日、年末年始(12/29～1/3)は休園。","","","","","","","","","","","","","","","","","","","","","",""
"131202","131202000120","練馬区","早宮保育園","ハヤミヤホイクエン","","","1402","","","131202","0007003","東京都練馬区早宮3-13-31","東京都","練馬区","早宮3丁目","13-31","","35.750169","139.653199","","","(03)3993-3151","","","","","1790085","","","月火水木金土","07:30","18:30","祝休日、年末年始(12/29～1/3)は休園。","","","","","","","","","","","","","","","","","","","","","",""
"131202","131202000121","練馬区","春日町第三保育園","カスガチョウダイサンホイクエン","","","1402","","","131202","0008005","東京都練馬区春日町5-30-5","東京都","練馬区","春日町5丁目","30-5","","35.751111","139.638791","","","(03)3926-5461","","","","","1790074","","","月火水木金土","07:30","18:30","祝休日、年末年始(12/29～1/3)は休園。","","","","","","","","","","","","","","","","","","","","","",""
"131202","131202000122","練馬区","春日町第二保育園","カスガチョウダイニホイクエン","","","1402","","","131202","0008001","東京都練馬区春日町1-29-8","東京都","練馬区","春日町1丁目","29-8","","35.751901","139.646468","","","(03)3990-3325","","","","","1790074","","","月火水木金土","07:30","18:30","祝休日、年末年始(12/29～1/3)は休園。","","","","","","","","","","","","","","","","","","","","","",""
"131202","131202000123","練馬区","春日町保育園","カスガチョウホイクエン","","","1402","","","131202","0008005","東京都練馬区春日町5-17-10","東京都","練馬区","春日町5丁目","17-10","","35.746362","139.637653","","","(03)3990-1843","","","","","1790074","","","月火水木金土","07:30","18:30","祝休日、年末年始(12/29～1/3)は休園。","","","","","","","","","","","","","","","","","","","","","",""
"131202","131202000124","練馬区","高松保育園","タカマツホイクエン","","","1402","","","131202","0001003","東京都練馬区高松3-24-27","東京都","練馬区","高松3丁目","24-27","","35.750001","139.62516","","","(03)3999-7910","","","","","1790075","","","月火水木金土","07:30","18:30","祝休日、年末年始(12/29～1/3)は休園。","","","","","","","","","","","","","","","","","","","","","",""
"131202","131202000125","練馬区","北町第二保育園","キタマチダイニホイクエン","","","1402","","","131202","0042001","東京都練馬区北町1-19-17","東京都","練馬区","北町1丁目","19-17","","35.764253","139.66788","","","(03)3931-3318","","","","","1790081","","","月火水木金土","07:30","18:30","祝休日、年末年始(12/29～1/3)は休園。","","","","","","","","","","","","","","","","","","","","","",""
"131202","131202000126","練馬区","北町保育園","キタマチホイクエン","","","1402","","","131202","0042003","東京都練馬区北町3-3-14","東京都","練馬区","北町3丁目","3-14","","35.767424","139.655646","","","(03)3933-6497","","","","","1790081","","","月火水木金土","07:30","18:30","祝休日、年末年始(12/29～1/3)は休園。","","","","","","","","","","","","","","","","","","","","","",""
"131202","131202000127","練馬区","田柄第二保育園","タガラダイニホイクエン","","","1402","","","131202","0040002","東京都練馬区田柄2-6-22","東京都","練馬区","田柄2丁目","6-22","","35.763609","139.644761","","","(03)3938-8100","","","","","1790073","","","月火水木金土","07:30","18:30","祝休日、年末年始(12/29～1/3)は休園。","","","","","","","","","","","","","","","","","","","","","",""
"131202","131202000128","練馬区","田柄保育園","タガラホイクエン","","","1402","","","131202","0040004","東京都練馬区田柄4-36-4","東京都","練馬区","田柄4丁目","36-4","","35.76684","139.637742","","","(03)3939-4519","","","","","1790073","","","月火水木金土","07:30","18:30","祝休日、年末年始(12/29～1/3)は休園。","","","","","","","","","","","","","","","","","","","","","",""
"131202","131202000129","練馬区","光が丘保育園","ヒカリガオカホイクエン","","","1402","","","131202","0012001","東京都練馬区光が丘1-3-104","東京都","練馬区","光が丘1丁目","3-104","","35.76844","139.638888","","","(03)3975-7139","","","","","1790072","","","月火水木金土","07:30","18:30","祝休日、年末年始(12/29～1/3)は休園。","","","","","","","","","","","","","","","","","","","","","",""
"131202","131202000130","練馬区","光が丘第二保育園","ヒカリガオカダイニホイクエン","","","1402","","","131202","0012001","東京都練馬区光が丘1-6-3-101","東京都","練馬区","光が丘1丁目","6-3-101","","35.767809","139.635811","","","(03)3977-1311","","","","","1790072","","","月火水木金土","07:30","18:30","祝休日、年末年始(12/29～1/3)は休園。","","","","","","","","","","","","","","","","","","","","","",""
"131202","131202000131","練馬区","光が丘第九保育園","ヒカリガオカダイキュウホイクエン","","","1402","","","131202","0012002","東京都練馬区光が丘2-4-9","東京都","練馬区","光が丘2丁目","4-9","","35.763041","139.633101","","","(03)3976-9011","","","","","1790072","","","月火水木金土","07:30","18:30","祝休日、年末年始(12/29～1/3)は休園。","","","","","","","","","","","","","","","","","","","","","",""
"131202","131202000132","練馬区","光が丘第十一保育園","ヒカリガオカダイジュウイチホイクエン","","","1402","","","131202","0012002","東京都練馬区光が丘2-4-11-101","東京都","練馬区","光が丘2丁目","4-11-101","","35.763827","139.632768","","","(03)5997-6021","","","","","1790072","","","月火水木金土","07:30","18:30","祝休日、年末年始(12/29～1/3)は休園。","","","","","","","","","","","","","","","","","","","","","",""
"131202","131202000133","練馬区","光が丘第七保育園","ヒカリガオカダイナナホイクエン","","","1402","","","131202","0012002","東京都練馬区光が丘2-7-4-105","東京都","練馬区","光が丘2丁目","7-4-105","","35.761082","139.631372","","","(03)3976-7291","","","","","1790072","","","月火水木金土","07:30","18:30","祝休日、年末年始(12/29～1/3)は休園。","","","","","","","","","","","","","","","","","","","","","",""
"131202","131202000134","練馬区","光が丘第三保育園","ヒカリガオカダイサンホイクエン","","","1402","","","131202","0012003","東京都練馬区光が丘3-3-2-101","東京都","練馬区","光が丘3丁目","3-2-101","","35.755904","139.627125","","","(03)3976-4551","","","","","1790072","","","月火水木金土","07:30","18:30","祝休日、年末年始(12/29～1/3)は休園。","","","","","","","","","","","","","","","","","","","","","",""
"131202","131202000135","練馬区","光が丘第十保育園","ヒカリガオカダイジュウホイクエン","","","1402","","","131202","0012003","東京都練馬区光が丘3-7-3-101","東京都","練馬区","光が丘3丁目","7-3-101","","35.758109","139.630785","","","(03)5997-6011","","","","","1790072","","","月火水木金土","07:30","18:30","祝休日、年末年始(12/29～1/3)は休園。","","","","","","","","","","","","","","","","","","","","","",""
"131202","131202000136","練馬区","光が丘第八保育園","ヒカリガオカダイハチホイクエン","","","1402","","","131202","0012005","東京都練馬区光が丘5-2-3","東京都","練馬区","光が丘5丁目","2-3","","35.758995","139.627135","","","(03)3979-9215","","","","","1790072","","","月火水木金土日","07:30","18:30","年末年始(12/29～1/3)は休園。","","","","","","","","","","","","","","","","","","","","","",""
"131202","131202000137","練馬区","光が丘第四保育園","ヒカリガオカダイヨンホイクエン","","","1402","","","131202","0012007","東京都練馬区光が丘7-3-1-102","東京都","練馬区","光が丘7丁目","3-1-102","","35.756278","139.625741","","","(03)3976-1562","","","","","1790072","","","月火水木金土","07:30","18:30","祝休日、年末年始(12/29～1/3)は休園。","","","","","","","","","","","","","","","","","","","","","",""
"131202","131202000138","練馬区","光が丘第五保育園","ヒカリガオカダイゴホイクエン","","","1402","","","131202","0012007","東京都練馬区光が丘7-3-3-101","東京都","練馬区","光が丘7丁目","3-3-101","","35.755799","139.624851","","","(03)3976-6316","","","","","1790072","","","月火水木金土","07:30","18:30","祝休日、年末年始(12/29～1/3)は休園。","","","","","","","","","","","","","","","","","","","","","",""
"131202","131202000139","練馬区","光が丘第六保育園","ヒカリガオカダイロクホイクエン","","","1402","","","131202","0012007","東京都練馬区光が丘7-7-2-101","東京都","練馬区","光が丘7丁目","7-2-101","","35.758121","139.623336","","","(03)3976-6321","","","","","1790072","","","月火水木金土","07:30","18:30","祝休日、年末年始(12/29～1/3)は休園。","","","","","","","","","","","","","","","","","","","","","",""
"131202","131202000140","練馬区","旭町第二保育園","アサヒチョウダイニホイクエン","","","1402","","","131202","0015001","東京都練馬区旭町1-33-22-107","東京都","練馬区","旭町1丁目","33-22-107","","35.766227","139.624788","","","(03)3977-1611","","","","","1790071","","","月火水木金土","07:30","18:30","祝休日、年末年始(12/29～1/3)は休園。","","","","","","","","","","","","","","","","","","","","","",""
"131202","131202000141","練馬区","旭町保育園","アサヒチョウホイクエン","","","1402","","","131202","0015003","東京都練馬区旭町3-11-6","東京都","練馬区","旭町3丁目","11-6","","35.774293","139.625032","","","(03)3938-3680","","","","","1790071","","","月火水木金土","07:30","18:30","祝休日、年末年始(12/29～1/3)は休園。","","","","","","","","","","","","","","","","","","","","","",""
"131202","131202000142","練馬区","土支田保育園","ドシダホイクエン","","","1402","","","131202","0043002","東京都練馬区土支田2-32-8","東京都","練馬区","土支田2丁目","32-8","","35.763627","139.613624","","","(03)3925-4787","","","","","1790076","","","月火水木金土","07:30","18:30","祝休日、年末年始(12/29～1/3)は休園。","","","","","","","","","","","","","","","","","","","","","",""
"131202","131202000143","練馬区","富士見台こぶし保育園","フジミダイコブシホイクエン","","","1402","","","131202","0002003","東京都練馬区富士見台3-10-1","東京都","練馬区","富士見台3丁目","10-1","","35.738635","139.624377","","","(03)3926-1071","","","","","1770034","","","月火水木金土","07:30","18:30","祝休日、年末年始(12/29～1/3)は休園。","","","","","","","","","","","","","","","","","","","","","",""
"131202","131202000144","練馬区","南田中第二保育園","ミナミタナカダイニホイクエン","","","1402","","","131202","0003003","東京都練馬区南田中3-31-4","東京都","練馬区","南田中3丁目","31-4","","35.738967","139.617731","","","(03)3997-3568","","","","","1770035","","","月火水木金土","07:30","18:30","祝休日、年末年始(12/29～1/3)は休園。","","","","","","","","","","","","","","","","","","","","","",""
"131202","131202000145","練馬区","南田中保育園","ミナミタナカホイクエン","","","1402","","","131202","0003005","東京都練馬区南田中5-25-16","東京都","練馬区","南田中5丁目","25-16","","35.738923","139.613291","","","(03)3996-7800","","","","","1770035","","","月火水木金土","07:30","18:30","祝休日、年末年始(12/29～1/3)は休園。","","","","","","","","","","","","","","","","","","","","","",""
"131202","131202000147","練馬区","谷原保育園","ヤハラホイクエン","","","1402","","","131202","0005005","東京都練馬区谷原5-16-41","東京都","練馬区","谷原5丁目","16-41","","35.75051","139.610785","","","(03)3996-0020","","","","","1770032","","","月火水木金土","07:30","18:30","祝休日、年末年始(12/29～1/3)は休園。","","","","","","","","","","","","","","","","","","","","","",""
"131202","131202000148","練馬区","石神井町さくら保育園","シャクジイマチサクラホイクエン","","","1402","","","131202","0039007","東京都練馬区石神井町7-25-45","東京都","練馬区","石神井町7丁目","25-45","","35.744186","139.599347","","","(03)3997-0070","","","","","1770041","","","月火水木金土","07:30","18:30","祝休日、年末年始(12/29～1/3)は休園。","","","","","","","","","","","","","","","","","","","","","",""
"131202","131202000149","練馬区","石神井町つつじ保育園","シャクジイマチツツジホイクエン","","","1402","","","131202","0039008","東京都練馬区石神井町8-1-10","東京都","練馬区","石神井町8丁目","1-10","","35.74534","139.601673","","","(03)3997-8646","","","","","1770041","","","月火水木金土日","07:30","18:30","年末年始(12/29～1/3)は休園。","","","","","","","","","","","","","","","","","","","","","",""
"131202","131202000150","練馬区","石神井台保育園","シャクジイダイホイクエン","","","1402","","","131202","0038002","東京都練馬区石神井台2-18-13","東京都","練馬区","石神井台2丁目","18-13","","35.735696","139.589835","","","(03)3995-8271","","","","","1770045","","","月火水木金土","07:30","18:30","祝休日、年末年始(12/29～1/3)は休園。","","","","","","","","","","","","","","","","","","","","","",""
"131202","131202000151","練馬区","石神井台第二保育園","シャクジイダイダイニホイクエン","","","1402","","","131202","0038006","東京都練馬区石神井台6-2-10","東京都","練馬区","石神井台6丁目","2-10","","35.740159","139.586078","","","(03)3925-8301","","","","","1770045","","","月火水木金土","07:30","18:30","祝休日、年末年始(12/29～1/3)は休園。","","","","","","","","","","","","","","","","","","","","","",""
"131202","131202000152","練馬区","上石神井第二保育園","カミシャクジイダイニホイクエン","","","1402","","","131202","0034001","東京都練馬区上石神井1-5-3","東京都","練馬区","上石神井1丁目","5-3","","35.725647","139.592018","","","(03)3929-3247","","","","","1770044","","","月火水木金土日","07:30","18:30","年末年始(12/29～1/3)は休園。","","","","","","","","","","","","","","","","","","","","","",""
"131202","131202000153","練馬区","上石神井第三保育園","カミシャクジイダイサンホイクエン","","","1402","","","131202","0038004","東京都練馬区石神井台4-5-20","東京都","練馬区","石神井台4丁目","5-20","","35.731699","139.584644","","","(03)3928-1451","","","","","1770045","","","月火水木金土","07:30","18:30","祝休日、年末年始(12/29～1/3)は休園。","","","","","","","","","","","","","","","","","","","","","",""
"131202","131202000154","練馬区","上石神井保育園","カミシャクジイホイクエン","","","1402","","","131202","0034004","東京都練馬区上石神井4-21-3","東京都","練馬区","上石神井4丁目","21-3","","35.72992","139.587985","","","(03)3920-3567","","","","","1770044","","","月火水木金土","07:30","18:30","祝休日、年末年始(12/29～1/3)は休園。","","","","","","","","","","","","","","","","","","","","","",""
"131202","131202000155","練馬区","下石神井第三保育園","シモシャクジイダイサンホイクエン","","","1402","","","131202","0033006","東京都練馬区下石神井6-8-15","東京都","練馬区","下石神井6丁目","8-15","","35.733635","139.603646","","","(03)3904-3061","","","","","1770042","","","月火水木金土","07:30","18:30","祝休日、年末年始(12/29～1/3)は休園。","","","","","","","","","","","","","","","","","","","","","",""
"131202","131202000156","練馬区","関町保育園","セキチョウホイクエン","","","1402","","","131202","0031003","東京都練馬区関町南3-9-29","東京都","練馬区","関町南3丁目","9-29","","35.721209","139.581773","","","(03)3929-2600","","","","","1770053","","","月火水木金土","07:30","18:30","祝休日、年末年始(12/29～1/3)は休園。","","","","","","","","","","","","","","","","","","","","","",""
"131202","131202000157","練馬区","関町第二保育園","セキチョウダイニホイクエン","","","1402","","","131202","0037003","東京都練馬区関町北3-20-30","東京都","練馬区","関町北3丁目","20-30","","35.72557","139.570352","","","(03)3928-1487","","","","","1770051","","","月火水木金土","07:30","18:30","祝休日、年末年始(12/29～1/3)は休園。","","","","","","","","","","","","","","","","","","","","","",""
"131202","131202000158","練馬区","関町第三保育園","セキチョウダイサンホイクエン","","","1402","","","131202","0037005","東京都練馬区関町北5-4-12","東京都","練馬区","関町北5丁目","4-12","","35.732654","139.574676","","","(03)3929-3285","","","","","1770051","","","月火水木金土","07:30","18:30","祝休日、年末年始(12/29～1/3)は休園。","","","","","","","","","","","","","","","","","","","","","",""
"131202","131202000159","練馬区","東大泉保育園","ヒガシオオイズミホイクエン","","","1402","","","131202","0014003","東京都練馬区東大泉3-59-2","東京都","練馬区","東大泉3丁目","59-2","","35.755995","139.590718","","","(03)3924-0966","","","","","1780063","","","月火水木金土","07:30","18:30","祝休日、年末年始(12/29～1/3)は休園。","","","","","","","","","","","","","","","","","","","","","",""
"131202","131202000160","練馬区","東大泉第二保育園","ヒガシオオイズミダイニホイクエン","","","1402","","","131202","0014007","東京都練馬区東大泉7-20-1","東京都","練馬区","東大泉7丁目","20-1","","35.742605","139.577047","","","(03)3921-9126","","","","","1780063","","","月火水木金土","07:30","18:30","祝休日、年末年始(12/29～1/3)は休園。","","","","","","","","","","","","","","","","","","","","","",""
"131202","131202000161","練馬区","西大泉保育園","ニシオオイズミホイクエン","","","1402","","","131202","0016003","東京都練馬区西大泉3-21-16","東京都","練馬区","西大泉3丁目","21-16","","35.759532","139.578862","","","(03)3924-9500","","","","","1780065","","","月火水木金土","07:30","18:30","祝休日、年末年始(12/29～1/3)は休園。","","","","","","","","","","","","","","","","","","","","","",""
"131202","131202000162","練馬区","南大泉保育園","ミナミオオイズミホイクエン","","","1402","","","131202","0011005","東京都練馬区南大泉5-26-7","東京都","練馬区","南大泉5丁目","26-7","","35.751173","139.573121","","","(03)3921-4851","","","","","1780064","","","月火水木金土日","07:30","18:30","年末年始(12/29～1/3)は休園。","","","","","","","","","","","","","","","","","","","","","",""
"131202","131202000163","練馬区","北大泉保育園","キタオオイズミホイクエン","","","1402","","","131202","0044004","東京都練馬区大泉町4-15-15","東京都","練馬区","大泉町4丁目","15-15","","35.762925","139.600153","","","(03)3921-4852","","","","","1780062","","","月火水木金土","07:30","18:30","祝休日、年末年始(12/29～1/3)は休園。","","","","","","","","","","","","","","","","","","","","","",""
"131202","131202000164","練馬区","大泉学園保育園","オオイズミガクエンホイクエン","","","1402","","","131202","0045008","東京都練馬区大泉学園町8-9-5","東京都","練馬区","大泉学園町8丁目","9-5","","35.772631","139.592793","","","(03)3922-3811","","","","","1780061","","","月火水木金土","07:30","18:30","祝休日、年末年始(12/29～1/3)は休園。","","","","","","","","","","","","","","","","","","","","","",""
"131202","131202000165","練馬区","東大泉第三保育園","ヒガシオオイズミダイサンホイクエン","","","1402","","","131202","0014002","東京都練馬区東大泉2-42-5","東京都","練馬区","東大泉2丁目","42-5","","35.754233","139.592403","","","(03)3922-0550","","","","","1780063","","","月火水木金土日","07:30","18:30","年末年始(12/29～1/3)は休園。","","","","","","","","","","","","","","","","","","","","","",""
"131202","131202000166","練馬区","栄町児童館","サカエチョウジドウカン","","","1403","","","131202","0023000","東京都練馬区栄町40-7","東京都","練馬区","栄町","40-7","","35.739471","139.671034","","","(03)3994-3287","","","","","1760006","","","月火水木金土","10:00","18:00","土曜日、学校休業期間(夏休み・冬休み・春休み)、都民の日は9時から。祝休日、年末年始(12/29～1/3)は休館。","","","","","","","","","","","","","","","","","","","","","",""
"131202","131202000167","練馬区","中村児童館","ナカムラジドウカン","","","1403","","","131202","0025002","東京都練馬区中村2-25-3","東京都","練馬区","中村2丁目","25-3","","35.731781","139.642156","","","(03)3998-4890","","","","","1760024","","","月火水木金土","10:00","18:00","土曜日、学校休業期間(夏休み・冬休み・春休み)、都民の日は9時から。祝休日、年末年始(12/29～1/3)は休館。","","","","","","","","","","","","","","","","","","","","","",""
"131202","131202000168","練馬区","平和台児童館","ヘイワダイジドウカン","","","1403","","","131202","0010002","東京都練馬区平和台2-18-14","東京都","練馬区","平和台2丁目","18-14","","35.760076","139.661512","","","(03)3933-0297","","","","","1790083","","","月火水木金土日","10:00","19:00","小学生以下は18時まで。日曜日、祝日は9時～17時。年末年始(12/29～1/3)は休館。","","","","","","","","","","","","","","","","","","","","","",""
"131202","131202000169","練馬区","北町はるのひ児童館","キタマチハルノヒジドウカン","","","1403","","","131202","0042006","東京都練馬区北町6-35-7","東京都","練馬区","北町6丁目","35-7","","35.75722","139.649454","","","(03)3933-5100","","","","","1790081","","","月火水木金土","10:00","18:00","土曜日、学校休業期間(夏休み・冬休み・春休み)、都民の日は9時から。祝休日、年末年始(12/29～1/3)は休館。","","","","","","","","","","","","","","","","","","","","","",""
"131202","131202000170","練馬区","北町児童館","キタマチジドウカン","","","1403","","","131202","0042001","東京都練馬区北町1-19-17","東京都","練馬区","北町1丁目","19-17","","35.764116","139.667875","","","(03)3931-5481","","","","","1790081","","","月火水木金土","10:00","18:00","土曜日、学校休業期間(夏休み・冬休み・春休み)、都民の日は9時から。祝休日、年末年始(12/29～1/3)は休館。","","","","","","","","","","","","","","","","","","","","","",""
"131202","131202000171","練馬区","光が丘児童館","ヒカリガオカジドウカン","","","1403","","","131202","0012001","東京都練馬区光が丘1-3-1","東京都","練馬区","光が丘1丁目","3-1","","35.76775","139.6391","","","(03)3975-7137","","","","","1790072","","","月火水木金土日","10:00","19:00","小学生以下は18時まで。日曜日、祝日は9時～17時。年末年始(12/29～1/3)は休館。","","","","","","","","","","","","","","","","","","","","","",""
"131202","131202000172","練馬区","光が丘なかよし児童館","ヒカリガオカナカヨシジドウカン","","","1403","","","131202","0012002","東京都練馬区光が丘2-9-6","東京都","練馬区","光が丘2丁目","9-6","","35.759533","139.630003","","","(03)5997-7720","","","","","1790072","","","月火水木金土","10:00","18:00","土曜日、学校休業期間(夏休み・冬休み・春休み)、都民の日は9時から。祝休日、年末年始(12/29～1/3)は休館。","","","","","","","","","","","","","","","","","","","","","",""
"131202","131202000173","練馬区","土支田児童館","ドシダジドウカン","","","1403","","","131202","0043002","東京都練馬区土支田2-32-8","東京都","練馬区","土支田2丁目","32-8","","35.763519","139.613621","","","(03)3925-4784","","","","","1790076","","","月火水木金土","10:00","18:00","土曜日、学校休業期間(夏休み・冬休み・春休み)、都民の日は9時から。祝休日、年末年始(12/29～1/3)は休館。","","","","","","","","","","","","","","","","","","","","","",""
"131202","131202000174","練馬区","南田中児童館","ミナミタナカジドウカン","","","1403","","","131202","0003005","東京都練馬区南田中5-15-25","東京都","練馬区","南田中5丁目","15-25","","35.7379","139.611507","","","(03)3995-5534","","","","","1770035","","","月火水木金土","10:00","18:00","土曜日、学校休業期間(夏休み・冬休み・春休み)、都民の日は9時から。祝休日、年末年始(12/29～1/3)は休館。","","","","","","","","","","","","","","","","","","","","","",""
"131202","131202000175","練馬区","三原台児童館","ミハラダイジドウカン","","","1403","","","131202","0013002","東京都練馬区三原台2-11-29","東京都","練馬区","三原台2丁目","11-29","","35.757197","139.606342","","","(03)3924-8796","","","","","1770031","","","月火水木金土","10:00","18:00","土曜日、学校休業期間(夏休み・冬休み・春休み)、都民の日は9時から。祝休日、年末年始(12/29～1/3)は休館。","","","","","","","","","","","","","","","","","","","","","",""
"131202","131202000176","練馬区","石神井児童館","シャクジイジドウカン","","","1403","","","131202","0039007","東京都練馬区石神井町7-28-21","東京都","練馬区","石神井町7丁目","28-21","","35.744661","139.598139","","","(03)3996-3800","","","","","1770041","","","月火水木金土","10:00","18:00","土曜日、学校休業期間(夏休み・冬休み・春休み)、都民の日は9時から。祝休日、年末年始(12/29～1/3)は休館。","","","","","","","","","","","","","","","","","","","","","",""
"131202","131202000177","練馬区","石神井台児童館","シャクジイダイジドウカン","","","1403","","","131202","0038002","東京都練馬区石神井台2-18-13","東京都","練馬区","石神井台2丁目","18-13","","35.735701","139.589646","","","(03)3995-8267","","","","","1770045","","","月火水木金土","10:00","18:00","土曜日、学校休業期間(夏休み・冬休み・春休み)、都民の日は9時から。祝休日、年末年始(12/29～1/3)は休館。","","","","","","","","","","","","","","","","","","","","","",""
"131202","131202000178","練馬区","上石神井児童館","カミシャクジイジドウカン","","","1403","","","131202","0034001","東京都練馬区上石神井1-5-2","東京都","練馬区","上石神井1丁目","5-2","","35.725645","139.592414","","","(03)3929-0999","","","","","1770044","","","月火水木金土日","10:00","19:00","小学生以下は18時まで。日曜日、祝日は9時～17時。年末年始(12/29～1/3)は休館。","","","","","","","","","","","","","","","","","","","","","",""
"131202","131202000179","練馬区","関町児童館","セキマチジドウカン","","","1403","","","131202","0031004","東京都練馬区関町南4-15-7-102","東京都","練馬区","関町南4丁目","15-7-102","","35.722686","139.572256","","","(03)3920-1601","","","","","1770053","","","月火水木金土","10:00","18:00","土曜日、学校休業期間(夏休み・冬休み・春休み)、都民の日は9時から。祝休日、年末年始(12/29～1/3)は休館。","","","","","","","","","","","","","","","","","","","","","",""
"131202","131202000180","練馬区","東大泉児童館","ヒガシオオイズミジドウカン","","","1403","","","131202","0014007","東京都練馬区東大泉7-20-1","東京都","練馬区","東大泉7丁目","20-1","","35.74246","139.577048","","","(03)3921-9128","","","","","1780063","","","月火水木金土日","10:00","19:00","小学生以下は18時まで。日曜日、祝日は9時～17時。年末年始(12/29～1/3)は休館。","","","","","","","","","","","","","","","","","","","","","",""
"131202","131202000181","練馬区","西大泉児童館","ニシオオイズミジドウカン","","","1403","","","131202","0016003","東京都練馬区西大泉3-21-16","東京都","練馬区","西大泉3丁目","21-16","","35.75967","139.578858","","","(03)3924-9537","","","","","1780065","","","月火水木金土","10:00","18:00","土曜日、学校休業期間(夏休み・冬休み・春休み)、都民の日は9時から。祝休日、年末年始(12/29～1/3)は休館。","","","","","","","","","","","","","","","","","","","","","",""
"131202","131202000182","練馬区","北大泉児童館","キタオオイズミジドウカン","","","1403","","","131202","0044004","東京都練馬区大泉町4-15-15","東京都","練馬区","大泉町4丁目","15-15","","35.763061","139.600153","","","(03)3921-4856","","","","","1780062","","","月火水木金土","10:00","18:00","土曜日、学校休業期間(夏休み・冬休み・春休み)、都民の日は9時から。祝休日、年末年始(12/29～1/3)は休館。","","","","","","","","","","","","","","","","","","","","","",""
"131202","131202000183","練馬区","開進第四小ねりっこ学童クラブ","カイシンダイヨンショウネリッコガクドウクラブ","","","1404","","","131202","0009002","東京都練馬区羽沢2-33-1","東京都","練馬区","羽沢2丁目","33-1","","35.748238","139.672096","","","(03)3994-3008","","","","","1760003","","","月火水木金土","","18:00","土曜日は9時～17時、学校休業日は9時～18時。","","","","","","","","","","","","","","","","","","","","","",""
"131202","131202000184","練馬区","豊玉第二小ねりっこ学童クラブ","トヨタマダイニショウネリッコガクドウクラブ","","","1404","","","131202","0022002","東京都練馬区豊玉上2-16-1","東京都","練馬区","豊玉上2丁目","16-1","","35.737545","139.662467","","","(03)3994-6764","","","","","1760011","","","月火水木金土","","18:00","土曜日は9時～17時、学校休業日は9時～18時。","","","","","","","","","","","","","","","","","","","","","",""
"131202","131202000185","練馬区","豊玉南ねりっこ小学童クラブ","トヨタマミナミショウネリッコガクドウクラブ","","","1404","","","131202","0017002","東京都練馬区豊玉南2-14-1","東京都","練馬区","豊玉南2丁目","14-1","","35.727752","139.656883","","","(03)3993-0044","","","","","1760014","","","月火水木金土","","18:00","土曜日は9時～17時、学校休業日は9時～18時。","","","","","","","","","","","","","","","","","","","","","",""
"131202","131202000186","練馬区","豊玉学童クラブ","トヨタマガクドウクラブ","","","1404","","","131202","0017003","東京都練馬区豊玉南3-32-11","東京都","練馬区","豊玉南3丁目","32-11","","35.729443","139.649248","","","(03)3991-2580","","","","","1760014","","","月火水木金土","","18:00","土曜日は9時～17時、学校休業日は9時～18時。","","","","","","","","","","","","","","","","","","","","","",""
"131202","131202000187","練馬区","開進第二小ねりっこ学童クラブ","カイシンダイニショウネリッコガクドウクラブ","","","1404","","","131202","0024005","東京都練馬区桜台5-10-5","東京都","練馬区","桜台5丁目","10-5","","35.742071","139.657956","","","(03)3994-6814","","","","","1760002","","","月火水木金土","","18:00","土曜日は9時～17時、学校休業日は9時～18時。","","","","","","","","","","","","","","","","","","","","","",""
"131202","131202000188","練馬区","開進第三小ねりっこ学童クラブ","カイシンダイサンショウネリッコガクドウクラブ","","","1404","","","131202","0024002","東京都練馬区桜台2-18-1","東京都","練馬区","桜台2丁目","18-1","","35.742852","139.666281","","","(03)3993-2653","","","","","1760002","","","月火水木金土","","18:00","土曜日は9時～17時、学校休業日は9時～18時。","","","","","","","","","","","","","","","","","","","","","",""
"131202","131202000189","練馬区","練馬第二小ねりっこ学童クラブ","ネリマダイニショウネリッコガクドウクラブ","","","1404","","","131202","0030002","東京都練馬区貫井2-31-13","東京都","練馬区","貫井2丁目","31-13","","35.741611","139.633621","","","(03)3999-1190","","","","","1760021","","","月火水木金土","","18:00","土曜日は9時～17時、学校休業日は9時～18時。","","","","","","","","","","","","","","","","","","","","","",""
"131202","131202000190","練馬区","仲町小ねりっこ学童クラブ","ナカマチショウネリッコガクドウクラブ","","","1404","","","131202","0006002","東京都練馬区氷川台2-18-24","東京都","練馬区","氷川台2丁目","18-24","","35.757497","139.667485","","","(03)3550-9539","","","","","1790084","","","月火水木金土","","18:00","土曜日は9時～17時、学校休業日は9時～18時。","","","","","","","","","","","","","","","","","","","","","",""
"131202","131202000191","練馬区","開進第一小ねりっこ学童クラブ","カイシンダイイチショウネリッコガクドウクラブ","","","1404","","","131202","0007002","東京都練馬区早宮2-1-31","東京都","練馬区","早宮2丁目","1-31","","35.755041","139.657972","","","(03)3931-5482","","","","","1790085","","","月火水木金土","","18:00","土曜日は9時～17時、学校休業日は9時～18時。","","","","","","","","","","","","","","","","","","","","","",""
"131202","131202000192","練馬区","早宮さくら学童クラブ","ハヤミヤサクラガクドウクラブ","","","1404","","","131202","0007003","東京都練馬区早宮3-13-31","東京都","練馬区","早宮3丁目","13-31","","35.750305","139.653198","","","(03)3993-3153","","","","","1790085","","","月火水木金土","","18:00","土曜日は9時～17時、学校休業日は9時～18時。","","","","","","","","","","","","","","","","","","","","","",""
"131202","131202000193","練馬区","練馬東小ねりっこ学童クラブ","ネリマヒガシショウネリッコガクドウクラブ","","","1404","","","131202","0008001","東京都練馬区春日町1-30-11","東京都","練馬区","春日町1丁目","30-11","","35.752522","139.648267","","","(03)3970-0820","","","","","1790074","","","月火水木金土","","18:00","土曜日は9時～17時、学校休業日は9時～18時。","","","","","","","","","","","","","","","","","","","","","",""
"131202","131202000194","練馬区","練馬小ねりっこ学童クラブ","ネリマショウネリッコガクドウクラブ","","","1404","","","131202","0008006","東京都練馬区春日町6-11-36","東京都","練馬区","春日町6丁目","11-36","","35.751783","139.636187","","","(03)3970-8654","","","","","1790074","","","月火水木金土","","18:00","土曜日は9時～17時、学校休業日は9時～18時。","","","","","","","","","","","","","","","","","","","","","",""
"131202","131202000195","練馬区","北町小ねりっこ学童クラブ","キタマチショウネリッコガクドウクラブ","","","1404","","","131202","0042001","東京都練馬区北町1-14-11","東京都","練馬区","北町1丁目","14-11","","35.765314","139.664505","","","(03)3550-8057","","","","","1790081","","","月火水木金土","","18:00","土曜日は9時～17時、学校休業日は9時～18時。","","","","","","","","","","","","","","","","","","","","","",""
"131202","131202000196","練馬区","北町西小ねりっこ学童クラブ","キタマチニシショウネリッコガクドウクラブ","","","1404","","","131202","0042007","東京都練馬区北町7-3-8","東京都","練馬区","北町7丁目","3-8","","35.760952","139.654097","","","(03)3931-5148","","","","","1790081","","","月火水木金土","","18:00","土曜日は9時～17時、学校休業日は9時～18時。","","","","","","","","","","","","","","","","","","","","","",""
"131202","131202000197","練馬区","田柄小ねりっこ学童クラブ","タガラショウネリッコガクドウクラブ","","","1404","","","131202","0040002","東京都練馬区田柄2-19-34","東京都","練馬区","田柄2丁目","19-34","","35.765291","139.643543","","","(03)3975-5436","","","","","1790073","","","月火水木金土","","18:00","土曜日は9時～17時、学校休業日は9時～18時。","","","","","","","","","","","","","","","","","","","","","",""
"131202","131202000200","練馬区","光が丘どんぐり学童クラブ","ヒカリガオカドングリガクドウクラブ","","","1404","","","131202","0012003","東京都練馬区光が丘3-8-12","東京都","練馬区","光が丘3丁目","8-12","","35.757227","139.628496","","","(03)3939-8568","","","","","1790072","","","月火水木金土","","18:00","土曜日は9時～17時、学校休業日は9時～18時。","","","","","","","","","","","","","","","","","","","","","",""
"131202","131202000201","練馬区","光が丘すみれ学童クラブ","ヒカリガオカスミレガクドウクラブ","","","1404","","","131202","0012005","東京都練馬区光が丘5-2-5-104","東京都","練馬区","光が丘5丁目","2-5-104","","35.759837","139.627274","","","(03)3976-8231","","","","","1790072","","","月火水木金土","","18:00","土曜日は9時～17時、学校休業日は9時～18時。","","","","","","","","","","","","","","","","","","","","","",""
"131202","131202000204","練馬区","旭町小ねりっこ学童クラブ","アサヒチョウショウネリッコガクドウクラブ","","","1404","","","131202","0015002","東京都練馬区旭町2-29-1","東京都","練馬区","旭町2丁目","29-1","","35.773348","139.62732","","","(03)3975-5438","","","","","1790071","","","月火水木金土","","18:00","土曜日は9時～17時、学校休業日は9時～18時。","","","","","","","","","","","","","","","","","","","","","",""
"131202","131202000205","練馬区","富士見台小ねりっこ学童クラブ","フジミダイショウネリッコガクドウクラブ","","","1404","","","131202","0002004","東京都練馬区富士見台4-16-10","東京都","練馬区","富士見台4丁目","16-10","","35.744162","139.622842","","","(03)3999-5355","","","","","1770034","","","月火水木金土","","18:00","土曜日は9時～17時、学校休業日は9時～18時。","","","","","","","","","","","","","","","","","","","","","",""
"131202","131202000206","練馬区","南が丘小ねりっこ学童クラブ","ミナミガオカショウネリッコガクドウクラブ","","","1404","","","131202","0003002","東京都練馬区南田中2-13-1","東京都","練馬区","南田中2丁目","13-1","","35.734114","139.616989","","","(03)3995-7138","","","","","1770035","","","月火水木金土","","18:00","土曜日は9時～17時、学校休業日は9時～18時。","","","","","","","","","","","","","","","","","","","","","",""
"131202","131202000207","練馬区","石神井東小ねりっこ学童クラブ","シャクジイヒガシショウネリッコガクドウクラブ","","","1404","","","131202","0003003","東京都練馬区南田中3-9-1","東京都","練馬区","南田中3丁目","9-1","","35.736799","139.619715","","","(03)3995-6561","","","","","1770035","","","月火水木金土","","18:00","土曜日は9時～17時、学校休業日は9時～18時。","","","","","","","","","","","","","","","","","","","","","",""
"131202","131202000208","練馬区","谷原小ねりっこ学童クラブ","ヤハラショウネリッコガクドウクラブ","","","1404","","","131202","0005002","東京都練馬区谷原2-9-26","東京都","練馬区","谷原2丁目","9-26","","35.750515","139.613557","","","(03)3904-2605","","","","","1770032","","","月火水木金土","","18:00","土曜日は9時～17時、学校休業日は9時～18時。","","","","","","","","","","","","","","","","","","","","","",""
"131202","131202000209","練馬区","北原小ねりっこ学童クラブ","キタハラショウネリッコガクドウクラブ","","","1404","","","131202","0005004","東京都練馬区谷原4-9-1","東京都","練馬区","谷原4丁目","9-1","","35.75551","139.61425","","","(03)3904-5739","","","","","1770032","","","月火水木金土","","18:00","土曜日は9時～17時、学校休業日は9時～18時。","","","","","","","","","","","","","","","","","","","","","",""
"131202","131202000210","練馬区","泉新小ねりっこ学童クラブ","センシンショウネリッコガクドウクラブ","","","1404","","","131202","0013003","東京都練馬区三原台3-18-30","東京都","練馬区","三原台3丁目","18-30","","35.753797","139.601705","","","(03)5387-0775","","","","","1770031","","","月火水木金土","","18:00","土曜日は9時～17時、学校休業日は9時～18時。","","","","","","","","","","","","","","","","","","","","","",""
"131202","131202000211","練馬区","石神井町学童クラブ","シャクジイマチガクドウクラブ","","","1404","","","131202","0039008","東京都練馬区石神井町8-1-10","東京都","練馬区","石神井町8丁目","1-10","","35.745341","139.601461","","","(03)3995-8424","","","","","1770041","","","月火水木金土","","18:00","土曜日は9時～17時、学校休業日は9時～18時。","","","","","","","","","","","","","","","","","","","","","",""
"131202","131202000212","練馬区","石神井小ねりっこ学童クラブ","シャクジイショウネリッコガクドウクラブ","","","1404","","","131202","0038001","東京都練馬区石神井台1-1-25","東京都","練馬区","石神井台1丁目","1-25","","35.735413","139.599763","","","(03)5393-1909","","","","","1770045","","","月火水木金土","","18:00","土曜日は9時～17時、学校休業日は9時～18時。","","","","","","","","","","","","","","","","","","","","","",""
"131202","131202000213","練馬区","石神井台小ねりっこ学童クラブ","シャクジイダイショウネリッコガクドウクラブ","","","1404","","","131202","0038008","東京都練馬区石神井台8-6-33","東京都","練馬区","石神井台8丁目","6-33","","35.734503","139.581459","","","(03)3929-4926","","","","","1770045","","","月火水木金土","","18:00","土曜日は9時～17時、学校休業日は9時～18時。","","","","","","","","","","","","","","","","","","","","","",""
"131202","131202000215","練馬区","上石神井小ねりっこ学童クラブ","カミシャクジイショウネリッコガクドウクラブ","","","1404","","","131202","0034004","東京都練馬区上石神井4-10-4","東京都","練馬区","上石神井4丁目","10-4","","35.727097","139.58897","","","(03)3928-4640","","","","","1770044","","","月火水木金土","","18:00","土曜日は9時～17時、学校休業日は9時～18時。","","","","","","","","","","","","","","","","","","","","","",""
"131202","131202000216","練馬区","大泉東小ねりっこ学童クラブ","オオイズミヒガシショウネリッコガクドウクラブ","","","1404","","","131202","0014001","東京都練馬区東大泉1-22-1","東京都","練馬区","東大泉1丁目","22-1","","35.748126","139.591124","","","(03)3923-9214","","","","","1780063","","","月火水木金土","","18:00","土曜日は9時～17時、学校休業日は9時～18時。","","","","","","","","","","","","","","","","","","","","","",""
"131202","131202000217","練馬区","大泉小ねりっこ学童クラブ","オオイズミショウネリッコガクドウクラブ","","","1404","","","131202","0014004","東京都練馬区東大泉4-25-36","東京都","練馬区","東大泉4丁目","25-36","","35.751622","139.584188","","","(03)3921-3639","","","","","1780063","","","月火水木金土","","18:00","土曜日は9時～17時、学校休業日は9時～18時。","","","","","","","","","","","","","","","","","","","","","",""
"131202","131202000218","練馬区","大泉西小ねりっこ学童クラブ","オオイズミニシショウネリッコガクドウクラブ","","","1404","","","131202","0016004","東京都練馬区西大泉4-25-2","東京都","練馬区","西大泉4丁目","25-2","","35.764971","139.572497","","","(03)3925-8755","","","","","1780065","","","月火水木金土","","18:00","土曜日は9時～17時、学校休業日は9時～18時。","","","","","","","","","","","","","","","","","","","","","",""
"131202","131202000219","練馬区","大泉第六小ねりっこ学童クラブ","オオイズミダイロクショウネリッコガクドウクラブ","","","1404","","","131202","0011005","東京都練馬区南大泉5-25-29","東京都","練馬区","南大泉5丁目","25-29","","35.751198","139.572174","","","(03)3978-0326","","","","","1780064","","","月火水木金土","","18:00","土曜日は9時～17時、学校休業日は9時～18時。","","","","","","","","","","","","","","","","","","","","","",""
"131202","131202000220","練馬区","大泉第三小ねりっこ学童クラブ","オオイズミダイサンショウネリッコガクドウクラブ","","","1404","","","131202","0045003","東京都練馬区大泉学園町3-22-2","東京都","練馬区","大泉学園町3丁目","22-2","","35.763816","139.579255","","","(03)3921-7937","","","","","1780061","","","月火水木金土","","18:00","土曜日は9時～17時、学校休業日は9時～18時。","","","","","","","","","","","","","","","","","","","","","",""
"131202","131202000221","練馬区","大泉学園緑小ねりっこ学童クラブ","オオイズミガクエンミドリショウネリッコガクドウクラブ","","","1404","","","131202","0045005","東京都練馬区大泉学園町5-11-37","東京都","練馬区","大泉学園町5丁目","11-37","","35.766213","139.585949","","","(03)3922-8662","","","","","1780061","","","月火水木金土","","18:00","土曜日は9時～17時、学校休業日は9時～18時。","","","","","","","","","","","","","","","","","","","","","",""
"131202","131202000222","練馬区","早宮小ねりっこ学童クラブ","ハヤミヤショウネリッコガクドウクラブ","","","1404","","","131202","0007004","東京都練馬区早宮4-10-17","東京都","練馬区","早宮4丁目","10-17","","35.752098","139.650693","","","(03)5999-9531","","","","","1790085","","","月火水木金土","","18:00","土曜日は9時～17時、学校休業日は9時～18時。","","","","","","","","","","","","","","","","","","","","","",""
"131202","131202000223","練馬区","向山小ねりっこ学童クラブ","コウヤマショウネリッコガクドウクラブ","","","1404","","","131202","0026002","東京都練馬区向山2-14-11","東京都","練馬区","向山2丁目","14-11","","35.740129","139.641118","","","(03)3926-0958","","","","","1760022","","","月火水木金土","","18:00","土曜日は9時～17時、学校休業日は9時～18時。","","","","","","","","","","","","","","","","","","","","","",""
"131202","131202000224","練馬区","中村小ねりっこ学童クラブ","ナカムラショウネリッコガクドウクラブ","","","1404","","","131202","0025002","東京都練馬区中村2-8-1","東京都","練馬区","中村2丁目","8-1","","35.730536","139.644375","","","(03)3577-0530","","","","","1760024","","","月火水木金土","","18:00","土曜日は9時～17時、学校休業日は9時～18時。","","","","","","","","","","","","","","","","","","","","","",""
"131202","131202000225","練馬区","八坂小ねりっこ学童クラブ","ヤサカショウネリッコガクドウクラブ","","","1404","","","131202","0043004","東京都練馬区土支田4-47-15","東京都","練馬区","土支田4丁目","47-15","","35.768636","139.612269","","","(03)5387-0712","","","","","1790076","","","月火水木金土","","18:00","土曜日は9時～17時、学校休業日は9時～18時。","","","","","","","","","","","","","","","","","","","","","",""
"131202","131202000226","練馬区","谷原あおぞら学童クラブ","ヤハラアオゾラガクドウクラブ","","","1404","","","131202","0005005","東京都練馬区谷原5-6-5","東京都","練馬区","谷原5丁目","6-5","","35.751199","139.613081","","","(03)3996-9500","","","","","1770032","","","月火水木金土","","18:00","土曜日は9時～17時、学校休業日は9時～18時。","","","","","","","","","","","","","","","","","","","","","",""
"131202","131202000227","練馬区","石神井西小ねりっこ学童クラブ","シャクジイニシショウネリッコガクドウクラブ","","","1404","","","131202","0037001","東京都練馬区関町北1-1-5","東京都","練馬区","関町北1丁目","1-5","","35.723835","139.579569","","","(03)3594-8020","","","","","1770051","","","月火水木金土","","18:00","土曜日は9時～17時、学校休業日は9時～18時。","","","","","","","","","","","","","","","","","","","","","",""
"131202","131202000228","練馬区","豊玉小ねりっこ学童クラブ","トヨタマショウネリッコガクドウクラブ","","","1404","","","131202","0020004","東京都練馬区豊玉中4-2-20","東京都","練馬区","豊玉中4丁目","2-20","","35.732245","139.651983","","","(03)3993-6200","","","","","1760013","","","月火水木金土","","18:00","土曜日は9時～17時、学校休業日は9時～18時。","","","","","","","","","","","","","","","","","","","","","",""
"131202","131202000229","練馬区","大泉第ニ小ねりっこ学童クラブ","オオイズミダイニショウネリッコガクドウクラブ","","","1404","","","131202","0011004","東京都練馬区南大泉4-29-11","東京都","練馬区","南大泉4丁目","29-11","","35.744359","139.573772","","","(03)3924-8771","","","","","1780064","","","月火水木金土","","18:00","土曜日は9時～17時、学校休業日は9時～18時。","","","","","","","","","","","","","","","","","","","","","",""
"131202","131202000230","練馬区","中村西小ねりっこ学童クラブ","ナカムラニシショウネリッコガクドウクラブ","","","1404","","","131202","0027004","東京都練馬区中村北4-17-1","東京都","練馬区","中村北4丁目","17-1","","35.733651","139.634806","","","(03)3990-2977","","","","","1760023","","","月火水木金土","","18:00","土曜日は9時～17時、学校休業日は9時～18時。","","","","","","","","","","","","","","","","","","","","","",""
"131202","131202000231","練馬区","春日小ねりっこ学童クラブ","カスガショウネリッコガクドウクラブ","","","1404","","","131202","0008005","東京都練馬区春日町5-12-1","東京都","練馬区","春日町5丁目","12-1","","35.746625","139.639362","","","(03)3926-7414","","","","","1790074","","","月火水木金土","","18:00","土曜日は9時～17時、学校休業日は9時～18時。","","","","","","","","","","","","","","","","","","","","","",""
"131202","131202000232","練馬区","大泉北小ねりっこ学童クラブ","オオイズミキタショウネリッコガクドウクラブ","","","1404","","","131202","0044004","東京都練馬区大泉町4-28-22","東京都","練馬区","大泉町4丁目","28-22","","35.76217","139.595283","","","(03)3925-2690","","","","","1780062","","","月火水木金土","","18:00","土曜日は9時～17時、学校休業日は9時～18時。","","","","","","","","","","","","","","","","","","","","","",""
"131202","131202000233","練馬区","高松小ねりっこ学童クラブ","タカマツショウネリッコガクドウクラブ","","","1404","","","131202","0001003","東京都練馬区高松3-16-1","東京都","練馬区","高松3丁目","16-1","","35.749805","139.627395","","","(03)3998-1020","","","","","1790075","","","月火水木金土","","18:00","土曜日は9時～17時、学校休業日は9時～18時。","","","","","","","","","","","","","","","","","","","","","",""
"131202","131202000234","練馬区","田柄第二小ねりっこ学童クラブ","タガラダイニショウネリッコガクドウクラブ","","","1404","","","131202","0040001","東京都練馬区田柄1-5-27","東京都","練馬区","田柄1丁目","5-27","","35.758447","139.643126","","","(03)5997-0023","","","","","1790073","","","月火水木金土","","18:00","土曜日は9時～17時、学校休業日は9時～18時。","","","","","","","","","","","","","","","","","","","","","",""
"131202","131202000235","練馬区","関町小ねりっこ学童クラブ","セキマチショウネリッコガクドウクラブ","","","1404","","","131202","0037003","東京都練馬区関町北3-23-34","東京都","練馬区","関町北3丁目","23-34","","35.724654","139.5724","","","(03)3929-0311","","","","","1770051","","","月火水木金土","","18:00","土曜日は9時～17時、学校休業日は9時～18時。","","","","","","","","","","","","","","","","","","","","","",""
"131202","131202000236","練馬区","大泉学園小ねりっこ学童クラブ","オオイズミガクエンショウネリッコガクドウクラブ","","","1404","","","131202","0045004","東京都練馬区大泉学園町4-7-8","東京都","練馬区","大泉学園町4丁目","7-8","","35.765322","139.593008","","","(03)3867-3561","","","","","1780061","","","月火水木金土","","18:00","土曜日は9時～17時、学校休業日は9時～18時。","","","","","","","","","","","","","","","","","","","","","",""
"131202","131202000237","練馬区","立野小ねりっこ学童クラブ","タテノショウネリッコガクドウクラブ","","","1404","","","131202","0035000","東京都練馬区立野町17-6","東京都","練馬区","立野町","17-6","","35.717677","139.580882","","","(03)3920-2154","","","","","1770054","","","月火水木金土","","18:00","土曜日は9時～17時、学校休業日は9時～18時。","","","","","","","","","","","","","","","","","","","","","",""
"131202","131202000238","練馬区","光が丘第八小ねりっこ学童クラブ","ヒカリガオカダイハチショウネリッコガクドウクラブ","","","1404","","","131202","0012001","東京都練馬区光が丘1-4-1","東京都","練馬区","光が丘1丁目","4-1","","35.768502","139.637093","","","(03)3930-1223","","","","","1790072","","","月火水木金土","","18:00","土曜日は9時～17時、学校休業日は9時～18時。","","","","","","","","","","","","","","","","","","","","","",""
"131202","131202000239","練馬区","栄町児童館学童クラブ","サカエチョウジドウカンガクドウクラブ","","","1404","","","131202","0023000","東京都練馬区栄町40-7","東京都","練馬区","栄町","40-7","","35.739466","139.671202","","","(03)3994-3287","","","","","1760006","","","月火水木金土","","18:00","土曜日は9時～17時、学校休業日は9時～18時。","","","","","","","","","","","","","","","","","","","","","",""
"131202","131202000240","練馬区","中村児童館学童クラブ","ナカムラジドウカンガクドウクラブ","","","1404","","","131202","0025002","東京都練馬区中村2-25-3","東京都","練馬区","中村2丁目","25-3","","35.731702","139.642331","","","(03)3998-4890","","","","","1760024","","","月火水木金土","","18:00","土曜日は9時～17時、学校休業日は9時～18時。","","","","","","","","","","","","","","","","","","","","","",""
"131202","131202000241","練馬区","北町はるのひ児童館学童クラブ","キタマチハルノヒジドウカンガクドウクラブ","","","1404","","","131202","0042006","東京都練馬区北町6-35-7","東京都","練馬区","北町6丁目","35-7","","35.75722","139.649454","","","(03)3933-5100","","","","","1790081","","","月火水木金土","","18:00","土曜日は9時～17時、学校休業日は9時～18時。","","","","","","","","","","","","","","","","","","","","","",""
"131202","131202000242","練馬区","北町児童館学童クラブ","キタマチジドウカンガクドウクラブ","","","1404","","","131202","0042001","東京都練馬区北町1-19-17","東京都","練馬区","北町1丁目","19-17","","35.763987","139.667876","","","(03)3931-5481","","","","","1790081","","","月火水木金土","","18:00","土曜日は9時～17時、学校休業日は9時～18時。","","","","","","","","","","","","","","","","","","","","","",""
"131202","131202000243","練馬区","土支田児童館学童クラブ","ドシダジドウカンガクドウクラブ","","","1404","","","131202","0043002","東京都練馬区土支田2-32-8","東京都","練馬区","土支田2丁目","32-8","","35.763512","139.61345","","","(03)3925-4784","","","","","1790076","","","月火水木金土","","18:00","土曜日は9時～17時、学校休業日は9時～18時。","","","","","","","","","","","","","","","","","","","","","",""
"131202","131202000244","練馬区","南田中児童館学童クラブ","ミナミタナカジドウカンガクドウクラブ","","","1404","","","131202","0003005","東京都練馬区南田中5-15-25","東京都","練馬区","南田中5丁目","15-25","","35.737905","139.611342","","","(03)3995-5534","","","","","1770035","","","月火水木金土","","18:00","土曜日は9時～17時、学校休業日は9時～18時。","","","","","","","","","","","","","","","","","","","","","",""
"131202","131202000245","練馬区","三原台児童館学童クラブ","ミハラダイジドウカンガクドウクラブ","","","1404","","","131202","0013002","東京都練馬区三原台2-11-29","東京都","練馬区","三原台2丁目","11-29","","35.757188","139.606163","","","(03)3924-8796","","","","","1770031","","","月火水木金土","","18:00","土曜日は9時～17時、学校休業日は9時～18時。","","","","","","","","","","","","","","","","","","","","","",""
"131202","131202000246","練馬区","石神井児童館学童クラブ","シャクジイジドウカンガクドウクラブ","","","1404","","","131202","0039007","東京都練馬区石神井町7-28-21","東京都","練馬区","石神井町7丁目","28-21","","35.744662","139.597986","","","(03)3996-3800","","","","","1770041","","","月火水木金土","","18:00","土曜日は9時～17時、学校休業日は9時～18時。","","","","","","","","","","","","","","","","","","","","","",""
"131202","131202000247","練馬区","石神井台児童館学童クラブ","シャクジイダイジドウカンガクドウクラブ","","","1404","","","131202","0038002","東京都練馬区石神井台2-18-13","東京都","練馬区","石神井台2丁目","18-13","","35.735576","139.589646","","","(03)3995-8267","","","","","1770045","","","月火水木金土","","18:00","土曜日は9時～17時、学校休業日は9時～18時。","","","","","","","","","","","","","","","","","","","","","",""
"131202","131202000248","練馬区","上石神井児童館学童クラブ","カミシャクジイジドウカンガクドウクラブ","","","1404","","","131202","0034001","東京都練馬区上石神井1-5-2","東京都","練馬区","上石神井1丁目","5-2","","35.725646","139.592216","","","(03)3929-0999","","","","","1770044","","","月火水木金土","","18:00","土曜日は9時～17時、学校休業日は9時～18時。","","","","","","","","","","","","","","","","","","","","","",""
"131202","131202000249","練馬区","関町児童館学童クラブ","セキマチジドウカンガクドウクラブ","","","1404","","","131202","0031004","東京都練馬区関町南4-15-7-102","東京都","練馬区","関町南4丁目","15-7-102","","35.722774","139.572279","","","(03)3920-1601","","","","","1770053","","","月火水木金土","","18:00","土曜日は9時～17時、学校休業日は9時～18時。","","","","","","","","","","","","","","","","","","","","","",""
"131202","131202000250","練馬区","東大泉児童館学童クラブ","ヒガシオオイズミジドウカンガクドウクラブ","","","1404","","","131202","0014007","東京都練馬区東大泉7-20-1","東京都","練馬区","東大泉7丁目","20-1","","35.742458","139.577223","","","(03)3921-8100","","","","","1780063","","","月火水木金土","","18:00","土曜日は9時～17時、学校休業日は9時～18時。","","","","","","","","","","","","","","","","","","","","","",""
"131202","131202000251","練馬区","厚生文化会館学童クラブ","コウセイブンカカイカンガクドウクラブ","","","1404","","","131202","0028004","東京都練馬区練馬4-2-3","東京都","練馬区","練馬4丁目","2-3","","35.740244","139.650011","","","(03)3991-3080","","","","","1760001","","","月火水木金土","","18:00","土曜日は9時～17時、学校休業日は9時～18時。","","","","","","","","","","","","","","","","","","","","","",""
"131202","131202000253","練馬区","桜台地区区民館学童クラブ","サクラダイチククミンカンガクドウクラブ","","","1404","","","131202","0024003","東京都練馬区桜台3-39-17","東京都","練馬区","桜台3丁目","39-17","","35.745799","139.663153","","","(03)3993-5461","","","","","1760002","","","月火水木金土","","18:00","土曜日は9時～17時、学校休業日は9時～18時。","","","","","","","","","","","","","","","","","","","","","",""
"131202","131202000254","練馬区","貫井地区区民館学童クラブ","ヌクイチククミンカンガクドウクラブ","","","1404","","","131202","0030001","東京都練馬区貫井1-9-1","東京都","練馬区","貫井1丁目","9-1","","35.738029","139.635389","","","(03)3926-7218","","","","","1760021","","","月火水木金土","","18:00","土曜日は9時～17時、学校休業日は9時～18時。","","","","","","","","","","","","","","","","","","","","","",""
"131202","131202000255","練馬区","氷川台地区区民館学童クラブ","ヒカワダイチククミンカンガクドウクラブ","","","1404","","","131202","0006002","東京都練馬区氷川台2-16-14","東京都","練馬区","氷川台2丁目","16-14","","35.756988","139.667121","","","(03)3932-2065","","","","","1790084","","","月火水木金土","","18:00","土曜日は9時～17時、学校休業日は9時～18時。","","","","","","","","","","","","","","","","","","","","","",""
"131202","131202000256","練馬区","高松地区区民館学童クラブ","タカマツチククミンカンガクドウクラブ","","","1404","","","131202","0001003","東京都練馬区高松3-24-27","東京都","練馬区","高松3丁目","24-27","","35.751093","139.623611","","","(03)3999-7911","","","","","1790075","","","月火水木金土","","18:00","土曜日は9時～17時、学校休業日は9時～18時。","","","","","","","","","","","","","","","","","","","","","",""
"131202","131202000258","練馬区","下石神井地区区民館学童クラブ","シモシャクジイチククミンカンガクドウクラブ","","","1404","","","131202","0033006","東京都練馬区下石神井6-8-15","東京都","練馬区","下石神井6丁目","8-15","","35.733635","139.603464","","","(03)3904-5061","","","","","1770042","","","月火水木金土","","18:00","土曜日は9時～17時、学校休業日は9時～18時。","","","","","","","","","","","","","","","","","","","","","",""
"131202","131202000261","練馬区","中村児童館第二学童クラブ","ナカムラジドウカンダイニガクドウクラブ","","","1404","","","131202","0025002","東京都練馬区中村2-25-3","東京都","練馬区","中村2丁目","25-3","","35.731705","139.642165","","","(03)3998-4890","","","","","1760024","","","月火水木金土","","18:00","土曜日は9時～17時、学校休業日は9時～18時。","","","","","","","","","","","","","","","","","","","","","",""
"131202","131202000262","練馬区","平和台児童館学童クラブ","ヘイワダイジドウカンガクドウクラブ","","","1404","","","131202","0010002","東京都練馬区平和台2-18-14","東京都","練馬区","平和台2丁目","18-14","","35.760075","139.661332","","","(03)3550-8058","","","","","1790083","","","月火水木金土","","18:00","土曜日は9時～17時、学校休業日は9時～18時。","","","","","","","","","","","","","","","","","","","","","",""
"131202","131202000263","練馬区","東大泉児童館第二学童クラブ","ヒガシオオイズミジドウカンダイニガクドウクラブ","","","1404","","","131202","0014007","東京都練馬区東大泉7-20-1","東京都","練馬区","東大泉7丁目","20-1","","35.74246","139.577401","","","(03)3921-8100","","","","","1780063","","","月火水木金土","","18:00","土曜日は9時～17時、学校休業日は9時～18時。","","","","","","","","","","","","","","","","","","","","","",""
"131202","131202000264","練馬区","大泉桜学園ねりっこ学童クラブ","オオイズミサクラガクエンネリッコガクドウクラブ","","","1404","","","131202","0045009","東京都練馬区大泉学園町9-2-12","東京都","練馬区","大泉学園町9丁目","2-12","","35.77623","139.591794","","","(03)3924-8411","","","","","1780061","","","月火水木金土","","18:00","土曜日は9時～17時、学校休業日は9時～18時。","","","","","","","","","","","","","","","","","","","","","",""
"131202","131202000265","練馬区","豊玉東小ねりっこ学童クラブ","トヨタマヒガシショウネリッコガクドウクラブ","","","1404","","","131202","0018001","東京都練馬区豊玉北1-16-1","東京都","練馬区","豊玉北1丁目","16-1","","35.732724","139.668126","","","(03)6914-9188","","","","","1760012","","","月火水木金土","","18:00","土曜日は9時～17時、学校休業日は9時～18時。","","","","","","","","","","","","","","","","","","","","","",""
"131202","131202000266","練馬区","光が丘春の風小ねりっこ学童クラブ","ヒカリガオカハルノカゼショウネリッコガクドウクラブ","","","1404","","","131202","0012007","東京都練馬区光が丘7-3-3-102","東京都","練馬区","光が丘7丁目","3-3-102","","35.755122","139.62486","","","(03)5997-7171","","","","","1790072","","","月火水木金土","","18:00","土曜日は9時～17時、学校休業日は9時～18時。","","","","","","","","","","","","","","","","","","","","","",""
"131202","131202000267","練馬区","光が丘秋の陽小ねりっこ学童クラブ","ヒカリガオカアキノヒショウネリッコガクドウクラブ","","","1404","","","131202","0012002","東京都練馬区光が丘2-1-1","東京都","練馬区","光が丘2丁目","1-1","","35.761608","139.634692","","","(03)3976-6106","","","","","1790072","","","月火水木金土","","18:00","土曜日は9時～17時、学校休業日は9時～18時。","","","","","","","","","","","","","","","","","","","","","",""
"131202","131202000268","練馬区","下石神井小ねりっこ学童クラブ","シモシャクジイショウネリッコガクドウクラブ","","","1404","","","131202","0033002","東京都練馬区下石神井2-20-18","東京都","練馬区","下石神井2丁目","20-18","","35.731888","139.605658","","","(03)3997-5101","","","","","1770042","","","月火水木金土","","18:00","土曜日は9時～17時、学校休業日は9時～18時。","","","","","","","","","","","","","","","","","","","","","",""
"131202","131202000269","練馬区","大泉第一小ねりっこ学童クラブ","オオイズミダイイチショウネリッコガクドウクラブ","","","1404","","","131202","0044003","東京都練馬区大泉町3-16-23","東京都","練馬区","大泉町3丁目","16-23","","35.765359","139.598713","","","(03)3925-2366","","","","","1780062","","","月火水木金土","","18:00","土曜日は9時～17時、学校休業日は9時～18時。","","","","","","","","","","","","","","","","","","","","","",""
"131202","131202000270","練馬区","大泉南小ねりっこ学童クラブ","オオイズミミナミショウネリッコガクドウクラブ","","","1404","","","131202","0014006","東京都練馬区東大泉6-28-1","東京都","練馬区","東大泉6丁目","28-1","","35.744622","139.580821","","","(03)3922-1161","","","","","1780063","","","月火水木金土","","18:00","土曜日は9時～17時、学校休業日は9時～18時。","","","","","","","","","","","","","","","","","","","","","",""
"131202","131202000271","練馬区","光が丘夏の雲小ねりっこ学童クラブ","ヒカリガオカナツノクモショウネリッコガクドウクラブ","","","1404","","","131202","0012003","東京都練馬区光が丘3-6-1","東京都","練馬区","光が丘3丁目","6-1","","35.75735","139.631341","","","(03)5998-1113","","","","","1790072","","","月火水木金土","","18:00","土曜日は9時～17時、学校休業日は9時～18時。","","","","","","","","","","","","","","","","","","","","","",""
"131202","131202000272","練馬区","南町小ねりっこ学童クラブ","ミナミチョウショウネリッコガクドウクラブ","","","1404","","","131202","0028002","東京都練馬区練馬2-7-5","東京都","練馬区","練馬2丁目","7-5","","35.740726","139.652567","","","(03)3993-2550","","","","","1760001","","","月火水木金土","","18:00","土曜日は9時～17時、学校休業日は9時～18時。","","","","","","","","","","","","","","","","","","","","","",""
"131202","131202000273","練馬区","練馬第三小ねりっこ学童クラブ","ネリマダイサンショウネリッコガクドウクラブ","","","1404","","","131202","0030001","東京都練馬区貫井1-36-15","東京都","練馬区","貫井1丁目","36-15","","35.73732","139.635013","","","(03)3577-0048","","","","","1760021","","","月火水木金土","","18:00","土曜日は9時～17時、学校休業日は9時～18時。","","","","","","","","","","","","","","","","","","","","","",""
"131202","131202000274","練馬区","上石神井北小ねりっこ学童クラブ","カミシャクジイキタショウネリッコガクドウクラブ","","","1404","","","131202","0038005","東京都練馬区石神井台5-1-10","東京都","練馬区","石神井台5丁目","1-10","","35.7348","139.588179","","","(03)3920-0255","","","","","1770045","","","月火水木金土","","18:00","土曜日は9時～17時、学校休業日は9時～18時。","","","","","","","","","","","","","","","","","","","","","",""
"131202","131202000275","練馬区","関町北小ねりっこ学童クラブ","セキマチキタショウネリッコガクドウクラブ","","","1404","","","131202","0037005","東京都練馬区関町北5-13-40","東京都","練馬区","関町北5丁目","13-40","","35.732803","139.574065","","","(03)3920-0881","","","","","1770051","","","月火水木金土","","18:00","土曜日は9時～17時、学校休業日は9時～18時。","","","","","","","","","","","","","","","","","","","","","",""
"131202","131202000276","練馬区","光が丘さくら幼稚園","ヒカリガオカサクラヨウチエン","","","1501","","","131202","0012002","東京都練馬区光が丘2-4-8-101","東京都","練馬区","光が丘2丁目","4-8-101","","35.762678","139.631863","","","(03)3976-2562","","","","","1790072","","","月火水木金","09:00","14:15","水曜日は11時30分まで、預かり保育は月曜日～金曜日の14時15分～16時50分","","","","","","","","","","","","","","","","","","","","","",""
"131202","131202000277","練馬区","光が丘むらさき幼稚園","ヒカリガオカムラサキヨウチエン","","","1501","","","131202","0012003","東京都練馬区光が丘3-3-5-101","東京都","練馬区","光が丘3丁目","3-5-101","","35.755922","139.629716","","","(03)3976-7221","","","","","1790072","","","月火水木金","09:00","14:15","水曜日は11時30分まで、預かり保育は月曜日～金曜日の14時15分～16時50分","","","","","","","","","","","","","","","","","","","","","",""
"131202","131202000278","練馬区","北大泉幼稚園","キタオオイズミヨウチエン","","","1501","","","131202","0044002","東京都練馬区大泉町2-46-6","東京都","練馬区","大泉町2丁目","46-6","","35.762925","139.603428","","","(03)3925-6092","","","","","1780062","","","月火水木金","09:00","14:15","水曜日は11時30分まで、預かり保育は月曜日～金曜日の14時15分～16時50分","","","","","","","","","","","","","","","","","","","","","",""
"131202","131202000279","練馬区","旭丘小学校","アサヒガオカショウガッコウ","","","1503","","","131202","0021002","東京都練馬区旭丘2-21-1","東京都","練馬区","旭丘2丁目","21-1","","35.736695","139.676803","","","(03)3957-2151","","","","","1760005","","","","","","","","","","","","","","","","","","","","","","","","","","","",""
"131202","131202000280","練馬区","小竹小学校","コタケショウガッコウ","","","1503","","","131202","0029002","東京都練馬区小竹町2-6-7","東京都","練馬区","小竹町2丁目","6-7","","35.744098","139.679836","","","(03)3956-8391","","","","","1760004","","","","","","","","","","","","","","","","","","","","","","","","","","","",""
"131202","131202000281","練馬区","開進第四小学校","カイシンダイヨンショウガッコウ","","","1503","","","131202","0009002","東京都練馬区羽沢2-33-1","東京都","練馬区","羽沢2丁目","33-1","","35.747817","139.671278","","","(03)3993-6153","","","","","1760003","","","","","","","","","","","","","","","","","","","","","","","","","","","",""
"131202","131202000282","練馬区","豊玉第二小学校","トヨタマダイニショウガッコウ","","","1503","","","131202","0022002","東京都練馬区豊玉上2-16-1","東京都","練馬区","豊玉上2丁目","16-1","","35.737421","139.66169","","","(03)3993-0421","","","","","1760011","","","","","","","","","","","","","","","","","","","","","","","","","","","",""
"131202","131202000283","練馬区","豊玉小学校","トヨタマショウガッコウ","","","1503","","","131202","0020004","東京都練馬区豊玉中4-2-20","東京都","練馬区","豊玉中4丁目","2-20","","35.732943","139.652217","","","(03)3993-4286","","","","","1760013","","","","","","","","","","","","","","","","","","","","","","","","","","","",""
"131202","131202000284","練馬区","豊玉南小学校","トヨタマミナミショウガッコウ","","","1503","","","131202","0017002","東京都練馬区豊玉南2-14-1","東京都","練馬区","豊玉南2丁目","14-1","","35.727679","139.656025","","","(03)3993-6425","","","","","1760014","","","","","","","","","","","","","","","","","","","","","","","","","","","",""
"131202","131202000285","練馬区","豊玉東小学校","トヨタマヒガシショウガッコウ","","","1503","","","131202","0018001","東京都練馬区豊玉北1-16-1","東京都","練馬区","豊玉北1丁目","16-1","","35.732734","139.667968","","","(03)3993-4217","","","","","1760012","","","","","","","","","","","","","","","","","","","","","","","","","","","",""
"131202","131202000286","練馬区","中村小学校","ナカムラショウガッコウ","","","1503","","","131202","0025002","東京都練馬区中村2-8-1","東京都","練馬区","中村2丁目","8-1","","35.73143","139.643675","","","(03)3990-4241","","","","","1760024","","","","","","","","","","","","","","","","","","","","","","","","","","","",""
"131202","131202000287","練馬区","中村西小学校","ナカムラニシショウガッコウ","","","1503","","","131202","0027004","東京都練馬区中村北4-17-1","東京都","練馬区","中村北4丁目","17-1","","35.734214","139.634829","","","(03)3990-4237","","","","","1760023","","","","","","","","","","","","","","","","","","","","","","","","","","","",""
"131202","131202000288","練馬区","開進第三小学校","カイシンダイサンショウガッコウ","","","1503","","","131202","0024002","東京都練馬区桜台2-18-1","東京都","練馬区","桜台2丁目","18-1","","35.742881","139.666625","","","(03)3993-4263","","","","","1760002","","","","","","","","","","","","","","","","","","","","","","","","","","","",""
"131202","131202000289","練馬区","開進第二小学校","カイシンダイニショウガッコウ","","","1503","","","131202","0024005","東京都練馬区桜台5-10-5","東京都","練馬区","桜台5丁目","10-5","","35.741979","139.658155","","","(03)3993-2425","","","","","1760002","","","","","","","","","","","","","","","","","","","","","","","","","","","",""
"131202","131202000290","練馬区","南町小学校","ミナミチョウショウガッコウ","","","1503","","","131202","0028002","東京都練馬区練馬2-7-5","東京都","練馬区","練馬2丁目","7-5","","35.740894","139.652771","","","(03)3993-2438","","","","","1760001","","","","","","","","","","","","","","","","","","","","","","","","","","","",""
"131202","131202000291","練馬区","向山小学校","コウヤマショウガッコウ","","","1503","","","131202","0026002","東京都練馬区向山2-14-11","東京都","練馬区","向山2丁目","14-11","","35.740399","139.640533","","","(03)3999-9145","","","","","1760022","","","","","","","","","","","","","","","","","","","","","","","","","","","",""
"131202","131202000292","練馬区","練馬第三小学校","ネリマダイサンショウガッコウ","","","1503","","","131202","0030001","東京都練馬区貫井1-36-15","東京都","練馬区","貫井1丁目","36-15","","35.737291","139.635435","","","(03)3970-5641","","","","","1760021","","","","","","","","","","","","","","","","","","","","","","","","","","","",""
"131202","131202000293","練馬区","練馬第二小学校","ネリマダイニショウガッコウ","","","1503","","","131202","0030002","東京都練馬区貫井2-31-13","東京都","練馬区","貫井2丁目","31-13","","35.741411","139.633666","","","(03)3990-4247","","","","","1760021","","","","","","","","","","","","","","","","","","","","","","","","","","","",""
"131202","131202000294","練馬区","仲町小学校","ナカマチショウガッコウ","","","1503","","","131202","0006002","東京都練馬区氷川台2-18-24","東京都","練馬区","氷川台2丁目","18-24","","35.757929","139.667676","","","(03)3932-5360","","","","","1790084","","","","","","","","","","","","","","","","","","","","","","","","","","","",""
"131202","131202000295","練馬区","早宮小学校","ハヤミヤショウガッコウ","","","1503","","","131202","0007004","東京都練馬区早宮4-10-17","東京都","練馬区","早宮4丁目","10-17","","35.752092","139.651002","","","(03)3993-5165","","","","","1790085","","","","","","","","","","","","","","","","","","","","","","","","","","","",""
"131202","131202000296","練馬区","開進第一小学校","カイシンダイイチショウガッコウ","","","1503","","","131202","0007002","東京都練馬区早宮2-1-31","東京都","練馬区","早宮2丁目","1-31","","35.754614","139.657402","","","(03)3932-3170","","","","","1790085","","","","","","","","","","","","","","","","","","","","","","","","","","","",""
"131202","131202000297","練馬区","練馬東小学校","ネリマヒガシショウガッコウ","","","1503","","","131202","0008001","東京都練馬区春日町1-30-11","東京都","練馬区","春日町1丁目","30-11","","35.752199","139.647327","","","(03)3990-9142","","","","","1790074","","","","","","","","","","","","","","","","","","","","","","","","","","","",""
"131202","131202000298","練馬区","春日小学校","カスガショウガッコウ","","","1503","","","131202","0008005","東京都練馬区春日町5-12-1","東京都","練馬区","春日町5丁目","12-1","","35.746774","139.639523","","","(03)3926-7102","","","","","1790074","","","","","","","","","","","","","","","","","","","","","","","","","","","",""
"131202","131202000299","練馬区","練馬小学校","ネリマショウガッコウ","","","1503","","","131202","0008006","東京都練馬区春日町6-11-36","東京都","練馬区","春日町6丁目","11-36","","35.75246","139.635908","","","(03)3990-4244","","","","","1790074","","","","","","","","","","","","","","","","","","","","","","","","","","","",""
"131202","131202000300","練馬区","高松小学校","タカマツショウガッコウ","","","1503","","","131202","0001003","東京都練馬区高松3-16-1","東京都","練馬区","高松3丁目","16-1","","35.749728","139.626666","","","(03)3999-3376","","","","","1790075","","","","","","","","","","","","","","","","","","","","","","","","","","","",""
"131202","131202000301","練馬区","光が丘四季の香小学校","ヒカリガオカシキノカオリショウガッコウ","","","1503","","","131202","0001005","東京都練馬区高松5-24-1","東京都","練馬区","高松5丁目","24-1","","35.761586","139.624204","","","(03)3977-2711","","","","","1790075","","","","","","","","","","","","","","","","","","","","","","","","","","","",""
"131202","131202000302","練馬区","北町小学校","キタマチショウガッコウ","","","1503","","","131202","0042001","東京都練馬区北町1-14-11","東京都","練馬区","北町1丁目","14-11","","35.764846","139.663969","","","(03)3932-3296","","","","","1790081","","","","","","","","","","","","","","","","","","","","","","","","","","","",""
"131202","131202000303","練馬区","北町西小学校","キタマチニシショウガッコウ","","","1503","","","131202","0042007","東京都練馬区北町7-3-8","東京都","練馬区","北町7丁目","3-8","","35.761612","139.653518","","","(03)3932-7234","","","","","1790081","","","","","","","","","","","","","","","","","","","","","","","","","","","",""
"131202","131202000304","練馬区","田柄小学校","タガラショウガッコウ","","","1503","","","131202","0040002","東京都練馬区田柄2-19-19","東京都","練馬区","田柄2丁目","19-19","","35.765913","139.643808","","","(03)3939-0351","","","","","1790073","","","","","","","","","","","","","","","","","","","","","","","","","","","",""
"131202","131202000305","練馬区","田柄第二小学校","タガラダイニショウガッコウ","","","1503","","","131202","0040001","東京都練馬区田柄1-5-27","東京都","練馬区","田柄1丁目","5-27","","35.758946","139.642328","","","(03)3938-8826","","","","","1790073","","","","","","","","","","","","","","","","","","","","","","","","","","","",""
"131202","131202000306","練馬区","光が丘第八小学校","ヒカリガオカダイハチショウガッコウ","","","1503","","","131202","0012001","東京都練馬区光が丘1-4-1","東京都","練馬区","光が丘1丁目","4-1","","35.768504","139.637001","","","(03)5997-4828","","","","","1790072","","","","","","","","","","","","","","","","","","","","","","","","","","","",""
"131202","131202000307","練馬区","光が丘秋の陽小学校","ヒカリガオカアキノヒショウガッコウ","","","1503","","","131202","0012002","東京都練馬区光が丘2-1-1","東京都","練馬区","光が丘2丁目","1-1","","35.761876","139.635106","","","(03)3976-6331","","","","","1790072","","","","","","","","","","","","","","","","","","","","","","","","","","","",""
"131202","131202000308","練馬区","光が丘夏の雲小学校","ヒカリガオカナツノクモショウガッコウ","","","1503","","","131202","0012003","東京都練馬区光が丘3-6-1","東京都","練馬区","光が丘3丁目","6-1","","35.757364","139.630943","","","(03)5998-0501","","","","","1790072","","","","","","","","","","","","","","","","","","","","","","","","","","","",""
"131202","131202000309","練馬区","光が丘春の風小学校","ヒカリガオカハルノカゼショウガッコウ","","","1503","","","131202","0012007","東京都練馬区光が丘7-2-1","東京都","練馬区","光が丘7丁目","2-1","","35.755601","139.625731","","","(03)3976-5861","","","","","1790072","","","","","","","","","","","","","","","","","","","","","","","","","","","",""
"131202","131202000310","練馬区","旭町小学校","アサヒチョウショウガッコウ","","","1503","","","131202","0015002","東京都練馬区旭町2-29-1","東京都","練馬区","旭町2丁目","29-1","","35.772625","139.627422","","","(03)3939-0362","","","","","1790071","","","","","","","","","","","","","","","","","","","","","","","","","","","",""
"131202","131202000311","練馬区","豊溪小学校","ホウケイショウガッコウ","","","1503","","","131202","0043002","東京都練馬区土支田2-26-28","東京都","練馬区","土支田2丁目","26-28","","35.763044","139.615235","","","(03)3925-2444","","","","","1790076","","","","","","","","","","","","","","","","","","","","","","","","","","","",""
"131202","131202000312","練馬区","八坂小学校","ヤサカショウガッコウ","","","1503","","","131202","0043004","東京都練馬区土支田4-48-1","東京都","練馬区","土支田4丁目","48-1","","35.768756","139.611183","","","(03)3922-7625","","","","","1790076","","","","","","","","","","","","","","","","","","","","","","","","","","","",""
"131202","131202000313","練馬区","富士見台小学校","フジミダイショウガッコウ","","","1503","","","131202","0002004","東京都練馬区富士見台4-16-10","東京都","練馬区","富士見台4丁目","16-10","","35.744844","139.622981","","","(03)3998-6351","","","","","1770034","","","","","","","","","","","","","","","","","","","","","","","","","","","",""
"131202","131202000314","練馬区","南が丘小学校","ミナミガオカショウガッコウ","","","1503","","","131202","0003002","東京都練馬区南田中2-13-1","東京都","練馬区","南田中2丁目","13-1","","35.733802","139.616999","","","(03)3904-1282","","","","","1770035","","","","","","","","","","","","","","","","","","","","","","","","","","","",""
"131202","131202000315","練馬区","石神井東小学校","シャクジイヒガシショウガッコウ","","","1503","","","131202","0003003","東京都練馬区南田中3-9-1","東京都","練馬区","南田中3丁目","9-1","","35.737469","139.619516","","","(03)3997-3312","","","","","1770035","","","","","","","","","","","","","","","","","","","","","","","","","","","",""
