施設名,施設名(英語),カテゴリ,電話番号,郵便番号,都道府県名,市区町村名,行政区名,住所,住所(かな),緯度,経度,説明(日本語),説明(英語),FAX番号,開所時間帯,開所時刻,閉所時刻,利用料金,画像URL,サムネイル画像URL,ホームページアドレス,創設日,創設者,標準地域コード
新宿区保健所,"",保健所等,03-3209-1111,160-0022,東京都,新宿区,"",新宿5-18-21,しんじゅく5-18-21,35.6939,139.70674,H11.4.13保健所を統合。H16.2左記に移設。,"","","","","","","","","",1999-04-01,"",http://statdb.nstac.go.jp/lod/sac/C13104
牛込保健センター,"",保健所等,03-3260-6231,162-0851,東京都,新宿区,"",弁天町50,べんてんちょう50,35.70324,139.72742,S26.9左記に移設。S50.4都から移管。S51.4改築。弁天町保育園併設。H10.4新宿生活実習所併設。H11.4.1から保健センター化。R3.6.14から矢来町6に移転。,"","","","","","","","","",1948-10-01,"",http://statdb.nstac.go.jp/lod/sac/C13104
四谷保健センター 女性の健康支援センター,"",保健所等,03-3351-5161,160-0008,東京都,新宿区,"",四谷三栄町10-16,よつやさんえいちょう10-16,35.68869,139.72415,S50.4都から移管。H11.4.1から保健センター化。H26.2現在地に移転。新宿東清掃センター等併設,"","","","","","","","","",1948-10-01,"",http://statdb.nstac.go.jp/lod/sac/C13104
東新宿保健センター,"",保健所等,03-3200-1026,160-0022,東京都,新宿区,"","新宿7-26-4
",しんじゅく7-26-4,35.69916,139.7092,S50.4都から移管。H11.4.1から保健センター化（西新宿保健センター）H26.6現在地に移転、名称変更。新宿区医師会区民健康センター併設,"","","","","","","","","",2014-06-30,"",http://statdb.nstac.go.jp/lod/sac/C13104
落合保健センター,"",保健所等,03-3952-7161,161-0033,東京都,新宿区,"",下落合4-6-7,しもおちあい4-6-7,35.71944,139.69493,H9.1左記に移設。落合第一特別出張所、落合第一地域センター併設。H11.4.1から保健センター化,"","","","","","","","","",1978-04-01,"",http://statdb.nstac.go.jp/lod/sac/C13104
健康部分室,"",保健所等,03-5389-5331,160-0023,東京都,新宿区,"",西新宿7-5-8,にししんじゅく7-5-8,35.69711,139.6985,H26.6 西新宿保健センターの移転に伴い開室。新宿都税事務所1〜2階。H28.10 人材育成センター(766㎡）・新宿自治創造研究所（78㎡）併設,"","","","","","","","","",2014-06-30,"",http://statdb.nstac.go.jp/lod/sac/C13104
