都道府県コード又は市区町村コード,NO,都道府県名,市区町村名,名称,名称_カナ,名称_通称,POIコード,住所,方書,緯度,経度,電話番号,内線番号,法人番号,団体名,利用可能曜日,開始時間,終了時間,利用可能時間特記事項,説明,バリアフリー情報,URL,備考
131164,1,東京都,豊島区,豊島区本庁舎,トシマクホンチョウシャ,,,東京都豊島区南池袋2-45-１,,35.72607,139.71666,,,,,,,,,,,,
131164,2,東京都,豊島区,豊島区役所東池袋分庁舎（生活福祉課事務室分）,トシマクヤクショヒガシイケブクロブンチョウシャ(セイカツフクシカジムシツブン),,,東京都豊島区東池袋1-39-2,,35.73244,139.71432,,,,,,,,,,,,
131164,3,東京都,豊島区,豊島区役所東池袋分庁舎（福祉総務課事務室分）,トシマクヤクショヒガシイケブクロブンチョウシャ(フクシソウムカジムシツブン),,,東京都豊島区東池袋1-39-2,,35.73244,139.71432,,,,,,,,,,,,
131164,4,東京都,豊島区,東部区民事務所,トウブクミンジムショ,,,東京都豊島区北大塚1-15-10,,35.73128,139.73157,,,,,,,,,,,,
131164,5,東京都,豊島区,西部区民事務所,セイブクミンジムショ,,,東京都豊島区千早2-39-16,,35.73556,139.69102,,,,,,,,,,,,
131164,6,東京都,豊島区,東部障害支援センター,トウブショウガイシエンセンター,,,"東京都豊島区南大塚2-36-1,2",,35.72909,139.72986,,,,,,,,,,,,
131164,7,東京都,豊島区,西部障害支援センター,セイブショウガイシエンセンター,,,東京都豊島区千早2-39-16,,35.73556,139.69102,,,,,,,,,,,,
131164,8,東京都,豊島区,池袋保健所,イケブクロホケンジョ,,,東京都豊島区東池袋4-42-16,,35.72778,139.72185,,,,,,,,,,,,
131164,9,東京都,豊島区,長崎健康相談所,ナガサキケンコウソウダンショ,,,東京都豊島区長崎2-27-18,,35.72959,139.69295,,,,,,,,,,,,
131164,10,東京都,豊島区,池袋三丁目物品保管室,イケブクロサンチョウメブッピンホカンシツ,,,東京都豊島区池袋3-30-22,,35.73549,139.70486,,,,,,,,,,,,
131164,11,東京都,豊島区,池袋本町倉庫,イケブクロホンチョウソウコ,,,東京都豊島区池袋本町1-40-7,,35.74013,139.71548,,,,,,,,,,,,
131164,12,東京都,豊島区,雑司が谷倉庫,ゾウシガヤソウコ,,,東京都豊島区雑司が谷1-34-5,,35.72028,139.72218,,,,,,,,,,,,
131164,13,東京都,豊島区,高田倉庫,タカダソウコ,,,東京都豊島区高田2-11-2,,35.71572,139.71443,,,,,,,,,,,,
131164,14,東京都,豊島区,旧真和中学校倉庫,キュウシンワチュウガッコウソウコ,,,東京都豊島区目白5-24-12,,35.72531,139.69717,,,,,,,,,,,,
131164,15,東京都,豊島区,ほほえみクラブ室,ホホエミクラブシツ,,,東京都豊島区池袋本町1-6-12,,35.73747,139.71396,,,,,,,,,,,,
131164,16,東京都,豊島区,地域文化財資料調査室,チイキブンカザイシリョウチョウサシツ,,,東京都豊島区西池袋2-30-15,,35.72734,139.70688,,,,,,,,,,,,
131164,17,東京都,豊島区,文化デザイン課分室,ブンカデザインカブンシツ,,,東京都豊島区目白5-24-12,,35.72531,139.69717,,,,,,,,,,,,
131164,18,東京都,豊島区,区民活動推進課分室,クミンカツドウスイシンカブンシツ,,,東京都豊島区南大塚2-36-1から2,,35.72909,139.72986,,,,,,,,,,,,
131164,19,東京都,豊島区,生活産業課分室,セイカツサンギョウカブンシツ,,,東京都豊島区北大塚1-15-10,,35.73128,139.73157,,,,,,,,,,,,
131164,20,東京都,豊島区,更生保護サポートセンター,コウセイホゴサポートセンター,,,東京都豊島区東池袋1-39-2,,35.73244,139.71432,,,,,,,,,,,,
131164,21,東京都,豊島区,道路工事事務所,ドウロコウジジムショ,,,東京都豊島区上池袋3-17-1,,35.74092,139.71802,,,,,,,,,,,,
131164,22,東京都,豊島区,豊島清掃事務所,トシマセイソウジムショ,,,東京都豊島区池袋本町1-7-3,,35.73812,139.71272,,,,,,,,,,,,
131164,23,東京都,豊島区,公園管理事務所,コウエンカンリジムショ,,,東京都豊島区千早2-1-14,,35.73116,139.69292,,,,,,,,,,,,
131164,24,東京都,豊島区,西部生活福祉課事務所,セイブセイカツフクシカジムショ,,,東京都豊島区目白5-24-12,,35.72531,139.69717,,,,,,,,,,,,
131164,25,東京都,豊島区,シルバー人材センター,シルバージンザイセンター,,,東京都豊島区東池袋2-55-6,,35.73351,139.71875,,,,,,,,,,,,
131164,26,東京都,豊島区,男女平等推進センター,ダンジョビョウドウスイシンセンター,,,東京都豊島区西池袋2-37-4,,35.72791,139.70682,,,,,,,,,,,,
131164,27,東京都,豊島区,区民ひろば駒込,クミンヒロバコマゴメ,,,東京都豊島区駒込2-2-4,,35.73686,139.74675,,,,,,,,,,,,
131164,28,東京都,豊島区,区民ひろば仰高,クミンヒロバギョウコウ,,,東京都豊島区駒込4-12-3,,35.73732,139.74059,,,,,,,,,,,,
131164,29,東京都,豊島区,区民ひろば清和第一,クミンヒロバセイワダイイチ,,,東京都豊島区巣鴨3-15-20,,35.73552,139.73367,,,,,,,,,,,,
131164,30,東京都,豊島区,区民ひろば清和第二,クミンヒロバセイワダイニ,,,東京都豊島区巣鴨3-13-12,,35.73504,139.73199,,,,,,,,,,,,
131164,31,東京都,豊島区,区民ひろば朝日,クミンヒロバアサヒ,,,東京都豊島区巣鴨5-33-21,,35.74098,139.73323,,,,,,,,,,,,
131164,32,東京都,豊島区,区民ひろば西巣鴨第一,クミンヒロバニシスガモダイイチ,,,東京都豊島区西巣鴨2-35-3,,35.74051,139.72804,,,,,,,,,,,,
131164,33,東京都,豊島区,区民ひろば西巣鴨第二,クミンヒロバニシスガモダイニ,,,東京都豊島区西巣鴨2-14-11,,35.73853,139.7276,,,,,,,,,,,,
131164,34,東京都,豊島区,区民ひろば南大塚,クミンヒロバミナミオオツカ,,,東京都豊島区南大塚2-36-1から2,,35.72909,139.72986,,,,,,,,,,,,
131164,35,東京都,豊島区,区民ひろば上池袋,クミンヒロバカミイケブクロ,,,東京都豊島区上池袋3-13-5,,35.73996,139.71698,,,,,,,,,,,,
131164,36,東京都,豊島区,区民ひろば豊成,クミンヒロバホウセイ,,,東京都豊島区上池袋1-28-7,,35.73697,139.72165,,,,,,,,,,,,
131164,37,東京都,豊島区,区民ひろば朋有,クミンヒロバホウユウ,,,東京都豊島区東池袋2-38-10,,35.73165,139.72156,,,,,,,,,,,,
131164,38,東京都,豊島区,区民ひろば南池袋,クミンヒロバミナミイケブクロ,,,東京都豊島区南池袋3-5-12,,35.72336,139.71379,,,,,,,,,,,,
131164,39,東京都,豊島区,区民ひろば西池袋,クミンヒロバニシイケブクロ,,,東京都豊島区西池袋2-37-4,,35.72791,139.70682,,,,,,,,,,,,
131164,40,東京都,豊島区,区民ひろば池袋,クミンヒロバイケブクロ,,,東京都豊島区池袋3-30-22,,35.73549,139.70486,,,,,,,,,,,,
131164,41,東京都,豊島区,区民ひろば池袋本町,クミンヒロバイケブクロホンチョウ,,,東京都豊島区池袋本町3-9-4,,35.7436,139.71271,,,,,,,,,,,,
131164,42,東京都,豊島区,区民ひろば高南第一,クミンヒロバコウナンダイイチ,,,東京都豊島区高田2-11-2,,35.71572,139.71443,,,,,,,,,,,,
131164,43,東京都,豊島区,区民ひろば高南第二,クミンヒロバコウナンダイニ,,,東京都豊島区高田3-38-7,,35.71617,139.71097,,,,,,,,,,,,
131164,44,東京都,豊島区,区民ひろば目白,クミンヒロバメジロ,,,東京都豊島区目白2-20-26,,35.72238,139.70963,,,,,,,,,,,,
131164,45,東京都,豊島区,区民ひろば椎名町,クミンヒロバシイナマチ,,,東京都豊島区南長崎4-12-7,,35.7249,139.68509,,,,,,,,,,,,
131164,46,東京都,豊島区,区民ひろば富士見台,クミンヒロバフジミダイ,,,東京都豊島区南長崎1-6-1,,35.72409,139.69156,,,,,,,,,,,,
131164,47,東京都,豊島区,区民ひろばさくら第一,クミンヒロバサクラダイイチ,,,東京都豊島区南長崎6-20-15,,35.73013,139.68062,,,,,,,,,,,,
131164,48,東京都,豊島区,区民ひろばさくら第二,クミンヒロバサクラダイニ,,,東京都豊島区長崎6-37-11,,35.73645,139.68274,,,,,,,,,,,,
131164,49,東京都,豊島区,区民ひろば長崎,クミンヒロバナガサキ,,,東京都豊島区長崎2-27-18,,35.72959,139.69295,,,,,,,,,,,,
131164,50,東京都,豊島区,区民ひろば要,クミンヒロバカナメ,,,東京都豊島区要町1-7-8,,35.73347,139.69513,,,,,,,,,,,,
131164,51,東京都,豊島区,区民ひろば千早,クミンヒロバチハヤ,,,東京都豊島区要町3-7-10,,35.73709,139.68773,,,,,,,,,,,,
131164,52,東京都,豊島区,区民ひろば高松,クミンヒロバタカマツ,,,東京都豊島区高松2-25-9,,35.73862,139.69783,,,,,,,,,,,,
131164,53,東京都,豊島区,地域活動交流センター,チイキカツドウコウリュウセンター,,,東京都豊島区西池袋2-37-4,,35.72791,139.70682,,,,,,,,,,,,
131164,54,東京都,豊島区,南池袋斎場,ミナミイケブクロサイジョウ,,,東京都豊島区南池袋4-25-2,,35.72343,139.71964,,,,,,,,,,,,
131164,55,東京都,豊島区,巣鴨第一区民集会室,スガモダイイチクミンシュウカイシツ,,,東京都豊島区巣鴨3-13-12,,35.73504,139.73199,,,,,,,,,,,,
131164,56,東京都,豊島区,西巣鴨区民集会室,ニシスガモクミンシュウカイシツ,,,東京都豊島区西巣鴨2-35-3,,35.74051,139.72804,,,,,,,,,,,,
131164,57,東京都,豊島区,北大塚区民集会室,キタオオツカクミンシュウカイシツ,,,東京都豊島区北大塚3-29-11,,35.73579,139.72534,,,,,,,,,,,,
131164,58,東京都,豊島区,上池袋コミュニティセンター,カミイケブクロコミュニティセンター,,,東京都豊島区上池袋2-5-1,,35.7348,139.71475,,,,,,,,,,,,
131164,59,東京都,豊島区,上池袋第二区民集会室,カミイケブクロダイニクミンシュウカイシツ,,,東京都豊島区上池袋3-13-5,,35.73996,139.71698,,,,,,,,,,,,
131164,60,東京都,豊島区,上池袋第一区民集会室,カミイケブクロダイイチクミンシュウカイシツ,,,東京都豊島区上池袋1-28-7,,35.73697,139.72165,,,,,,,,,,,,
131164,61,東京都,豊島区,東池袋第二区民集会室,ヒガシイケブクロダイニクミンシュウカイシツ,,,東京都豊島区東池袋2-38-10,,35.73165,139.72156,,,,,,,,,,,,
131164,62,東京都,豊島区,西池袋第二区民集会室,ニシイケブクロダイニクミンシュウカイシツ,,,東京都豊島区西池袋3-8-20,,35.72753,139.70329,,,,,,,,,,,,
131164,63,東京都,豊島区,池袋第三区民集会室,イケブクロダイサンクミンシュウカイシツ,,,東京都豊島区池袋3-29-10,,35.7357,139.70578,,,,,,,,,,,,
131164,64,東京都,豊島区,池袋本町第二区民集会室,イケブクロホンチョウダイニクミンシュウカイシツ,,,東京都豊島区池袋本町1-40-7,,35.74013,139.71548,,,,,,,,,,,,
131164,65,東京都,豊島区,池袋本町第一区民集会室,イケブクロホンチョウダイイチクミンシュウカイシツ,,,東京都豊島区池袋本町3-9-4,,35.7436,139.71271,,,,,,,,,,,,
131164,66,東京都,豊島区,雑司が谷区民集会室,ゾウシガヤクミンシュウカイシツ,,,東京都豊島区雑司が谷1-22-5,,35.72115,139.71953,,,,,,,,,,,,
131164,67,東京都,豊島区,高田第一区民集会室,タカダダイイチクミンシュウカイシツ,,,東京都豊島区高田2-11-2,,35.71572,139.71443,,,,,,,,,,,,
131164,68,東京都,豊島区,高田第二区民集会室,タカダダイニクミンシュウカイシツ,,,東京都豊島区高田3-18-3,,35.71515,139.70723,,,,,,,,,,,,
131164,69,東京都,豊島区,目白第一区民集会室,メジロダイイチクミンシュウカイシツ,,,東京都豊島区目白4-31-8,,35.72601,139.69933,,,,,,,,,,,,
131164,70,東京都,豊島区,南長崎第一区民集会室,ミナミナガサキダイイチクミンシュウカイシツ,,,東京都豊島区南長崎1-6-1,,35.72409,139.69156,,,,,,,,,,,,
131164,71,東京都,豊島区,南長崎第二区民集会室,ミナミナガサキダイニクミンシュウカイシツ,,,東京都豊島区南長崎6-20-15,,35.73013,139.68062,,,,,,,,,,,,
131164,72,東京都,豊島区,長崎第五区民集会室,ナガサキダイゴクミンシュウカイシツ,,,東京都豊島区長崎5-29-4,,35.73426,139.68391,,,,,,,,,,,,
131164,73,東京都,豊島区,長崎第四区民集会室,ナガサキダイヨンクミンシュウカイシツ,,,東京都豊島区長崎6-34-10,,35.73537,139.68257,,,,,,,,,,,,
131164,74,東京都,豊島区,長崎第三区民集会室,ナガサキダイサンクミンシュウカイシツ,,,東京都豊島区長崎2-27-18,,35.72959,139.69295,,,,,,,,,,,,
131164,75,東京都,豊島区,要町第二区民集会室,カナメチョウダイニクミンシュウカイシツ,,,東京都豊島区要町3-7-10,,35.73709,139.68773,,,,,,,,,,,,
131164,76,東京都,豊島区,高松区民集会室,タカマツクミンシュウカイシツ,,,東京都豊島区高松2-25-9,,35.73862,139.69783,,,,,,,,,,,,
131164,77,東京都,豊島区,千川区民集会室,センカワクミンシュウカイシツ,,,東京都豊島区千川2-9-10,,35.74112,139.69171,,,,,,,,,,,,
131164,78,東京都,豊島区,巣鴨第三区民集会室,スガモダイサンクミンシュウカイシツ,,,東京都豊島区巣鴨1-44-3,,35.73035,139.73676,,,,,,,,,,,,
131164,79,東京都,豊島区,東池袋第四区民集会室,ヒガシイケブクロダイヨンクミンシュウカイシツ,,,東京都豊島区東池袋4-32-15,,35.72641,139.7218,,,,,,,,,,,,
131164,80,東京都,豊島区,目白第二区民集会室,メジロダイニクミンシュウカイシツ,,,東京都豊島区目白3-4-3,,35.72173,139.70589,,,,,,,,,,,,
131164,81,東京都,豊島区,ふるさと千川館,フルサトセンカワカン,,,東京都豊島区要町3-55-18,,35.74031,139.68839,,,,,,,,,,,,
131164,82,東京都,豊島区,高齢者在宅サービスセンター長崎第二豊寿園,コウレイシャザイタクサービスセンターナガサキダイニホウジュエン,,,東京都豊島区長崎6-34-10,,35.73537,139.68257,,,,,,,,,,,,
131164,83,東京都,豊島区,高齢者在宅サービスセンター千川豊寿園,コウレイシャザイタクサービスセンターセンカワホウジュエン,,,東京都豊島区千川2-9-10,,35.74112,139.69171,,,,,,,,,,,,
131164,84,東京都,豊島区,心身障害者福祉センター,シンシンショウガイシャフクシセンター,,,東京都豊島区目白5-18-8,,35.72381,139.69547,,,,,,,,,,,,
131164,85,東京都,豊島区,駒込生活実習所,コマゴメセイカツジッシュウジョ,,,東京都豊島区駒込4-7-1,,35.73521,139.74182,,,,,,,,,,,,
131164,86,東京都,豊島区,駒込福祉作業所,コマゴメフクシサギョウショ,,,東京都豊島区駒込4-7-1,,35.73521,139.74182,,,,,,,,,,,,
131164,87,東京都,豊島区,目白生活実習所,メジロセイカツジッシュウジョ,,,東京都豊島区目白5-18-8,,35.72381,139.69547,,,,,,,,,,,,
131164,88,東京都,豊島区,目白福祉作業所,メジロフクシサギョウショ,,,東京都豊島区目白5-18-8,,35.72381,139.69547,,,,,,,,,,,,
131164,89,東京都,豊島区,駒込福祉作業所分室,コマゴメフクシサギョウショブンシツ,,,東京都豊島区池袋本町1-6-12,,35.73747,139.71396,,,,,,,,,,,,
131164,90,東京都,豊島区,目白生活実習所分室,メジロセイカツジッシュウジョブンシツ,,,東京都豊島区上池袋2-5-1,,35.7348,139.71475,,,,,,,,,,,,
131164,91,東京都,豊島区,福祉ホームさくらんぼ,フクシホームサクランボ,,,東京都豊島区西池袋3-8-20,,35.72753,139.70329,,,,,,,,,,,,
131164,92,東京都,豊島区,高田介護予防センター,タカダカイゴヨボウセンター,,,東京都豊島区高田3-38-7,,35.71617,139.71097,,,,,,,,,,,,
131164,93,東京都,豊島区,東池袋フレイル対策センター,ヒガシイケブクロフレイルタイサクセンター,,,東京都豊島区東池袋2-38-10,,35.73165,139.72156,,,,,,,,,,,,
131164,94,東京都,豊島区,中央高齢者総合相談センター,チュウオウコウレイシャソウゴウソウダンセンター,,,東京都豊島区東池袋1-39-2,,35.73244,139.71432,,,,,,,,,,,,
131164,95,東京都,豊島区,いけよんの郷高齢者総合相談センター,イケヨンノサトコウレイシャソウゴウソウダンセンター,,,東京都豊島区池袋本町1-29-12,,35.73973,139.71463,,,,,,,,,,,,
131164,96,東京都,豊島区,アトリエ村高齢者総合相談センター,アトリエムラコウレイシャソウゴウソウダンセンター,,,東京都豊島区長崎4-23-1,,35.73022,139.68628,,,,,,,,,,,,
131164,97,東京都,豊島区,豊島区医師会高齢者総合相談センター,トシマクイシカイコウレイシャソウゴウソウダンセンター,,,東京都豊島区西池袋3-22-16,,35.73023,139.70639,,,,,,,,,,,,
131164,98,東京都,豊島区,菊かおる園高齢者総合相談センター,キクカオルソノコウレイシャソウゴウソウダンセンター,,,東京都豊島区西巣鴨2-30-19,,35.73919,139.72845,,,,,,,,,,,,
131164,99,東京都,豊島区,ふくろうの杜高齢者総合相談センター,フクロウノモリコウレイシャソウゴウソウダンセンター,,,東京都豊島区南池袋3-7-8,,35.72355,139.71231,,,,,,,,,,,,
131164,100,東京都,豊島区,東部高齢者総合相談センター,トウブコウレイシャソウゴウソウダンセンター,,,東京都豊島区南大塚2-36-2,,35.72909,139.72986,,,,,,,,,,,,
131164,101,東京都,豊島区,西部高齢者総合相談センター,セイブコウレイシャソウゴウソウダンセンター,,,東京都豊島区千早2-39-16,,35.73556,139.69102,,,,,,,,,,,,
131164,102,東京都,豊島区,長崎休日診療所,ナガサキキュウジツシンリョウジョ,,,東京都豊島区長崎2-27-18,,35.72959,139.69295,,,,,,,,,,,,
131164,103,東京都,豊島区,池袋休日診療所,イケブクロキュウジツシンリョウジョ,,,東京都豊島区東池袋4-42-16,,35.72778,139.72185,,,,,,,,,,,,
131164,104,東京都,豊島区,口腔保健センター,コウクウホケンセンター,,,東京都豊島区東池袋4-42-16,,35.72778,139.72185,,,,,,,,,,,,
131164,105,東京都,豊島区,池袋あうる薬局,イケブクロアウルヤッキョク,,,東京都豊島区東池袋4-42-16,,35.72778,139.72185,,,,,,,,,,,,
131164,106,東京都,豊島区,豊島健康診査センター,トシマケンコウシンサセンター,,,東京都豊島区上池袋2-5-1,,35.7348,139.71475,,,,,,,,,,,,
131164,107,東京都,豊島区,子どもスキップ駒込,コドモスキップコマゴメ,,,東京都豊島区駒込3-13-1,,35.73823,139.74313,,,,,,,,,,,,
131164,108,東京都,豊島区,子どもスキップ仰高,コドモスキップギョウコウ,,,東京都豊島区駒込5-1-19,,35.7362,139.73834,,,,,,,,,,,,
131164,109,東京都,豊島区,子どもスキップ朝日,コドモスキップアサヒ,,,東京都豊島区巣鴨5-33-1,,35.74098,139.73323,,,,,,,,,,,,
131164,110,東京都,豊島区,子どもスキップ清和,コドモスキップセイワ,,,東京都豊島区巣鴨3-13-12,,35.73504,139.73199,,,,,,,,,,,,
131164,111,東京都,豊島区,子どもスキップ西巣鴨,コドモスキップニシスガモ,,,東京都豊島区西巣鴨2-14-11,,35.73853,139.7276,,,,,,,,,,,,
131164,112,東京都,豊島区,子どもスキップ巣鴨,コドモスキップスガモ,,,東京都豊島区南大塚1-24-10,,35.7284,139.73468,,,,,,,,,,,,
131164,113,東京都,豊島区,子どもスキップ池袋第一,コドモスキップイケブクロダイイチ,,,東京都豊島区池袋本町4-36-1,,35.74417,139.71436,,,,,,,,,,,,
131164,114,東京都,豊島区,子どもスキップ豊成,コドモスキップホウセイ,,,東京都豊島区上池袋1-18-24,,35.73488,139.72195,,,,,,,,,,,,
131164,115,東京都,豊島区,子どもスキップ朋有,コドモスキップホウユウ,,,東京都豊島区東池袋4-40-1,,35.72861,139.7233,,,,,,,,,,,,
131164,116,東京都,豊島区,子どもスキップ南池袋,コドモスキップミナミイケブクロ,,,東京都豊島区南池袋3-5-12,,35.72336,139.71379,,,,,,,,,,,,
131164,117,東京都,豊島区,子どもスキップ池袋第三,コドモスキップイケブクロダイサン,,,東京都豊島区西池袋3-14-3,,35.72832,139.70285,,,,,,,,,,,,
131164,118,東京都,豊島区,子どもスキップ池袋,コドモスキップイケブクロ,,,東京都豊島区池袋4-23-8,,35.73771,139.70958,,,,,,,,,,,,
131164,119,東京都,豊島区,子どもスキップ高南,コドモスキップコウナン,,,東京都豊島区高田2-12-7,,35.71659,139.71425,,,,,,,,,,,,
131164,120,東京都,豊島区,子どもスキップ目白,コドモスキップメジロ,,,東京都豊島区目白2-11-6,,35.72074,139.70944,,,,,,,,,,,,
131164,121,東京都,豊島区,子どもスキップ椎名町,コドモスキップシイナマチ,,,東京都豊島区南長崎4-30-5,,35.72654,139.68579,,,,,,,,,,,,
131164,122,東京都,豊島区,子どもスキップ富士見台,コドモスキップフジミダイ,,,東京都豊島区南長崎1-10-5,,35.72458,139.69295,,,,,,,,,,,,
131164,123,東京都,豊島区,子どもスキップ長崎,コドモスキップナガサキ,,,東京都豊島区長崎2-6-3,,35.72841,139.69022,,,,,,,,,,,,
131164,124,東京都,豊島区,子どもスキップさくら,コドモスキップサクラ,,,東京都豊島区長崎6-16-1,,35.73587,139.68004,,,,,,,,,,,,
131164,125,東京都,豊島区,子どもスキップ千早,コドモスキップチハヤ,,,東京都豊島区千早3-33-5,,35.73492,139.68727,,,,,,,,,,,,
131164,126,東京都,豊島区,子どもスキップ要,コドモスキップカナメ,,,東京都豊島区要町2-3-20,,35.73409,139.69391,,,,,,,,,,,,
131164,127,東京都,豊島区,子どもスキップ高松,コドモスキップタカマツ,,,東京都豊島区高松2-57-22,,35.73938,139.69722,,,,,,,,,,,,
131164,128,東京都,豊島区,子どもスキップ池袋本町,コドモスキップイケブクロホンチョウ,,,東京都豊島区池袋本町1-43-1,,35.74055,139.71478,,,,,,,,,,,,
131164,129,東京都,豊島区,ジャンプ長崎,ジャンプナガサキ,,,東京都豊島区長崎2-24-13,,35.72928,139.69102,,,,,,,,,,,,
131164,130,東京都,豊島区,ジャンプ東池袋,ジャンプヒガシイケブクロ,,,東京都豊島区東池袋2-38-10,,35.73165,139.72156,,,,,,,,,,,,
131164,131,東京都,豊島区,西部子ども家庭支援センター,セイブコドモカテイシエンセンター,,,東京都豊島区千早4-6-14,,35.73753,139.68275,,,,,,,,,,,,
131164,132,東京都,豊島区,東部子ども家庭支援センター,トウブコドモカテイシエンセンター,,,東京都豊島区上池袋2-35-22,,35.73687,139.7179,,,,,,,,,,,,
131164,133,東京都,豊島区,駒込第一保育園,コマゴメダイイチホイクエン,,,東京都豊島区駒込7-7-22,,35.74137,139.73889,03 3917 0644,,,豊島区,月火水木金土,7:15,19:15,土曜日の開所時間は07：15から19：15休所日は日曜日及び祝日、12/29から1/3まで,,,https://www.city.toshima.lg.jp/273/kosodate/kosodate/hoikuen/kuritsu/006103.html,
131164,134,東京都,豊島区,巣鴨第一保育園,スガモダイイチホイクエン,,,東京都豊島区巣鴨3-15-20,,35.73552,139.73367,03 3910 8900,,,豊島区,月火水木金土,7:15,19:15,土曜日の開所時間は07：15から19：15休所日は日曜日及び祝日、12/29から1/3まで,,,https://www.city.toshima.lg.jp/275/2102191007.html,
131164,135,東京都,豊島区,西巣鴨第三保育園,ニシスガモダイサンホイクエン,,,東京都豊島区西巣鴨1-2-14,,35.73592,139.72667,03 3940 2341,,,豊島区,月火水木金土,7:15,20:00,土曜日の開所時間は07：15から20：00休所日は日曜日及び祝日、12/29から1/3まで,,,https://www.city.toshima.lg.jp/276/kosodate/kosodate/hoikuen/kuritsu/006111.html,
131164,136,東京都,豊島区,東池袋第一保育園,ヒガシイケブクロダイイチホイクエン,,,東京都豊島区東池袋2-60-19,,35.73359,139.7177,03 3987 4621,,,豊島区,月火水木金土,7:15,20:00,土曜日の開所時間は07：15から20：00休所日は日曜日及び祝日、12/29から1/3まで,,,https://www.city.toshima.lg.jp/277/kosodate/kosodate/hoikuen/kuritsu/006115.html,
131164,137,東京都,豊島区,東池袋第二保育園,ヒガシイケブクロダイニホイクエン,,,東京都豊島区東池袋2-34-1,,35.73262,139.72301,03 3988 3570,,,豊島区,月火水木金土,7:15,19:15,土曜日の開所時間は07：15から19：15休所日は日曜日及び祝日、12/29から1/3まで,,,https://www.city.toshima.lg.jp/278/kosodate/kosodate/hoikuen/kuritsu/006116.html,
131164,138,東京都,豊島区,西池袋第二保育園,ニシイケブクロダイニホイクエン,,,東京都豊島区西池袋4-22-18,,35.72927,139.69858,03 3957 7521,,,豊島区,月火水木金土,7:15,19:15,土曜日の開所時間は07：15から19：15休所日は日曜日及び祝日、12/29から1/3まで,,,https://www.city.toshima.lg.jp/279/kosodate/kosodate/hoikuen/kuritsu/006118.html,
131164,139,東京都,豊島区,池袋第一保育園,イケブクロダイイチホイクエン,,,東京都豊島区上池袋3-39-11,,35.73915,139.72083,03 3916 8568,,,豊島区,月火水木金土,7:15,19:15,土曜日の開所時間は07：15から19：15休所日は日曜日及び祝日、12/29から1/3まで,,,https://www.city.toshima.lg.jp/280/kosodate/kosodate/hoikuen/kuritsu/006119.html,
131164,140,東京都,豊島区,池袋第二保育園,イケブクロダイニホイクエン,,,東京都豊島区池袋本町3-4-5,,35.74249,139.71236,03 3987 4648,,,豊島区,月火水木金土,7:15,19:15,土曜日の開所時間は07：15から19：15休所日は日曜日及び祝日、12/29から1/3まで,,,https://www.city.toshima.lg.jp/281/kosodate/kosodate/hoikuen/kuritsu/006120.html,
131164,141,東京都,豊島区,池袋第三保育園,イケブクロダイサンホイクエン,,,東京都豊島区池袋3-58-15,,35.73514,139.7075,03 3986 4006,,,豊島区,月火水木金土,7:15,20:00,土曜日の開所時間は07：15から20：00休所日は日曜日及び祝日、12/29から1/3まで,,,https://www.city.toshima.lg.jp/282/kosodate/kosodate/hoikuen/kuritsu/006122.html,令和4年4月〜民営化（令和4年3月31日時点の調査なので記載あり）
131164,142,東京都,豊島区,池袋第五保育園,イケブクロダイゴホイクエン,,,東京都豊島区池袋3-26-22,,35.73443,139.70522,03 3987 4653,,,豊島区,月火水木金土,7:15,19:15,土曜日の開所時間は07：15から19：15休所日は日曜日及び祝日、12/29から1/3まで,,,https://www.city.toshima.lg.jp/283/kosodate/kosodate/hoikuen/kuritsu/006123.html,
131164,143,東京都,豊島区,高南保育園,コウナンホイクエン,,,東京都豊島区高田1-24-14,,35.71511,139.71658,03 3987 6845,,,豊島区,月火水木金土,7:15,19:15,土曜日の開所時間は07：15から19：15休所日は日曜日及び祝日、12/29から1/3まで,,,https://www.city.toshima.lg.jp/284/kosodate/kosodate/hoikuen/kuritsu/006126.html,
131164,144,東京都,豊島区,目白第一保育園,メジロダイイチホイクエン,,,東京都豊島区目白5-18-2,,35.72381,139.69547,03 3953 2293,,,豊島区,月火水木金土,7:15,19:15,土曜日の開所時間は07：15から19：15休所日は日曜日及び祝日、12/29から1/3まで,,,https://www.city.toshima.lg.jp/285/kosodate/kosodate/hoikuen/kuritsu/006127.html,
131164,145,東京都,豊島区,目白第二保育園,メジロダイニホイクエン,,,東京都豊島区目白2-23-9,,35.723,139.70932,03 3986 6261,,,豊島区,月火水木金土,7:15,19:15,土曜日の開所時間は07：15から19：15休所日は日曜日及び祝日、12/29から1/3まで,,,https://www.city.toshima.lg.jp/286/kosodate/kosodate/hoikuen/kuritsu/006128.html,
131164,146,東京都,豊島区,南長崎第一保育園,ミナミナガサキダイイチホイクエン,,,東京都豊島区南長崎5-23-7,,35.72996,139.68173,03 3952 6375,,,豊島区,月火水木金土,7:15,19:15,土曜日の開所時間は07：15から19：15休所日は日曜日及び祝日、12/29から1/3まで,,,https://www.city.toshima.lg.jp/287/kosodate/kosodate/hoikuen/kuritsu/006129.html,
131164,147,東京都,豊島区,南長崎第二保育園,ミナミナガサキダイニホイクエン,,,東京都豊島区南長崎2-3-21,,35.7238,139.68903,03 3952 4761,,,豊島区,月火水木金土,7:15,19:15,土曜日の開所時間は07：15から19：15休所日は日曜日及び祝日、12/29から1/3まで,,,https://www.city.toshima.lg.jp/288/kosodate/kosodate/hoikuen/kuritsu/006130.html,
131164,148,東京都,豊島区,長崎保育園,ナガサキホイクエン,,,東京都豊島区長崎3-7-7,,35.72889,139.68889,03 3955 6171,,,豊島区,月火水木金土,7:15,19:15,土曜日の開所時間は07：15から19：15休所日は日曜日及び祝日、12/29から1/3まで,,,https://www.city.toshima.lg.jp/289/kosodate/kosodate/hoikuen/kuritsu/006131.html,
131164,149,東京都,豊島区,要町保育園,カナメホイクエン,,,東京都豊島区要町3-17-11,,35.73743,139.68663,03 3955 6141,,,豊島区,月火水木金土,7:15,19:15,土曜日の開所時間は07：15から19：15休所日は日曜日及び祝日、12/29から1/3まで,,,https://www.city.toshima.lg.jp/290/kosodate/kosodate/hoikuen/kuritsu/006133.html,
131164,150,東京都,豊島区,高松第二保育園,タカマツダイニホイクエン,,,東京都豊島区高松1-7-13,,35.73592,139.69852,03 3955 8421,,,豊島区,月火水木金土,7:15,19:15,土曜日の開所時間は07：15から19：15休所日は日曜日及び祝日、12/29から1/3まで,,,https://www.city.toshima.lg.jp/292/kosodate/kosodate/hoikuen/kuritsu/006135.html,
131164,151,東京都,豊島区,駒込第三保育園,コマゴメダイサンホイクエン,,,東京都豊島区駒込2-2-3,,35.73686,139.74675,03 3915 8677,,,豊島区社会福祉事業団,月火水木金土,7:15,20:00,土曜日の開所時間は07：15から20：00休所日は日曜日及び祝日、12/29から1/3まで,,,https://www.city.toshima.lg.jp/452/kosodate/kosodate/hoikuen/kosetsumine/index.html,
131164,152,東京都,豊島区,南大塚保育園,ミナミオオツカホイクエン,,,東京都豊島区南大塚2-36-3,,35.72909,139.72986,03 3946 7688,,,豊島区社会福祉事業団,月火水木金土,7:15,20:00,土曜日の開所時間は07：15から20：00休所日は日曜日及び祝日、12/29から1/3まで,,,https://www.city.toshima.lg.jp/452/kosodate/kosodate/hoikuen/kosetsumine/index.html,
131164,153,東京都,豊島区,千早さくらそう保育園（豊島区臨時保育所）,チハヤサクラソウホイクエン（トシマクリンジホイクショ）,,,東京都豊島区千早3-13-8,,35.73335,139.68704,03 3972 2701,,,社会福祉法人豊島区社会福祉事業団,月火水木金土,7:15,19:15,休所日は日曜日及び祝日、12/29から1/3まで,,,https://www.city.toshima.lg.jp/453/kosodate/kosodate/hoikuen/1510051254.html,
131164,154,東京都,豊島区,北大塚すくすくルーム,キタオオツカスクスクルーム,,,東京都豊島区北大塚3-18-19,,35.73431,139.7245,03 3910 8533,,,新井雅喜・力石順子・朝日久美子・宮城英恵,月火水木金,8:00,18:00,休所日は土、日曜日及び祝日、12/29から1/3まで,,,https://www.city.toshima.lg.jp/453/kosodate/kosodate/hoikuen/chiikigata/index.html,
131164,155,東京都,豊島区,豊島区立西巣鴨幼稚園,トシマクリツニシスガモヨウチエン,,,東京都豊島区西巣鴨2-14-11,,35.73853,139.7276,03 3915 8131,,,豊島区,月火水木金,9:00,14:00,水曜日は11：45終了。預かり保育は17：00まで。祝日はお休み。,,,https://toshima.schoolweb.ne.jp/nishisugamo_k/,
131164,156,東京都,豊島区,豊島区立池袋幼稚園,トシマクリツイケブクロヨウチエン,,,東京都豊島区池袋3-30-22,,35.73549,139.70486,03 3986 8233,,,豊島区,月火水木金,9:00,14:00,水曜日は11：45終了。預かり保育は17：00まで。祝日はお休み。,,,https://toshima.schoolweb.ne.jp/ikebukuro_k/,
131164,157,東京都,豊島区,豊島区立南長崎幼稚園,トシマクリツミナミナガサキヨウチエン,,,東京都豊島区南長崎4-12-7,,35.7249,139.68509,03 3950 2861,,,豊島区,月火水木金,9:00,14:00,水曜日は11：45終了。預かり保育は17：00まで。祝日はお休み。,,,https://toshima.schoolweb.ne.jp/minaminagasaki_k/,
131164,158,東京都,豊島区,駒込小学校,コマゴメショウガッコウ,,,東京都豊島区駒込3-13-1,,35.73823,139.74313,,,,,,,,,,,,
131164,159,東京都,豊島区,仰高小学校,ギョウコウショウガッコウ,,,東京都豊島区駒込5-1-19,,35.7362,139.73834,,,,,,,,,,,,
131164,160,東京都,豊島区,朝日小学校,アサヒショウガッコウ,,,東京都豊島区巣鴨5-33-1,,35.74098,139.73323,,,,,,,,,,,,
131164,161,東京都,豊島区,清和小学校,セイワショウガッコウ,,,東京都豊島区巣鴨3-14-1,,35.73589,139.73328,,,,,,,,,,,,
131164,162,東京都,豊島区,西巣鴨小学校,ニシスガモショウガッコウ,,,東京都豊島区西巣鴨1-27-1,,35.73845,139.72636,,,,,,,,,,,,
131164,163,東京都,豊島区,巣鴨小学校,スガモショウガッコウ,,,東京都豊島区南大塚1-24-10,,35.7284,139.73468,,,,,,,,,,,,
131164,164,東京都,豊島区,池袋第一小学校,イケブクロダイイチショウガッコウ,,,東京都豊島区池袋本町4-36-1,,35.74417,139.71436,,,,,,,,,,,,
131164,165,東京都,豊島区,豊成小学校,ホウセイショウガッコウ,,,東京都豊島区上池袋1-18-24,,35.73488,139.72195,,,,,,,,,,,,
131164,166,東京都,豊島区,朋有小学校,ホウユウショウガッコウ,,,東京都豊島区東池袋4-40-1,,35.72861,139.7233,,,,,,,,,,,,
131164,167,東京都,豊島区,南池袋小学校,ミナミイケブクロショウガッコウ,,,東京都豊島区南池袋3-18-12,,35.72404,139.71481,,,,,,,,,,,,
131164,168,東京都,豊島区,池袋第三小学校,イケブクロダイサンショウガッコウ,,,東京都豊島区西池袋3-14-3,,35.72832,139.70285,,,,,,,,,,,,
131164,169,東京都,豊島区,池袋小学校,イケブクロショウガッコウ,,,東京都豊島区池袋4-23-8,,35.73771,139.70958,,,,,,,,,,,,
131164,170,東京都,豊島区,高南小学校,コウナンショウガッコウ,,,東京都豊島区高田2-12-7,,35.71659,139.71425,,,,,,,,,,,,
131164,171,東京都,豊島区,目白小学校,メジロショウガッコウ,,,東京都豊島区目白2-11-6,,35.72074,139.70944,,,,,,,,,,,,
131164,172,東京都,豊島区,椎名町小学校,シイナマチショウガッコウ,,,東京都豊島区南長崎4-30-5,,35.72654,139.68579,,,,,,,,,,,,
131164,173,東京都,豊島区,富士見台小学校,フジミダイショウガッコウ,,,東京都豊島区南長崎1-10-5,,35.72458,139.69295,,,,,,,,,,,,
131164,174,東京都,豊島区,長崎小学校,ナガサキショウガッコウ,,,東京都豊島区長崎2-6-3,,35.72841,139.69022,,,,,,,,,,,,
131164,175,東京都,豊島区,さくら小学校,サクラショウガッコウ,,,東京都豊島区長崎6-16-1,,35.73587,139.68004,,,,,,,,,,,,
131164,176,東京都,豊島区,千早小学校,チハヤショウガッコウ,,,東京都豊島区千早3-33-5,,35.73492,139.68727,,,,,,,,,,,,
131164,177,東京都,豊島区,要小学校,カナメショウガッコウ,,,東京都豊島区要町2-3-20,,35.73409,139.69391,,,,,,,,,,,,
131164,178,東京都,豊島区,高松小学校,タカマツショウガッコウ,,,東京都豊島区高松2-57-22,,35.73938,139.69722,,,,,,,,,,,,
131164,179,東京都,豊島区,駒込中学校,コマゴメチュウガッコウ,,,東京都豊島区駒込4-5-1,,35.73574,139.74213,,,,,,,,,,,,
131164,180,東京都,豊島区,巣鴨北中学校,スガモキタチュウガッコウ,,,東京都豊島区西巣鴨3-17-1,,35.74158,139.72913,,,,,,,,,,,,
131164,181,東京都,豊島区,西巣鴨中学校,ニシスガモチュウガッコウ,,,東京都豊島区南大塚3-18-1,,35.7286,139.72731,,,,,,,,,,,,
131164,182,東京都,豊島区,西池袋中学校,ニシイケブクロチュウガッコウ,,,東京都豊島区西池袋4-7-1,,35.72736,139.70035,,,,,,,,,,,,
131164,183,東京都,豊島区,千登世橋中学校,チトセバシチュウガッコウ,,,東京都豊島区目白1-1-1,,35.71749,139.7119,,,,,,,,,,,,
131164,184,東京都,豊島区,明豊中学校,メイホウチュウガッコウ,,,東京都豊島区長崎5-31-29,,35.73539,139.68437,,,,,,,,,,,,
131164,185,東京都,豊島区,千川中学校,センカワチュウガッコウ,,,東京都豊島区高松1-9-21,,35.73581,139.70007,,,,,,,,,,,,
131164,186,東京都,豊島区,池袋本町小学校,イケブクロホンチョウショウガッコウ,,,東京都豊島区池袋本町1-43-1及び4-5-5,,35.74055,139.71478,,,,,,,,,,,,
131164,187,東京都,豊島区,池袋中学校,イケブクロチュウガッコウ,,,東京都豊島区池袋本町1-43-1及び4-5-5,,35.74055,139.71478,,,,,,,,,,,,
131164,188,東京都,豊島区,教育センター,キョウイクセンター,,,東京都豊島区雑司が谷3-1-7,,35.71957,139.71385,,,,,,,,,,,,
131164,189,東京都,豊島区,豊島リサイクルセンター,トシマリサイクルセンター,,,東京都豊島区北大塚3-29-11,,35.73579,139.72534,,,,,,,,,,,,
131164,190,東京都,豊島区,大気汚染巣鴨測定室,タイキオセンスガモソクテイシツ,,,東京都豊島区巣鴨3-13-12,,35.73504,139.73199,,,,,,,,,,,,
131164,191,東京都,豊島区,大気汚染長崎測定室,タイキオセンナガサキソクテイシツ,,,東京都豊島区千早2-39-7,,35.73556,139.69102,,,,,,,,,,,,
131164,192,東京都,豊島区,大気汚染池袋測定室,タイキオセンイケブクロソクテイシツ,,,東京都豊島区南池袋2-45-１,,35.72607,139.71666,,,,,,,,,,,,
131164,193,東京都,豊島区,上池袋二丁目地区リサイクルステーション,カミイケブクロニチョウメチクリサイクルステーション,,,東京都豊島区上池袋2-26-7,,35.73595,139.71562,,,,,,,,,,,,
131164,194,東京都,豊島区,南長崎一丁目地区リサイクルステーション,ミナミナガサキイッチョウメチクリサイクルステーション,,,東京都豊島区南長崎1-14-9,,35.72524,139.69257,,,,,,,,,,,,
131164,195,東京都,豊島区,長崎五丁目地区リサイクルステーション,ナガサキゴチョウメチクリサイクルステーション,,,東京都豊島区長崎5-29-4,,35.73426,139.68391,,,,,,,,,,,,
131164,196,東京都,豊島区,巣鴨駅前公衆便所,スガモエキマエコウシュウベンジョ,,,東京都豊島区巣鴨1-16-１,,35.73342,139.73915,,,,,,,,,,,,
131164,197,東京都,豊島区,巣鴨三丁目公衆便所,スガモサンチョウメコウシュウベンジョ,,,東京都豊島区巣鴨3-35-8,,35.73577,139.73553,,,,,,,,,,,,
131164,198,東京都,豊島区,庚申塚広場公衆便所,コウシンヅカヒロバコウシュウベンジョ,,,東京都豊島区西巣鴨2-32-9,,35.73939,139.72942,,,,,,,,,,,,
131164,199,東京都,豊島区,大塚駅前公衆便所,オオツカエキマエコウシュウベンジョ,,,東京都豊島区南大塚3-33-1,,35.73174,139.72762,,,,,,,,,,,,
131164,200,東京都,豊島区,池袋駅北口前公衆便所,イケブクロエキキタグチマエコウシュウベンジョ,,,東京都豊島区西池袋1-1-40,,35.72994,139.71051,,,,,,,,,,,,
131164,201,東京都,豊島区,目白駅前公衆便所,メジロエキマエコウシュウベンジョ,,,東京都豊島区目白3-3-1,,35.72073,139.70639,,,,,,,,,,,,
131164,202,東京都,豊島区,雑司が谷公園丘の上テラス,ゾウシガヤコウエンオカノウエテラス,,,東京都豊島区雑司が谷2-12-1,,35.71929,139.71667,,,,,,,,,,,,
131164,203,東京都,豊島区,南池袋公園管理棟,ミナミイケブクロコウエンカンリトウ,,,東京都豊島区南池袋2-21-1,,35.7276,139.71432,,,,,,,,,,,,
131164,204,東京都,豊島区,としまみどりの防災公園（管理棟）,トシマミドリノボウサイコウエン(カンリトウ),,,東京都豊島区東池袋4-42,,35.72778,139.72185,,,,,,,,,,,,
131164,205,東京都,豊島区,としまみどりの防災公園（倉庫棟）,トシマミドリノボウサイコウエン(ソウコトウ),,,東京都豊島区東池袋4-42,,35.72778,139.72185,,,,,,,,,,,,
131164,206,東京都,豊島区,目白庭園（赤鳥庵）,メジロテイエン(セキチョウアン),,,東京都豊島区目白3-20-18,,35.72418,139.70547,,,,,,,,,,,,
131164,207,東京都,豊島区,西巣鴨二丁目第二アパート,ニシスガモニチョウメダイニアパート,,,東京都豊島区西巣鴨2-16-1,,35.73949,139.72675,,,,,,,,,,,,
131164,208,東京都,豊島区,上池袋二丁目アパート,カミイケブクロニチョウメアパート,,,東京都豊島区上池袋2-25-9,,35.7361,139.7164,,,,,,,,,,,,
131164,209,東京都,豊島区,ライブピア池袋本町,ライブピアイケブクロホンチョウ,,,東京都豊島区池袋本町2-28-8,,35.74211,139.71144,,,,,,,,,,,,
131164,210,東京都,豊島区,長崎六丁目アパート,ナガサキロクチョウメアパート,,,東京都豊島区長崎6-3-3及び4-10,,35.73389,139.67949,,,,,,,,,,,,
131164,211,東京都,豊島区,ライブピア長崎,ライブピアナガサキ,,,東京都豊島区長崎5-27-5及び7,,35.73416,139.68442,,,,,,,,,,,,
131164,212,東京都,豊島区,千早四丁目アパート,チハヤヨンチョウメアパート,,,東京都豊島区千早4-32-11及び13,,35.73911,139.685,,,,,,,,,,,,
131164,213,東京都,豊島区,要町三丁目アパート,カナメチョウサンチョウメアパート,,,東京都豊島区要町3-7-8,,35.73709,139.68773,,,,,,,,,,,,
131164,214,東京都,豊島区,高松三丁目アパート,タカマツサンチョウメアパート,,,東京都豊島区高松3-5-5,,35.7412,139.69795,,,,,,,,,,,,
131164,215,東京都,豊島区,高松三丁目第二アパート,タカマツサンチョウメダイニアパート,,,東京都豊島区高松3-12-8及び9,,35.74205,139.6982,,,,,,,,,,,,
131164,216,東京都,豊島区,高松三丁目第三アパート,タカマツサンチョウメダイサンアパート,,,東京都豊島区高松3-8-17,,35.74085,139.69533,,,,,,,,,,,,
131164,217,東京都,豊島区,千川二丁目アパート,センカワニチョウメアパート,,,東京都豊島区千川2-5-14,,35.7404,139.69203,,,,,,,,,,,,
131164,218,東京都,豊島区,巣鴨つつじ苑,スガモツツジエン,,,東京都豊島区巣鴨4-15-11,,35.73743,139.73161,,,,,,,,,,,,
131164,219,東京都,豊島区,池袋本町第二つつじ苑,イケブクロホンチョウダイニツツジエン,,,東京都豊島区池袋本町2-28-8,,35.74211,139.71144,,,,,,,,,,,,
131164,220,東京都,豊島区,高田つつじ苑,タカダツツジエン,,,東京都豊島区高田1-2-12,,35.71309,139.7209,,,,,,,,,,,,
131164,221,東京都,豊島区,南長崎つつじ苑,ミナミナガサキツツジエン,,,東京都豊島区南長崎1-14-9,,35.72524,139.69257,,,,,,,,,,,,
131164,222,東京都,豊島区,長崎つつじ苑,ナガサキツツジエン,,,東京都豊島区長崎6-34-10,,35.73537,139.68257,,,,,,,,,,,,
131164,223,東京都,豊島区,千川つつじ苑,センカワツツジエン,,,東京都豊島区千川2-9-10,,35.74112,139.69171,,,,,,,,,,,,
131164,224,東京都,豊島区,池袋つつじ苑,イケブクロツツジエン,,,東京都豊島区池袋2-23-14,,35.7332,139.70454,,,,,,,,,,,,
131164,225,東京都,豊島区,池袋本町つつじ苑,イケブクロホンチョウツツジエン,,,東京都豊島区池袋本町1-30-14,,35.73948,139.71524,,,,,,,,,,,,
131164,226,東京都,豊島区,要町第二つつじ苑,カナメチョウダイニツツジエン,,,東京都豊島区要町1-6-6,,35.73334,139.6955,,,,,,,,,,,,
131164,227,東京都,豊島区,要町つつじ苑,カナメチョウツツジエン,,,東京都豊島区要町3-9-16,,35.73744,139.68953,,,,,,,,,,,,
131164,228,東京都,豊島区,北大塚つつじ苑,キタオオツカツツジエン,,,東京都豊島区北大塚1-33-22,,35.7338,139.73038,,,,,,,,,,,,
131164,229,東京都,豊島区,西池袋つつじ苑,ニシイケブクロツツジエン,,,東京都豊島区西池袋3-11-10,,35.72801,139.70206,,,,,,,,,,,,
131164,230,東京都,豊島区,西巣鴨つつじ苑,ニシスガモツツジエン,,,東京都豊島区西巣鴨2-1-4,,35.73704,139.72969,,,,,,,,,,,,
131164,231,東京都,豊島区,南大塚つつじ苑,ミナミオオツカツツジエン,,,東京都豊島区南大塚1-8-12,,35.72732,139.73524,,,,,,,,,,,,
131164,232,東京都,豊島区,南長崎第二つつじ苑,ミナミナガサキダイニツツジエン,,,東京都豊島区南長崎2-2-16,,35.72316,139.68942,,,,,,,,,,,,
131164,233,東京都,豊島区,ソシエ南池袋第二,ソシエミナミイケブクロダイニ,,,東京都豊島区南池袋3-7-8,,35.72355,139.71231,,,,,,,,,,,,
131164,234,東京都,豊島区,池袋南交差排水場,イケブクロミナミコウサハイスイジョウ,,,東京都豊島区西池袋2-43,,35.72715,139.70941,,,,,,,,,,,,
131164,235,東京都,豊島区,千川二丁目資材倉庫,センカワニチョウメシザイソウコ,,,東京都豊島区千川2-9-10,,35.74112,139.69171,,,,,,,,,,,,
131164,236,東京都,豊島区,道路工事事務所材料置場 作業場兼倉庫,ドウロコウジジムショザイリョウオキバ サギョウバケンソウコ,,,東京都豊島区池袋本町4-50,,35.74177,139.71735,,,,,,,,,,,,
131164,237,東京都,豊島区,アゼリア東池袋,アゼリアヒガシイケブクロ,,,東京都豊島区東池袋5-40-5,,35.72807,139.726,,,,,,,,,,,,
131164,238,東京都,豊島区,駒込備蓄倉庫,コマゴメビチクソウコ,,,東京都豊島区駒込2-2-4,,35.73686,139.74675,,,,,,,,,,,,
131164,239,東京都,豊島区,西巣鴨備蓄倉庫,ニシスガモビチクソウコ,,,東京都豊島区西巣鴨3-17-1,,35.74158,139.72913,,,,,,,,,,,,
131164,240,東京都,豊島区,北大塚備蓄倉庫,キタオオツカビチクソウコ,,,東京都豊島区北大塚3-29-11,,35.73579,139.72534,,,,,,,,,,,,
131164,241,東京都,豊島区,西池袋備蓄倉庫,ニシイケブクロビチクソウコ,,,東京都豊島区西池袋3-20-1,,35.73058,139.70546,,,,,,,,,,,,
131164,242,東京都,豊島区,高田備蓄倉庫,タカダビチクソウコ,,,東京都豊島区目白1-1-1,,35.71749,139.7119,,,,,,,,,,,,
131164,243,東京都,豊島区,上池袋備蓄倉庫,カミイケブクロビチクソウコ,,,東京都豊島区上池袋1-33-20,,35.73575,139.72368,,,,,,,,,,,,
131164,244,東京都,豊島区,駒込中学校救援センター格納庫,コマゴメチュウガッコウキュウエンセンターカクノウコ,,,東京都豊島区駒込4-5-1,,35.73574,139.74213,,,,,,,,,,,,
131164,245,東京都,豊島区,高田二丁目防災資機材格納庫,タカダニチョウメボウサイシキザイカクノウコ,,,東京都豊島区高田2-11-2,,35.71572,139.71443,,,,,,,,,,,,
131164,246,東京都,豊島区,長崎五丁目防災資機材格納庫,ナガサキゴチョウメボウサイシキザイカクノウコ,,,東京都豊島区長崎5-29-4,,35.73426,139.68391,,,,,,,,,,,,
131164,247,東京都,豊島区,南池袋四丁目防災資器材倉庫,ミナミイケブクロヨンチョウメボウサイシキザイソウコ,,,東京都豊島区南池袋4-7-9,,35.72202,139.71739,,,,,,,,,,,,
131164,248,東京都,豊島区,目白二丁目第２児童遊園防災資器材倉庫,メジロニチョウメダイ2ジドウユウエンボウサイシキザイソウコ,,,東京都豊島区目白2-5-10,,35.721,139.71214,,,,,,,,,,,,
131164,249,東京都,豊島区,染井まちづくりセンター,ソメイマチヅクリセンター,,,東京都豊島区駒込6-29-6,,35.74108,139.74142,,,,,,,,,,,,
131164,250,東京都,豊島区,上池袋第1まちづくりセンター,カミイケブクロダイ1マチヅクリセンター,,,東京都豊島区上池袋2-26-7,,35.73595,139.71562,,,,,,,,,,,,
131164,251,東京都,豊島区,上池袋第２まちづくりセンター,カミイケブクロダイ2マチヅクリセンター,,,東京都豊島区上池袋4-40-12,,35.74271,139.71883,,,,,,,,,,,,
131164,252,東京都,豊島区,東池袋４・５丁目まちづくりセンター,ヒガシイケブクロ4・5チョウメマチヅクリセンター,,,東京都豊島区東池袋5-13-8,,35.72575,139.72249,,,,,,,,,,,,
131164,253,東京都,豊島区,としま区民センター,トシマクミンセンター,,,東京都豊島区東池袋1-20-10,,35.73116,139.7157,,,,,,,,,,,,
131164,254,東京都,豊島区,としま産業振興プラザ,トシマサンギョウシンコウプラザ,,,東京都豊島区西池袋2-37-4,,35.72791,139.70682,,,,,,,,,,,,
131164,255,東京都,豊島区,としまスタートアップオフィス,トシマスタートアップオフィス,,,東京都豊島区西池袋2-37-4,,35.72791,139.70682,,,,,,,,,,,,
131164,256,東京都,豊島区,トキワ荘通りお休み処,トキワソウドオリオヤスミドコロ,,,東京都豊島区南長崎2-3-2,,35.7238,139.68903,,,,,,,,,,,,
131164,257,東京都,豊島区,雑司が谷案内処（豊島区雑司が谷情報ステーション）,ゾウシガヤアンナイドコロ(トシマクゾウシガヤジョウホウステーション),,,東京都豊島区雑司が谷3-19-5,,35.72155,139.71494,,,,,,,,,,,,
131164,258,東京都,豊島区,トキワ荘マンガミュージアム,トキワソウマンガミュージアム,,,東京都豊島区南長崎3-9-22,,35.7243,139.68665,,,,,,,,,,,,
131164,259,東京都,豊島区,旧丹羽邸蔵,キュウニワテイクラ,,,東京都豊島区駒込3-12-8,,35.73767,139.74234,,,,,,,,,,,,
131164,260,東京都,豊島区,鈴木信太郎記念館,スズキシンタロウキネンカン,,,東京都豊島区東池袋5-52-3,,35.72607,139.72905,,,,,,,,,,,,
131164,261,東京都,豊島区,雑司が谷旧宣教師館,ゾウシガヤキュウセンキョウシカン,,,東京都豊島区雑司が谷1-25-5,,35.72072,139.7205,,,,,,,,,,,,
131164,262,東京都,豊島区,巣鴨埋蔵文化財倉庫,スガモマイゾウブンカザイソウコ,,,東京都豊島区巣鴨3-8-7,,35.73415,139.73347,,,,,,,,,,,,
131164,263,東京都,豊島区,飯能倉庫,ハンノウソウコ,,,埼玉県飯能市飯能1000-8,,35.86802,139.31142,,,,,,,,,,,,
131164,264,東京都,豊島区,熊谷守一美術館,クマガイモリカズビジュツカン,,,東京都豊島区千早2-27-6,,35.73394,139.69102,,,,,,,,,,,,
131164,265,東京都,豊島区,芸術文化劇場,ゲイジュツブンカゲキジョウ,,,東京都豊島区東池袋1-19,,35.73191,139.71573,,,,,,,,,,,,
131164,266,東京都,豊島区,舞台芸術交流センター,ブタイゲイジュツコウリュウセンター,,,東京都豊島区東池袋4-5-2,,35.7267,139.71896,,,,,,,,,,,,
131164,267,東京都,豊島区,池袋西口公園舞台棟,イケブクロニシグチコウエンブタイトウ,,,東京都豊島区西池袋1-8-26,,35.72988,139.70824,,,,,,,,,,,,
131164,268,東京都,豊島区,池袋西口公園グローバルリングカフェ・トイレ,イケブクロニシグチコウエングローバルリングカフェ・トイレ,,,東京都豊島区西池袋1-8-26,,35.72988,139.70824,,,,,,,,,,,,
131164,269,東京都,豊島区,郷土資料館,キョウドシリョウカン,,,東京都豊島区西池袋2-37-4,,35.72791,139.70682,,,,,,,,,,,,
131164,270,東京都,豊島区,郷土資料館高田倉庫,キョウドシリョウカンタカダソウコ,,,東京都豊島区高田2-11-2,,35.71572,139.71443,,,,,,,,,,,,
131164,271,東京都,豊島区,みらい館大明,ミライカンタイメイ,,,東京都豊島区池袋3-30-8,,35.73549,139.70486,,,,,,,,,,,,
131164,272,東京都,豊島区,ぞうしがや こどもステーション,ゾウシガヤ コドモステーション,,,東京都豊島区雑司が谷3-1-7,,35.71957,139.71385,,,,,,,,,,,,
131164,273,東京都,豊島区,駒込地域文化創造館,コマゴメチイキブンカソウゾウカン,,,東京都豊島区駒込2-2-4,,35.73686,139.74675,,,,,,,,,,,,
131164,274,東京都,豊島区,巣鴨地域文化創造館,スガモチイキブンカソウゾウカン,,,東京都豊島区巣鴨4-15-11,,35.73743,139.73161,,,,,,,,,,,,
131164,275,東京都,豊島区,南大塚地域文化創造館,ミナミオオツカチイキブンカソウゾウカン,,,東京都豊島区南大塚2-36-1から2,,35.72909,139.72986,,,,,,,,,,,,
131164,276,東京都,豊島区,雑司が谷地域文化創造館,ゾウシガヤチイキブンカソウゾウカン,,,東京都豊島区雑司が谷3-1-7,,35.71957,139.71385,,,,,,,,,,,,
131164,277,東京都,豊島区,千早地域文化創造館多目的ホール,チハヤチイキブンカソウゾウカンタモクテキホール,,,東京都豊島区千早2-39-16,,35.73556,139.69102,,,,,,,,,,,,
131164,278,東京都,豊島区,千早地域文化創造館,チハヤチイキブンカソウゾウカン,,,東京都豊島区千早2-35-12,,35.73513,139.68858,,,,,,,,,,,,
131164,279,東京都,豊島区,巣鴨体育館,スガモタイイクカン,,,東京都豊島区巣鴨3-8-7,,35.73415,139.73347,,,,,,,,,,,,
131164,280,東京都,豊島区,池袋スポーツセンター,イケブクロスポーツセンター,,,東京都豊島区上池袋2-5-1,,35.7348,139.71475,,,,,,,,,,,,
131164,281,東京都,豊島区,雑司が谷体育館,ゾウシガヤタイイクカン,,,東京都豊島区雑司が谷3-1-7,,35.71957,139.71385,,,,,,,,,,,,
131164,282,東京都,豊島区,南長崎中央公園スポーツセンター,ミナミナガサキチュウオウコウエンスポーツセンター,,,東京都豊島区南長崎4-13-5,,35.72449,139.68369,,,,,,,,,,,,
131164,283,東京都,豊島区,豊島体育館,トシマタイイクカン,,,東京都豊島区要町3-47-8,,35.73994,139.68948,,,,,,,,,,,,
131164,284,東京都,豊島区,西巣鴨体育場,ニシスガモタイイクジョウ,,,東京都豊島区西巣鴨4-22-19,,35.74472,139.73116,,,,,,,,,,,,
131164,285,東京都,豊島区,総合体育場,ソウゴウタイイクジョウ,,,東京都豊島区東池袋4-41-30,,35.72938,139.72264,,,,,,,,,,,,
131164,286,東京都,豊島区,三芳グランド,ミヨシグランド,,,埼玉県入間郡三芳町上富382-1,,35.82965,139.5123,,,,,,,,,,,,
131164,287,東京都,豊島区,荒川野球場,アラカワヤキュウジョウ,,,東京都板橋区新河岸3荒川河川敷,,35.7968,139.65254,,,,,,,,,,,,
131164,288,東京都,豊島区,駒込図書館,コマゴメトショカン,,,東京都豊島区駒込2-2-2,,35.73686,139.74675,,,,,,,,,,,,
131164,289,東京都,豊島区,巣鴨図書館,スガモトショカン,,,東京都豊島区巣鴨3-8-2,,35.73415,139.73347,,,,,,,,,,,,
131164,290,東京都,豊島区,上池袋図書館,カミイケブクロトショカン,,,東京都豊島区上池袋2-45-15,,35.73846,139.71704,,,,,,,,,,,,
131164,291,東京都,豊島区,中央図書館,チュウオウトショカン,,,東京都豊島区東池袋4-5-2,,35.7267,139.71896,,,,,,,,,,,,
131164,292,東京都,豊島区,池袋図書館,イケブクロトショカン,,,東京都豊島区池袋3-29-10,,35.7357,139.70578,,,,,,,,,,,,
131164,293,東京都,豊島区,目白図書館,メジロトショカン,,,東京都豊島区目白4-31-8,,35.72601,139.69933,,,,,,,,,,,,
131164,294,東京都,豊島区,千早図書館,チハヤトショカン,,,東京都豊島区千早2-44-2,,35.73575,139.68839,,,,,,,,,,,,
131164,295,東京都,豊島区,旧第十中学校,キュウダイジュウチュウガッコウ,,,東京都豊島区千早4-8-19,,35.73808,139.68181,,,,,,,,,,,,
131164,296,東京都,豊島区,旧竹岡健康学園,キュウタケオカケンコウガクエン,,,千葉県富津市竹岡380,,35.18702,139.86652,,,,,,,,,,,,
131164,297,東京都,豊島区,旧朝日中学校,キュウアサヒチュウガッコウ,,,東京都豊島区西巣鴨4-9-1,,35.74346,139.72948,,,,,,,,,,,,
131164,298,東京都,豊島区,旧真和中学校,キュウシンワチュウガッコウ,,,東京都豊島区目白5-24-12,,35.72531,139.69717,,,,,,,,,,,,
131164,299,東京都,豊島区,旧高松第一保育園,キュウタカマツダイイチホイクエン,,,東京都豊島区高松3-10-7,,35.74176,139.6962,,,,,,,,,,,,
131164,300,東京都,豊島区,旧保健福祉部分庁舎,キュウホケンフクシブブンチョウシャ,,,東京都豊島区巣鴨4-22-17,,35.73672,139.73434,,,,,,,,,,,,
131164,301,東京都,豊島区,雑司が谷三丁目区有地,ゾウシガヤサンチョウメクユウチ,,,東京都豊島区雑司が谷3-1,,35.71957,139.71385,,,,,,,,,,,,
131164,302,東京都,豊島区,東池袋四・五丁目仮住居用住宅,ヒガシイケブクロヨン・ゴチョウメカリジュウキョヨウジュウタク,,,東京都豊島区東池袋5-44-10,,35.72752,139.72639,,,,,,,,,,,,
131164,303,東京都,豊島区,駒込東公園,コマゴメヒガシコウエン,,,東京都豊島区駒込1-22-1,,35.73572,139.74966,,,,,,,,,,,,
131164,304,東京都,豊島区,染井吉野桜記念公園,ソメイヨシノサクラキネンコウエン,,,東京都豊島区駒込2-2-1から2,,35.73686,139.74675,,,,,,,,,,,,
131164,305,東京都,豊島区,駒込公園,コマゴメコウエン,,,東京都豊島区駒込2-3-23,,35.73757,139.74695,,,,,,,,,,,,
131164,306,東京都,豊島区,駒込四丁目公園,コマゴメヨンチョウメコウエン,,,東京都豊島区駒込4-7-25,,35.73521,139.74182,,,,,,,,,,,,
131164,307,東京都,豊島区,駒込西公園,コマゴメニシコウエン,,,東京都豊島区駒込5-4-33,,35.73808,139.73907,,,,,,,,,,,,
131164,308,東京都,豊島区,染井よしの桜の里公園,ソメイヨシノサクラノサトコウエン,,,東京都豊島区駒込6-3-1,,35.73854,139.7415,,,,,,,,,,,,
131164,309,東京都,豊島区,江戸橋公園,エドバシコウエン,,,東京都豊島区巣鴨1-37-1,,35.73183,139.73671,,,,,,,,,,,,
131164,310,東京都,豊島区,朝日公園,アサヒコウエン,,,東京都豊島区巣鴨5-22-1,,35.74111,139.73239,,,,,,,,,,,,
131164,311,東京都,豊島区,西巣鴨公園,ニシスガモコウエン,,,東京都豊島区西巣鴨1-3-9,,35.73643,139.72568,,,,,,,,,,,,
131164,312,東京都,豊島区,西巣鴨二丁目公園,ニシスガモニチョウメコウエン,,,東京都豊島区西巣鴨2-27-7,,35.74023,139.72751,,,,,,,,,,,,
131164,313,東京都,豊島区,千川上水公園,センカワジョウスイコウエン,,,東京都豊島区西巣鴨2-39-5,,35.74164,139.72681,,,,,,,,,,,,
131164,314,東京都,豊島区,巣鴨公園,スガモコウエン,,,東京都豊島区北大塚1-12-10,,35.73223,139.73235,,,,,,,,,,,,
131164,315,東京都,豊島区,北大塚二丁目公園,キタオオツカニチョウメコウエン,,,東京都豊島区北大塚2-34-2,,35.73505,139.72968,,,,,,,,,,,,
131164,316,東京都,豊島区,北大塚公園,キタオオツカコウエン,,,東京都豊島区北大塚3-12-15,,35.73384,139.72287,,,,,,,,,,,,
131164,317,東京都,豊島区,南大塚からたち公園,ミナミオオツカカラタチコウエン,,,東京都豊島区南大塚2-5-1,,35.72609,139.73358,,,,,,,,,,,,
131164,318,東京都,豊島区,南大塚公園,ミナミオオツカコウエン,,,東京都豊島区南大塚2-27-1,,35.7277,139.73125,,,,,,,,,,,,
131164,319,東京都,豊島区,大塚台公園,オオツカダイコウエン,,,東京都豊島区南大塚3-27-1,,35.73023,139.72575,,,,,,,,,,,,
131164,320,東京都,豊島区,上池袋中央公園,カミイケブクロチュウオウコウエン,,,東京都豊島区上池袋1-28-7,,35.73697,139.72165,,,,,,,,,,,,
131164,321,東京都,豊島区,上池袋東公園,カミイケブクロヒガシコウエン,,,東京都豊島区上池袋1-30-20,,35.73619,139.7225,,,,,,,,,,,,
131164,322,東京都,豊島区,宮仲公園,ミヤナカコウエン,,,東京都豊島区上池袋1-36-1,,35.7361,139.72464,,,,,,,,,,,,
131164,323,東京都,豊島区,上池袋公園,カミイケブクロコウエン,,,東京都豊島区上池袋2-25-9,,35.7361,139.7164,,,,,,,,,,,,
131164,324,東京都,豊島区,上池袋さくら公園,カミイケブクロサクラコウエン,,,東京都豊島区上池袋2-45-15,,35.73846,139.71704,,,,,,,,,,,,
131164,325,東京都,豊島区,堀之内公園,ホリノウチコウエン,,,東京都豊島区上池袋3-7,,35.73877,139.71889,,,,,,,,,,,,
131164,326,東京都,豊島区,上池袋くすのき公園,カミイケブクロクスノキコウエン,,,東京都豊島区上池袋4-19-1,,35.74068,139.72095,,,,,,,,,,,,
131164,327,東京都,豊島区,中池袋公園,ナカイケブクロコウエン,,,東京都豊島区東池袋1-16-1,,35.73158,139.71504,,,,,,,,,,,,
131164,328,東京都,豊島区,池袋駅前公園,イケブクロエキマエコウエン,,,東京都豊島区東池袋1-50-23,,35.73285,139.71278,,,,,,,,,,,,
131164,329,東京都,豊島区,東池袋青空公園,ヒガシイケブクロアオゾラコウエン,,,東京都豊島区東池袋2-26-1,,35.73132,139.72345,,,,,,,,,,,,
131164,330,東京都,豊島区,東池袋二丁目第三公園,ヒガシイケブクロニチョウメダイサンコウエン,,,東京都豊島区東池袋2-58-7,,35.73357,139.71832,,,,,,,,,,,,
131164,331,東京都,豊島区,東池袋中央公園,ヒカシイケブクロチュウオウコウエン,,,東京都豊島区東池袋3-1-6,,35.72929,139.71919,,,,,,,,,,,,
131164,332,東京都,豊島区,東池袋公園,ヒガシイケブクロコウエン,,,東京都豊島区東池袋3-14-1,,35.7313,139.71777,,,,,,,,,,,,
131164,333,東京都,豊島区,日出町第二公園,ヒノデチョウダイニコウエン,,,東京都豊島区東池袋4-4-1,,35.72619,139.71945,,,,,,,,,,,,
131164,334,東京都,豊島区,東池袋四丁目公園,ヒガシイケブクロヨンチョウメコウエン,,,東京都豊島区東池袋4-18-11,,35.72657,139.7204,,,,,,,,,,,,
131164,335,東京都,豊島区,日出町公園,ヒノデチョウコウエン,,,東京都豊島区東池袋4-22-1,,35.7277,139.71878,,,,,,,,,,,,
131164,336,東京都,豊島区,東池袋五丁目かしの実公園,ヒガシイケブクロゴチョウメカシノミコウエン,,,東京都豊島区東池袋5-6-15,,35.72495,139.72177,,,,,,,,,,,,
131164,337,東京都,豊島区,南池袋一丁目公園,ミナミイケブクロイッチョウメコウエン,,,東京都豊島区南池袋1-4-3,,35.72414,139.70947,,,,,,,,,,,,
131164,338,東京都,豊島区,南池袋公園,ミナミイケブクロコウエン,,,東京都豊島区南池袋2-21-1,,35.7276,139.71432,,,,,,,,,,,,
131164,339,東京都,豊島区,南池ふくろうひろば,ミナミイケフクロウヒロバ,,,東京都豊島区南池袋3-17-2,,35.72464,139.71324,,,,,,,,,,,,
131164,340,東京都,豊島区,南池袋みどり公園,ミナミイケブクロミドリコウエン,,,東京都豊島区南池袋4-7-9,,35.72202,139.71739,,,,,,,,,,,,
131164,341,東京都,豊島区,南池袋第二公園,ミナミイケブクロダイニコウエン,,,東京都豊島区南池袋4-8-5,,35.72245,139.71707,,,,,,,,,,,,
131164,342,東京都,豊島区,南池袋四丁目日出公園,ミナミイケブクロヨンチョウメヒノデコウエン,,,東京都豊島区南池袋4-12-16,,35.7245,139.71887,,,,,,,,,,,,
131164,343,東京都,豊島区,池袋西口公園,イケブクロニシグチコウエン,,,東京都豊島区西池袋1-8-26,,35.72988,139.70824,,,,,,,,,,,,
131164,344,東京都,豊島区,元池袋史跡公園,モトイケブクロシセキコウエン,,,東京都豊島区西池袋1-9-12,,35.72892,139.70853,,,,,,,,,,,,
131164,345,東京都,豊島区,上り屋敷公園,アガリヤシキコウエン,,,東京都豊島区西池袋2-14-2,,35.72642,139.70506,,,,,,,,,,,,
131164,346,東京都,豊島区,西池袋公園,ニシイケブクロコウエン,,,東京都豊島区西池袋3-20-1,,35.73058,139.70546,,,,,,,,,,,,
131164,347,東京都,豊島区,谷端川南緑道,ヤバタガワミナミリョクドウ,,,東京都豊島区西池袋4-5-5,,35.72675,139.69954,,,,,,,,,,,,
131164,348,東京都,豊島区,西池袋第二公園,ニシイケブクロダイニコウエン,,,東京都豊島区西池袋4-40-18,,35.72708,139.69638,,,,,,,,,,,,
131164,349,東京都,豊島区,谷端川第二親水公園,ヤバタガワダイニシンスイコウエン,,,東京都豊島区西池袋5-22-11,,35.73084,139.69968,,,,,,,,,,,,
131164,350,東京都,豊島区,池袋一丁目第二公園,イケブクロイッチョウメダイニコウエン,,,東京都豊島区池袋1-8-11,,35.73622,139.71175,,,,,,,,,,,,
131164,351,東京都,豊島区,池袋ふれあい公園,イケブクロフレアイコウエン,,,東京都豊島区池袋2-74-1,,35.73627,139.71048,,,,,,,,,,,,
131164,352,東京都,豊島区,池袋三丁目公園,イケブクロサンチョウメコウエン,,,東京都豊島区池袋3-22-13,,35.73488,139.70387,,,,,,,,,,,,
131164,353,東京都,豊島区,御嶽北公園,ミタケキタコウエン,,,東京都豊島区池袋3-44-20,,35.73748,139.70613,,,,,,,,,,,,
131164,354,東京都,豊島区,池袋第二公園,イケブクロダイニコウエン,,,東京都豊島区池袋3-29-4,,35.7357,139.70578,,,,,,,,,,,,
131164,355,東京都,豊島区,谷端川親水公園,ヤバタガワシンスイコウエン,,,東京都豊島区池袋3-2-5,,35.73333,139.70055,,,,,,,,,,,,
131164,356,東京都,豊島区,池袋公園,イケブクロコウエン,,,東京都豊島区池袋4-22-9,,35.73798,139.70863,,,,,,,,,,,,
131164,357,東京都,豊島区,池袋本町公園,イケブクロホンチョウコウエン,,,東京都豊島区池袋本町1-27-1,,35.73978,139.71364,,,,,,,,,,,,
131164,358,東京都,豊島区,谷端川北緑道,ヤバタガワキタリョクドウ,,,東京都豊島区池袋本町3-33-7,,35.745,139.71027,,,,,,,,,,,,
131164,359,東京都,豊島区,池袋本町電車の見える公園,イケブクロホンチョウデンシャノミエルコウエン,,,東京都豊島区池袋本町4-41,,35.74463,139.71581,,,,,,,,,,,,
131164,360,東京都,豊島区,雑司が谷一丁目公園,ゾウシガヤイッチョウメコウエン,,,東京都豊島区雑司が谷1-36-3,,35.72062,139.7215,,,,,,,,,,,,
131164,361,東京都,豊島区,雑司が谷公園,ゾウシガヤコウエン,,,東京都豊島区雑司が谷2-11-8,,35.71864,139.71642,,,,,,,,,,,,
131164,362,東京都,豊島区,雑司が谷みみずく公園,ゾウシガヤミミズクコウエン,,,東京都豊島区雑司が谷3-15-20,,35.72192,139.71371,,,,,,,,,,,,
131164,363,東京都,豊島区,高田第二公園,タカダダイニコウエン,,,東京都豊島区高田1-2-10,,35.71309,139.7209,,,,,,,,,,,,
131164,364,東京都,豊島区,山吹の里公園,ヤマブキノサトコウエン,,,東京都豊島区高田1-10-5,,35.71413,139.71806,,,,,,,,,,,,
131164,365,東京都,豊島区,高田公園,タカダコウエン,,,東京都豊島区高田1-28-3,,35.71536,139.71506,,,,,,,,,,,,
131164,366,東京都,豊島区,高田第三公園,タカダダイサンコウエン,,,東京都豊島区高田3-18-7,,35.71515,139.70723,,,,,,,,,,,,
131164,367,東京都,豊島区,高田中央三丁目公園,タカダチュウオウサンチョウメコウエン,,,東京都豊島区高田3-38-6,,35.71617,139.71097,,,,,,,,,,,,
131164,368,東京都,豊島区,目白三丁目公園,メジロサンチョウメコウエン,,,東京都豊島区目白3-15-17,,35.72311,139.70627,,,,,,,,,,,,
131164,369,東京都,豊島区,椎名町公園,シイナマチコウエン,,,東京都豊島区南長崎1-20-1,,35.72582,139.69331,,,,,,,,,,,,
131164,370,東京都,豊島区,南長崎花咲公園,ミナミナガサキハナサキコウエン,,,東京都豊島区南長崎3-9-22,,35.7243,139.68665,,,,,,,,,,,,
131164,371,東京都,豊島区,南長崎公園,ミナミナガサキコウエン,,,東京都豊島区南長崎3-37-2,,35.72683,139.68835,,,,,,,,,,,,
131164,372,東京都,豊島区,南長崎三丁目第二公園,ミナミナガサキサンチョウメダイニコウエン,,,東京都豊島区南長崎3-40-13,,35.72711,139.68703,,,,,,,,,,,,
131164,373,東京都,豊島区,南長崎はらっぱ公園,ミナミナガサキハラッパコウエン,,,東京都豊島区南長崎6-1-20,,35.72842,139.67993,,,,,,,,,,,,
131164,374,東京都,豊島区,長崎公園,ナガサキコウエン,,,東京都豊島区長崎3-25-15,,35.73097,139.68803,,,,,,,,,,,,
131164,375,東京都,豊島区,長五さくら公園,チョウゴサクラコウエン,,,東京都豊島区長崎5-28-5,,35.73376,139.68375,,,,,,,,,,,,
131164,376,東京都,豊島区,千早フラワー公園,チハヤフラワーコウエン,,,東京都豊島区千早1-8-1,,35.73128,139.6935,,,,,,,,,,,,
131164,377,東京都,豊島区,千早第二公園,チハヤダイニコウエン,,,東京都豊島区千早1-23-18,,35.73226,139.69672,,,,,,,,,,,,
131164,378,東京都,豊島区,千早公園,チハヤコウエン,,,東京都豊島区千早2-31-10,,35.73489,139.69057,,,,,,,,,,,,
131164,379,東京都,豊島区,千早緑地公園,チハヤリョクチコウエン,,,東京都豊島区千早2-34-2,,35.73446,139.68881,,,,,,,,,,,,
131164,380,東京都,豊島区,千早二丁目公園,チハヤニチョウメコウエン,,,東京都豊島区千早2-35-15,,35.73513,139.68858,,,,,,,,,,,,
131164,381,東京都,豊島区,小鳥がさえずる公園,コトリガサエズルコウエン,,,東京都豊島区千早3-14-19,,35.73314,139.68637,,,,,,,,,,,,
131164,382,東京都,豊島区,千早四丁目なかよし公園,チハヤヨンチョウメナカヨシコウエン,,,東京都豊島区千早4-10-14,,35.73785,139.68356,,,,,,,,,,,,
131164,383,東京都,豊島区,千早四丁目公園,チハヤヨンチョウメコウエン,,,東京都豊島区千早4-31-13,,35.73857,139.68506,,,,,,,,,,,,
131164,384,東京都,豊島区,千川親水公園,センカワシンスイコウエン,,,東京都豊島区要町3-17-5,,35.73743,139.68663,,,,,,,,,,,,
131164,385,東京都,豊島区,ふるさと千川ひろば,フルサトセンカワヒロバ,,,東京都豊島区要町3-54-16,,35.7407,139.68918,,,,,,,,,,,,
131164,386,東京都,豊島区,千川彫刻公園,センカワチョウコクコウエン,,,東京都豊島区千川1-24-2,,35.73841,139.69113,,,,,,,,,,,,
131164,387,東京都,豊島区,南長崎中央公園,ミナミナガサキチュウオウコウエン,,,東京都豊島区南長崎4-13-5,,35.72449,139.68369,,,,,,,,,,,,
131164,388,東京都,豊島区,門と蔵のある広場,モントクラノアルヒロバ,,,東京都豊島区駒込3-12-8,,35.73767,139.74234,,,,,,,,,,,,
131164,389,東京都,豊島区,池本だんだん公園,イケホンダンダンコウエン,,,東京都豊島区池袋本町2-37-1,,35.74348,139.71011,,,,,,,,,,,,
131164,390,東京都,豊島区,としまみどりの防災公園,トシマミドリノボウサイコウエン,,,東京都豊島区東池袋4-42,,35.72778,139.72185,,,,,,,,,,,,
131164,391,東京都,豊島区,としまキッズパーク,トシマキッズパーク,,,東京都豊島区東池袋4-42,,35.72778,139.72185,,,,,,,,,,,,
131164,392,東京都,豊島区,池袋の森,イケブクロノモリ,,,東京都豊島区池袋1-7-10,,35.73531,139.71199,,,,,,,,,,,,
131164,393,東京都,豊島区,目白の森,メジロノモリ,,,東京都豊島区目白4-11-21,,35.72329,139.69879,,,,,,,,,,,,
131164,394,東京都,豊島区,駒込二丁目児童遊園,コマゴメニチョウメジドウユウエン,,,東京都豊島区駒込2-10-8,,35.73833,139.74734,,,,,,,,,,,,
131164,395,東京都,豊島区,そめいよしの児童遊園,ソメイヨシノジドウユウエン,,,東京都豊島区駒込6-1-6,,35.73793,139.74159,,,,,,,,,,,,
131164,396,東京都,豊島区,駒込六丁目児童遊園,コマゴメロクチョウメジドウユウエン,,,東京都豊島区駒込6-25-2,,35.74031,139.74333,,,,,,,,,,,,
131164,397,東京都,豊島区,駒込七丁目第２児童遊園,コマゴメナナチョウメダイ2ジドウユウエン,,,東京都豊島区駒込7-7-4,,35.74137,139.73889,,,,,,,,,,,,
131164,398,東京都,豊島区,駒込七丁目児童遊園,コマゴメナナチョウメジドウユウエン,,,東京都豊島区駒込7-14-3,,35.74045,139.7401,,,,,,,,,,,,
131164,399,東京都,豊島区,巣鴨一丁目児童遊園,スガモイッチョウメジドウユウエン,,,東京都豊島区巣鴨1-2-8,,35.7319,139.7417,,,,,,,,,,,,
131164,400,東京都,豊島区,巣鴨四丁目折戸児童遊園,スガモヨンチョウメオリトジドウユウエン,,,東京都豊島区巣鴨4-12-10,,35.73777,139.73015,,,,,,,,,,,,
131164,401,東京都,豊島区,巣鴨四丁目児童遊園,スガモヨンチョウメジドウユウエン,,,東京都豊島区巣鴨4-22-11,,35.73672,139.73434,,,,,,,,,,,,
131164,402,東京都,豊島区,巣鴨四丁目第３児童遊園,スガモヨンチョウメダイ3ジドウユウエン,,,東京都豊島区巣鴨4-22-17,,35.73672,139.73434,,,,,,,,,,,,
131164,403,東京都,豊島区,巣鴨四丁目第２児童遊園,スガモヨンチョウメダイ2ジドウユウエン,,,東京都豊島区巣鴨4-34-12,,35.73904,139.73083,,,,,,,,,,,,
131164,404,東京都,豊島区,巣鴨五丁目児童遊園,スガモゴチョウメジドウユウエン,,,東京都豊島区巣鴨5-35-18,,35.73964,139.73521,,,,,,,,,,,,
131164,405,東京都,豊島区,西巣鴨四丁目児童遊園,ニシスガモヨンチョウメジドウユウエン,,,東京都豊島区西巣鴨4-18-2,,35.74408,139.73001,,,,,,,,,,,,
131164,406,東京都,豊島区,南大塚一丁目児童遊園,ミナミオオツカイッチョウメジドウユウエン,,,東京都豊島区南大塚1-12-11,,35.72747,139.73392,,,,,,,,,,,,
131164,407,東京都,豊島区,南大塚二丁目ポケット児童遊園,ミナミオオツカニチョウメポケットジドウユウエン,,,東京都豊島区南大塚2-18-9,,35.72702,139.73294,,,,,,,,,,,,
131164,408,東京都,豊島区,南大塚二丁目児童遊園,ミナミオオツカニチョウメジドウユウエン,,,東京都豊島区南大塚2-36-3,,35.72909,139.72986,,,,,,,,,,,,
131164,409,東京都,豊島区,上池袋一丁目児童遊園,カミイケブクロイッチョウメジドウユウエン,,,東京都豊島区上池袋1-14-9,,35.7358,139.72014,,,,,,,,,,,,
131164,410,東京都,豊島区,上池袋一丁目ゆったり広場児童遊園,カミイケブクロイッチョウメユッタリヒロバジドウユウエン,,,東京都豊島区上池袋1-29-11,,35.73671,139.72215,,,,,,,,,,,,
131164,411,東京都,豊島区,上池袋二丁目児童遊園,カミイケブクロニチョウメジドウユウエン,,,東京都豊島区上池袋2-23-10,,35.73631,139.71727,,,,,,,,,,,,
131164,412,東京都,豊島区,上池袋三丁目第３児童遊園,カミイケブクロサンチョウメダイ3ジドウユウエン,,,東京都豊島区上池袋3-13-12,,35.73996,139.71698,,,,,,,,,,,,
131164,413,東京都,豊島区,上池袋三丁目第２児童遊園,カミイケブクロサンチョウメダイ2ジドウユウエン,,,東京都豊島区上池袋3-27-5,,35.73911,139.71904,,,,,,,,,,,,
131164,414,東京都,豊島区,上池袋四丁目児童遊園,カミイケブクロヨンチョウメジドウユウエン,,,東京都豊島区上池袋4-7-2,,35.73982,139.72258,,,,,,,,,,,,
131164,415,東京都,豊島区,上池袋四丁目第２児童遊園,カミイケブクロヨンチョウメダイ2ジドウユウエン,,,東京都豊島区上池袋4-39-6,,35.74292,139.71912,,,,,,,,,,,,
131164,416,東京都,豊島区,東池袋二丁目あじさい児童遊園,ヒガシイケブクロニチョウメアジサイジドウユウエン,,,東京都豊島区東池袋2-35-14,,35.73289,139.72249,,,,,,,,,,,,
131164,417,東京都,豊島区,東池袋二丁目第２児童遊園,ヒガシイケブクロニチョウメダイ2ジドウユウエン,,,東京都豊島区東池袋2-60-7,,35.73359,139.7177,,,,,,,,,,,,
131164,418,東京都,豊島区,東池袋五丁目第２児童遊園,ヒガシイケブクロゴチョウメダイ2ジドウユウエン,,,東京都豊島区東池袋5-21-7,,35.72585,139.72365,,,,,,,,,,,,
131164,419,東京都,豊島区,東池袋五丁目児童遊園,ヒガシイケブクロゴチョウメジドウユウエン,,,東京都豊島区東池袋5-41-14,,35.72729,139.72504,,,,,,,,,,,,
131164,420,東京都,豊島区,雑司が谷中央児童遊園,ゾウシガヤチュウオウジドウユウエン,,,東京都豊島区南池袋4-1-3,,35.72077,139.71753,,,,,,,,,,,,
131164,421,東京都,豊島区,池袋一丁目児童遊園,イケブクロイッチョウメジドウユウエン,,,東京都豊島区池袋1-13-13,,35.7371,139.71364,,,,,,,,,,,,
131164,422,東京都,豊島区,池袋本町一丁目児童遊園,イケブクロホンチョウイッチョウメジドウユウエン,,,東京都豊島区池袋本町1-6-8,,35.73747,139.71396,,,,,,,,,,,,
131164,423,東京都,豊島区,池袋本町二丁目児童遊園,イケブクロホンチョウニチョウメジドウユウエン,,,東京都豊島区池袋本町2-39-7,,35.74425,139.70959,,,,,,,,,,,,
131164,424,東京都,豊島区,池袋本町三丁目チビッ子児童遊園,イケブクロホンチョウサンチョウメチビッコジドウユウエン,,,東京都豊島区池袋本町3-7-15,,35.74332,139.71333,,,,,,,,,,,,
131164,425,東京都,豊島区,池袋本町三丁目第２児童遊園,イケブクロホンチョウサンチョウメダイ2ジドウユウエン,,,東京都豊島区池袋本町3-9-3,,35.7436,139.71271,,,,,,,,,,,,
131164,426,東京都,豊島区,池袋本町三丁目児童遊園,イケブクロホンチョウサンチョウメジドウユウエン,,,東京都豊島区池袋本町3-13-7,,35.74306,139.71118,,,,,,,,,,,,
131164,427,東京都,豊島区,池袋本町四丁目児童遊園,イケブクロホンチョウヨンチョウメジドウユウエン,,,東京都豊島区池袋本町4-22-12,,35.74269,139.71559,,,,,,,,,,,,
131164,428,東京都,豊島区,雑司が谷二丁目四つ家児童遊園,ゾウシガヤニチョウメヨツヤジドウユウエン,,,東京都豊島区雑司が谷2-1-6,,35.71742,139.71736,,,,,,,,,,,,
131164,429,東京都,豊島区,高田一丁目児童遊園,タカダイッチョウメジドウユウエン,,,東京都豊島区高田1-23-33,,35.71547,139.71724,,,,,,,,,,,,
131164,430,東京都,豊島区,高田二丁目中央児童遊園,タカダニチョウメチュウオウジドウユウエン,,,東京都豊島区高田2-6-2,,35.71527,139.71254,,,,,,,,,,,,
131164,431,東京都,豊島区,目白二丁目第２児童遊園,メジロニチョウメダイ2ジドウユウエン,,,東京都豊島区目白2-5-10,,35.721,139.71214,,,,,,,,,,,,
131164,432,東京都,豊島区,目白二丁目児童遊園,メジロニチョウメジドウユウエン,,,東京都豊島区目白2-15-7,,35.7217,139.71068,,,,,,,,,,,,
131164,433,東京都,豊島区,目白四丁目児童遊園,メジロヨンチョウメジドウユウエン,,,東京都豊島区目白4-11-15,,35.72329,139.69879,,,,,,,,,,,,
131164,434,東京都,豊島区,目白四丁目旭出児童遊園,メジロヨンチョウメアサヒデジドウユウエン,,,東京都豊島区目白4-19-11,,35.72477,139.70222,,,,,,,,,,,,
131164,435,東京都,豊島区,目白五丁目児童遊園,メジロゴチョウメジドウユウエン,,,東京都豊島区目白5-15-17,,35.72365,139.6973,,,,,,,,,,,,
131164,436,東京都,豊島区,南長崎二丁目児童遊園,ミナミナガサキニチョウメジドウユウエン,,,東京都豊島区南長崎2-2-21,,35.72316,139.68942,,,,,,,,,,,,
131164,437,東京都,豊島区,南長崎三丁目児童遊園,ミナミナガサキサンチョウメジドウユウエン,,,東京都豊島区南長崎3-4-15,,35.7237,139.68774,,,,,,,,,,,,
131164,438,東京都,豊島区,南長崎六丁目児童遊園,ミナミナガサキロクチョウメジドウユウエン,,,東京都豊島区南長崎6-35-17,,35.73183,139.67888,,,,,,,,,,,,
131164,439,東京都,豊島区,長崎二丁目第２児童遊園,ナガサキニチョウメダイ2ジドウユウエン,,,東京都豊島区長崎2-8-1,,35.72783,139.69135,,,,,,,,,,,,
131164,440,東京都,豊島区,長崎二丁目中央児童遊園,ナガサキニチョウメチュウオウジドウユウエン,,,東京都豊島区長崎2-25-11,,35.7296,139.69162,,,,,,,,,,,,
131164,441,東京都,豊島区,長崎二丁目児童遊園,ナガサキニチョウメジドウユウエン,,,東京都豊島区長崎2-27-18,,35.72959,139.69295,,,,,,,,,,,,
131164,442,東京都,豊島区,長崎四丁目うめの木児童遊園,ナガサキヨンチョウメウメノキジドウユウエン,,,東京都豊島区長崎4-3-8,,35.72902,139.68559,,,,,,,,,,,,
131164,443,東京都,豊島区,長崎四丁目児童遊園,ナガサキヨンチョウメジドウユウエン,,,東京都豊島区長崎4-44-3,,35.7318,139.68681,,,,,,,,,,,,
131164,444,東京都,豊島区,長崎六丁目さつき児童遊園,ナガサキロクチョウメサツキジドウユウエン,,,東京都豊島区長崎6-4-8,,35.73362,139.67929,,,,,,,,,,,,
131164,445,東京都,豊島区,長崎六丁目児童遊園,ナガサキロクチョウメジドウユウエン,,,東京都豊島区長崎6-39-1,,35.73723,139.68137,,,,,,,,,,,,
131164,446,東京都,豊島区,千早三丁目児童遊園,チハヤサンチョウメジドウユウエン,,,東京都豊島区千早3-26-10,,35.73436,139.68626,,,,,,,,,,,,
131164,447,東京都,豊島区,要町一丁目児童遊園,カナメチョウイッチョウメジドウユウエン,,,東京都豊島区要町1-25-3,,35.73496,139.69545,,,,,,,,,,,,
131164,448,東京都,豊島区,要町三丁目児童遊園,カナメチョウサンチョウメジドウユウエン,,,東京都豊島区要町3-7-9,,35.73709,139.68773,,,,,,,,,,,,
131164,449,東京都,豊島区,千川児童遊園,センカワジドウユウエン,,,東京都豊島区要町3-19-2,,35.73863,139.687,,,,,,,,,,,,
131164,450,東京都,豊島区,高松一丁目児童遊園,タカマツイッチョウメジドウユウエン,,,東京都豊島区高松1-6-5,,35.73521,139.69807,,,,,,,,,,,,
131164,451,東京都,豊島区,高松二丁目児童遊園,タカマツニチョウメジドウユウエン,,,東京都豊島区高松2-33-11,,35.73767,139.69937,,,,,,,,,,,,
131164,452,東京都,豊島区,高松三丁目児童遊園,タカマツサンチョウメジドウユウエン,,,東京都豊島区高松3-5-6,,35.7412,139.69795,,,,,,,,,,,,
131164,453,東京都,豊島区,千川二丁目第２児童遊園,センカワニチョウメダイ2ジドウユウエン,,,東京都豊島区千川2-5-15,,35.7404,139.69203,,,,,,,,,,,,
131164,454,東京都,豊島区,千川二丁目中央児童遊園,センカワニチョウメチュウオウジドウユウエン,,,東京都豊島区千川2-11-17,,35.74136,139.69287,,,,,,,,,,,,
131164,455,東京都,豊島区,千川二丁目児童遊園,センカワニチョウメジドウユウエン,,,東京都豊島区千川2-33-4,,35.74155,139.6904,,,,,,,,,,,,
131164,456,東京都,豊島区,染井の杜広場仮児童遊園,ソメイノモリヒロバカリジドウユウエン,,,東京都豊島区駒込4-3,,35.73547,139.74277,,,,,,,,,,,,
131164,457,東京都,豊島区,御嶽神社境内仮児童遊園,ミタケジンジャケイダイカリジドウユウエン,,,東京都豊島区池袋3-51-2,,35.73651,139.70645,,,,,,,,,,,,
131164,458,東京都,豊島区,目白二丁目仮児童遊園,メジロニチョウメカリジドウユウエン,,,東京都豊島区目白2-29先,,35.7236,139.70816,,,,,,,,,,,,
131164,459,東京都,豊島区,目白四丁目仮児童遊園,メジロヨンチョウメカリジドウユウエン,,,東京都豊島区目白4-30先,,35.7263,139.69852,,,,,,,,,,,,
131164,460,東京都,豊島区,南長崎五丁目稲荷神社境内仮児童遊園,ミナミナガサキゴチョウメイナリジンジャケイダイカリジドウユウエン,,,東京都豊島区南長崎5-12-7,,35.7278,139.68382,,,,,,,,,,,,
131164,461,東京都,豊島区,要町一丁目広場仮児童遊園,カナメチョウイッチョウメヒロバカリジドウユウエン,,,東京都豊島区要町1-42-7,,35.73672,139.69843,,,,,,,,,,,,
131164,462,東京都,豊島区,富士浅間神社境内仮児童遊園,フジアサマジンジャケイダイカリジドウユウエン,,,東京都豊島区高松2-9-3,,35.73787,139.6954,,,,,,,,,,,,
131164,463,東京都,豊島区,南長崎三丁目仮児童遊園,ミナミナガサキサンチョウメカリジドウユウエン,,,東京都豊島区南長崎3-9,,35.7243,139.68665,,,,,,,,,,,,
131164,464,東京都,豊島区,目白庭園,メジロテイエン,,,東京都豊島区目白3-20-18,,35.72418,139.70547,,,,,,,,,,,,
131164,465,東京都,豊島区,椎名橋下広場,シイナハシシタヒロバ,,,東京都豊島区西池袋4-39先,,35.72633,139.69626,,,,,,,,,,,,
131164,466,東京都,豊島区,南長崎中央公園スポーツセンター（通路の一部）仮児童遊園,ミナミナガサキチュウオウコウエンスポーツセンター(ツウロノイチブ)カリジドウユウエン,,,東京都豊島区南長崎4-13-5,,35.72449,139.68369,,,,,,,,,,,,
131164,467,東京都,豊島区,池袋本町四丁目路傍緑地,イケブクロホンチョウヨンチョウメロボウリョクチ,,,東京都豊島区池袋本町4-46,,35.74493,139.71817,,,,,,,,,,,,
131164,468,東京都,豊島区,宿坂路傍緑地,シュクザカロボウリョクチ,,,東京都豊島区高田2-11,,35.71572,139.71443,,,,,,,,,,,,
131164,469,東京都,豊島区,千川緑地,センカワリョクチ,,,東京都豊島区要町3-18,,35.73783,139.68652,,,,,,,,,,,,
131164,470,東京都,豊島区,駒込駅北自転車駐車場,コマゴメエキキタジテンシャチュウシャジョウ,,,東京都豊島区駒込2-2-2,,35.73686,139.74675,,,,,,,,,,,,
131164,471,東京都,豊島区,巣鴨駅北自転車駐車場,スガモエキキタジテンシャチュウシャジョウ,,,東京都豊島区巣鴨2-7-11,,35.73471,139.74046,,,,,,,,,,,,
131164,472,東京都,豊島区,巣鴨駅南自転車駐車場,スガモエキミナミジテンシャチュウシャジョウ,,,東京都豊島区巣鴨1-13-8,,35.73285,139.74033,,,,,,,,,,,,
131164,473,東京都,豊島区,西巣鴨駅自転車駐車場,ニシスガモエキジテンシャチュウシャジョウ,,,東京都豊島区西巣鴨3-26-1,,35.74348,139.72778,,,,,,,,,,,,
131164,474,東京都,豊島区,池袋駅東自転車駐車場,イケブクロエキヒガシジテンシャチュウシャジョウ,,,東京都豊島区東池袋1-50-23,,35.73285,139.71278,,,,,,,,,,,,
131164,475,東京都,豊島区,池袋駅南自転車駐車場,イケブクロエキミナミジテンシャチュウシャジョウ,,,東京都豊島区南池袋2-21-6,,35.7276,139.71432,,,,,,,,,,,,
131164,476,東京都,豊島区,池袋駅西自転車駐車場,イケブクロエキニシジテンシャチュウシャジョウ,,,東京都豊島区西池袋3-20-1,,35.73058,139.70546,,,,,,,,,,,,
131164,477,東京都,豊島区,目白駅東自転車駐車場,メジロエキヒガシジテンシャチュウシャジョウ,,,東京都豊島区目白1-4-1,,35.71978,139.70642,,,,,,,,,,,,
131164,478,東京都,豊島区,南長崎自転車駐車場,ミナミナガサキジテンシャチュウシャジョウ,,,東京都豊島区南長崎4-13-5,,35.72449,139.68369,,,,,,,,,,,,
131164,479,東京都,豊島区,要町駅南自転車駐車場,カナメチョウミナミジテンシャチュウシャジョウ,,,東京都豊島区要町1-4-11,,35.7334,139.69649,,,,,,,,,,,,
131164,480,東京都,豊島区,千川駅北第一自転車駐車場,センカワエキキタダイイチジテンシャチュウシャジョウ,,,東京都豊島区要町3-44-8,,35.73908,139.68895,,,,,,,,,,,,
131164,481,東京都,豊島区,千川駅南自転車駐車場,センカワエキミナミジテンシャチュウシャジョウ,,,東京都豊島区要町3-9-16,,35.73744,139.68953,,,,,,,,,,,,
131164,482,東京都,豊島区,巣鴨駅第三自転車駐車場,スガモエキダイサンジテンシャチュウシャジョウ,,,東京都豊島区巣鴨2-9-23,,35.73484,139.73824,,,,,,,,,,,,
131164,483,東京都,豊島区,ウイロード自転車駐車場,ウイロードジテンシャチュウシャジョウ,,,東京都豊島区南池袋1-28-2,,35.72919,139.71141,,,,,,,,,,,,
131164,484,東京都,豊島区,目白駅西自転車駐車場,メジロエキニシジテンシャチュウシャジョウ,,,東京都豊島区目白3-4-3,,35.72173,139.70589,,,,,,,,,,,,
131164,485,東京都,豊島区,椎名橋自転車駐車場,シイナハシジテンシャチュウシャジョウ,,,東京都豊島区長崎1-9-30,,35.72727,139.69556,,,,,,,,,,,,
131164,486,東京都,豊島区,新庚申塚路上自転車駐車場,シンコウシンヅカロジョウジテンシャチュウシャジョウ,,,東京都豊島区西巣鴨3-15先,,35.74192,139.72998,,,,,,,,,,,,
131164,487,東京都,豊島区,千登世橋自転車駐車場,チトセバシジテンシャチュウシャジョウ,,,東京都豊島区雑司が谷3-1-7,,35.71957,139.71385,,,,,,,,,,,,
131164,488,東京都,豊島区,巣鴨駅北口白山通り自転車駐車場,スガモエキキタグチハクサンドオリジテンシャチュウシャジョウ,,,東京都豊島区巣鴨2-9先,,35.73484,139.73824,,,,,,,,,,,,
131164,489,東京都,豊島区,池袋駅北自転車駐車場,イケブクロエキキタジテンシャチュウシャジョウ,,,東京都豊島区池袋1-4-20,,35.73453,139.71301,,,,,,,,,,,,
131164,490,東京都,豊島区,池袋駅北第二自転車駐車場,イケブクロエキキタダイニジテンシャチュウシャジョウ,,,東京都豊島区池袋1-4-20先,,35.73453,139.71301,,,,,,,,,,,,
131164,491,東京都,豊島区,池袋駅東第二自転車駐車場,イケブクロエキヒガシダイニジテンシャチュウシャジョウ,,,東京都豊島区東池袋1-50先,,35.73285,139.71278,,,,,,,,,,,,
131164,492,東京都,豊島区,大塚駅北口路上自転車駐車場,オオツカエキキタグチロジョウジテンシャチュウシャジョウ,,,東京都豊島区北大塚2-14,,35.73224,139.72934,,,,,,,,,,,,
131164,493,東京都,豊島区,空蝉橋原動機付自転車駐車場,ウツセミバシゲンドウキツキジテンシャチュウシャジョウ,,,東京都豊島区北大塚2-3先,,35.73243,139.72667,,,,,,,,,,,,
131164,494,東京都,豊島区,大塚駅北口第二自転車駐車場,オオツカエキキタグチダイニジテンシャチュウシャジョウ,,,東京都豊島区北大塚2-4先,,35.73289,139.72655,,,,,,,,,,,,
131164,495,東京都,豊島区,大塚駅北口第三自転車駐車場,オオツカエキキタグチダイサンジテンシャチュウシャジョウ,,,東京都豊島区北大塚2-4先,,35.73289,139.72655,,,,,,,,,,,,
131164,496,東京都,豊島区,目白駅北自転車駐車場,メジロエキキタジテンシャチュウシャジョウ,,,東京都豊島区目白3-16,,35.72305,139.70688,,,,,,,,,,,,
131164,497,東京都,豊島区,要町駅北自転車駐車場,カナメチョウエキキタジテンシャチュウシャジョウ,,,東京都豊島区要町1-10-8,,35.73359,139.69859,,,,,,,,,,,,
131164,498,東京都,豊島区,要町駅路上自転車駐車場,カナメチョウエキロジョウジテンシャチュウシャジョウ,,,東京都豊島区要町1-2から9先他,,35.73288,139.69731,,,,,,,,,,,,
131164,499,東京都,豊島区,千川駅路上自転車駐車場,センカワエキロジョウジテンシャチュウシャジョウ,,,東京都豊島区要町3-10から23先,,35.73753,139.69011,,,,,,,,,,,,
131164,500,東京都,豊島区,千川駅西自転車駐車場,センカワエキニシジテンシャチュウシャジョウ,,,東京都豊島区要町3-22-11,,35.73887,139.68831,,,,,,,,,,,,
131164,501,東京都,豊島区,千川駅北第二自転車駐車場,センカワエキキタダイニジテンシャチュウシャジョウ,,,東京都豊島区要町3-55先,,35.74031,139.68839,,,,,,,,,,,,
131164,502,東京都,豊島区,新大塚駅路上自転車駐車場,シンオオツカエキロジョウジテンシャチュウシャジョウ,,,東京都豊島区南大塚3-1先,,35.72641,139.72951,,,,,,,,,,,,
131164,503,東京都,豊島区,大塚駅北口第四自転車駐車場,オオツカエキキタグチダイヨンジテンシャチュウシャジョウ,,,東京都豊島区南大塚3-33-4,,35.73174,139.72762,,,,,,,,,,,,
131164,504,東京都,豊島区,大塚駅南自転車駐車場,オオツカエキミナミジテンシャチュウシャジョウ,,,東京都豊島区南大塚3-33-3,,35.73174,139.72762,,,,,,,,,,,,
131164,505,東京都,豊島区,池袋六ツ又陸橋自転車駐車場,イケブクロムツマタリッキョウジテンシャチュウシャジョウ,,,東京都豊島区東池袋3-8先,,35.73281,139.71751,,,,,,,,,,,,
131164,506,東京都,豊島区,池袋駅西第二自転車駐車場,イケブクロエキニシダイニジテンシャチュウシャジョウ,,,東京都豊島区西池袋1-8-1,,35.72988,139.70824,,,,,,,,,,,,
131164,507,東京都,豊島区,神田川第一登録制自転車置場,カンダガワダイイチトウロクセイジテンシャオキバ,,,東京都豊島区高田3-9先,,35.71444,139.70654,,,,,,,,,,,,
131164,508,東京都,豊島区,北池袋自転車置場,キタイケブクロジテンシャオキバ,,,東京都豊島区上池袋4-29,,35.74129,139.71841,,,,,,,,,,,,
131164,509,東京都,豊島区,北池袋自転車置場,キタイケブクロジテンシャオキバ,,,東京都豊島区上池袋4-27,,35.74095,139.7193,,,,,,,,,,,,
131164,510,東京都,豊島区,下板橋自転車置場,シモイタバシジテンシャオキバ,,,東京都豊島区池袋本町3-25先,,35.74527,139.71396,,,,,,,,,,,,
131164,511,東京都,豊島区,東池袋登録制自転車置場,ヒガシイケブクロトウロクセイジテンシャオキバ,,,東京都豊島区南池袋2〜4先,,35.72652,139.71501,,,,,,,,,,,,
131164,512,東京都,豊島区,西巣鴨自転車保管所,ニシスガモジテンシャホカンジョ,,,東京都豊島区西巣鴨4-14,,35.74458,139.72832,,,,,,,,,,,,
131164,513,東京都,豊島区,東池袋五丁目自転車保管所,ヒガシイケブクロゴチョウメジテンシャホカンジョ,,,東京都豊島区東池袋5-44,,35.72752,139.72639,,,,,,,,,,,,
131164,514,東京都,豊島区,池袋三丁目自転車保管所,イケブクロサンチョウメジテンシャホカンジョ,,,東京都豊島区池袋3-58,,35.73514,139.7075,,,,,,,,,,,,
131164,515,東京都,豊島区,池袋駅西自転車駐車場内自転車保管所,イケブクロエキニシジテンシャチュウシャジョウナイジテンシャホカンジョ,,,東京都豊島区西池袋3-20-1,,35.73058,139.70546,,,,,,,,,,,,
131164,516,東京都,豊島区,南長崎自転車保管所,ミナミナガサキジテンシャホカンジョ,,,東京都豊島区南長崎5-3,,35.72692,139.68196,,,,,,,,,,,,
131164,517,東京都,豊島区,富士見橋下自転車保管所,フジミバシシタジテンシャホカンジョ,,,東京都豊島区池袋本町1-1,,35.73727,139.71455,,,,,,,,,,,,
131164,518,東京都,豊島区,第1辻広場(富士山広場),ダイ1ツジヒロバ(フジサンヒロバ),,,東京都豊島区東池袋5-30-7,,35.72674,139.72395,,,,,,,,,,,,
131164,519,東京都,豊島区,第2辻広場(太陽広場),ダイ2ツジヒロバ(タイヨウヒロバ),,,東京都豊島区東池袋5-24-5,,35.72625,139.72421,,,,,,,,,,,,
131164,520,東京都,豊島区,第3辻広場(鎮守の森),ダイ3ツジヒロバ(チンジュノモリ),,,東京都豊島区東池袋5-6-12,,35.72495,139.72177,,,,,,,,,,,,
131164,521,東京都,豊島区,第4辻広場(日光広場),ダイ4ツジヒロバ(ニッコウヒロバ),,,東京都豊島区東池袋4-15-5,,35.72596,139.72118,,,,,,,,,,,,
131164,522,東京都,豊島区,第5辻広場(モーモ―広場),ダイ5ツジヒロバ(モーモーヒロバ),,,東京都豊島区東池袋5-26-4,,35.72687,139.72496,,,,,,,,,,,,
131164,523,東京都,豊島区,第6辻広場(四季の花広場),ダイ6ツジヒロバ(シキノハナヒロバ),,,東京都豊島区東池袋5-32-11,,35.72725,139.72389,,,,,,,,,,,,
131164,524,東京都,豊島区,第7辻広場(日傘広場),ダイ7ツジヒロバ(ヒガサヒロバ),,,東京都豊島区東池袋5-6-5,,35.72495,139.72177,,,,,,,,,,,,
131164,525,東京都,豊島区,第8辻広場(ガタガタ広場),ダイ8ツジヒロバ(ガタガタヒロバ),,,東京都豊島区東池袋5-19,,35.72671,139.7233,,,,,,,,,,,,
131164,526,東京都,豊島区,第9辻広場(さわやか広場),ダイ9ツジヒロバ(サワヤカヒロバ),,,東京都豊島区東池袋5-40-11,,35.72807,139.726,,,,,,,,,,,,
131164,527,東京都,豊島区,第10辻広場(なまず広場),ダイ10ツジヒロバ(ナマズヒロバ),,,東京都豊島区東池袋5-43-12,,35.72704,139.72557,,,,,,,,,,,,
131164,528,東京都,豊島区,第11辻広場(星ふる広場),ダイ11ツジヒロバ(ホシフルヒロバ),,,東京都豊島区東池袋5-35-19,,35.72781,139.72481,,,,,,,,,,,,
131164,529,東京都,豊島区,第１コミュニティ広場,ダイ1コミュニティヒロバ,,,東京都豊島区駒込6-32-8,,35.74213,139.74136,,,,,,,,,,,,
131164,530,東京都,豊島区,第2コミュニティ広場,ダイ2コミュニティヒロバ,,,東京都豊島区駒込6-30-1,,35.74141,139.74127,,,,,,,,,,,,
131164,531,東京都,豊島区,第3コミュニティ広場,ダイ3コミュニティヒロバ,,,東京都豊島区巣鴨5-39-19,,35.74056,139.73639,,,,,,,,,,,,
131164,532,東京都,豊島区,第4コミュニティ広場(朝日ほのぼのランド),ダイ4コミュニティヒロバ(アサヒホノボノランド),,,東京都豊島区巣鴨5-25-11,,35.74192,139.73192,,,,,,,,,,,,
131164,533,東京都,豊島区,第5コミュニティ広場(わたしの庭、みんなの庭),ダイ5コミュニティヒロバ(ワタシノニワ、ミンナノニワ),,,東京都豊島区駒込3-8-2,,35.73694,139.74373,,,,,,,,,,,,
131164,534,東京都,豊島区,第6コミュニティ広場,ダイ6コミュニティヒロバ,,,東京都豊島区巣鴨5-49-4,,35.7398,139.73439,,,,,,,,,,,,
131164,535,東京都,豊島区,上池袋第2まちかど広場(東雲ふれあい広場),カミイケブクロダイ2マチカドヒロバ(シノノメフレアイヒロバ),,,東京都豊島区上池袋4-40-9,,35.74271,139.71883,,,,,,,,,,,,
131164,536,東京都,豊島区,ひだまり防災広場,ヒダマリボウサイヒロバ,,,東京都豊島区上池袋1-17-7,,35.73447,139.72105,,,,,,,,,,,,
131164,537,東京都,豊島区,東通りふれあい広場,アズマドオリフレアイヒロバ,,,東京都豊島区南池袋2-4-4,,35.72458,139.71655,,,,,,,,,,,,
131164,538,東京都,豊島区,防災ミニ広場,ボウサイミニヒロバ,,,東京都豊島区東池袋4-32-1,,35.72641,139.7218,,,,,,,,,,,,
